timestamp,ref_timestamp,ref_lat,ref_lon,x,y,z,delta_xy[0],delta_xy[1],delta_z,vx,vy,vz,z_deriv,delta_vxy[0],delta_vxy[1],delta_vz,ax,ay,az,yaw,ref_alt,dist_bottom,dist_bottom_rate,eph,epv,evh,evv,vxy_max,vz_max,hagl_min,hagl_max,xy_valid,z_valid,v_xy_valid,v_z_valid,xy_reset_counter,z_reset_counter,vxy_reset_counter,vz_reset_counter,xy_global,z_global,dist_bottom_valid
3252000,0,0.0,0.0,0.011962555,-0.0008487103,-0.070925444,-1.1896361e-06,-2.2014865e-06,0.0,0.03757361,-0.00074823084,-0.14497232,-0.13587725,-0.00029740902,-0.0005503716,0.0,0.08068984,0.05588178,-0.1575062,0.4090157,0.0,0.1301159,0.14497232,0.22697815,0.43752658,0.44389042,0.652439,inf,inf,inf,inf,1,1,1,1,1,0,1,1,0,0,0
3348000,0,0.0,0.0,0.014238707,-0.0005828884,-0.078260794,-1.1896361e-06,-2.2014865e-06,0.0,0.04269926,0.00038866387,-0.15345629,-0.13826153,-0.00029740902,-0.0005503716,0.0,0.10329316,-0.065151244,-0.12730154,0.40903643,0.0,0.13965337,0.15345629,0.20815009,0.42906383,0.38755122,0.61998653,inf,inf,inf,inf,1,1,1,1,1,0,1,1,0,0,0
3452000,0,0.0,0.0,0.016876392,-0.00030591406,-0.08504472,-1.1896361e-06,-2.2014865e-06,0.0,0.04743521,0.0010890727,-0.15754382,-0.13493025,-0.00029740902,-0.0005503716,0.0,0.10440643,-0.029033827,-0.13185571,0.40893227,0.0,0.15129349,0.15754382,0.20405954,0.43434602,0.36102733,0.5947366,inf,inf,inf,inf,1,1,1,1,1,0,1,1,0,0,0
3548000,0,0.0,0.0,0.019505763,-8.299622e-05,-0.089025036,-1.1896361e-06,-2.2014865e-06,0.0,0.052697062,0.0012485749,-0.15869841,-0.12785044,-0.00029740902,-0.0005503716,0.0,0.13497849,0.011310679,-0.10900385,0.40883628,0.0,0.1578142,0.15869841,0.19830972,0.43519574,0.34258217,0.56877077,inf,inf,inf,inf,1,1,1,1,1,0,1,1,0,0,0
3652000,0,0.0,0.0,0.022547698,0.00015175913,-0.09172207,-1.1896361e-06,-2.2014865e-06,0.0,0.05960143,0.0010318125,-0.1589827,-0.11916575,-0.00029740902,-0.0005503716,0.0,0.068068475,-0.010347233,-0.12740213,0.4089345,0.0,0.1555091,0.1589827,0.18878867,0.42856312,0.32637188,0.53643715,inf,inf,inf,inf,1,1,1,1,1,0,1,1,0,0,0
3748000,0,0.0,0.0,0.025640247,0.00027766268,-0.09432276,-1.1896361e-06,-2.2014865e-06,0.0,0.064862296,0.0008133591,-0.16328804,-0.11635854,-0.00029740902,-0.0005503716,0.0,0.067398615,0.030888053,-0.15559791,0.40913507,0.0,0.15106589,0.16328804,0.1857032,0.42790008,0.32223764,0.5127639,inf,inf,inf,inf,1,1,1,1,1,0,1,1,0,0,0
3852000,0,0.0,0.0,0.029046474,0.00041809303,-0.097377144,-1.1896361e-06,-2.2014865e-06,0.0,0.06921063,0.0007358439,-0.16534881,-0.111790165,-0.00029740902,-0.0005503716,0.0,0.06757796,-0.030112,-0.19370577,0.4090548,0.0,0.15297687,0.16534881,0.1853267,0.4294633,0.32398275,0.4911206,inf,inf,inf,inf,1,1,1,1,1,0,1,1,0,0,0
3948000,0,0.0,0.0,0.032147523,0.00050491805,-0.09923689,-1.1896361e-06,-2.2014865e-06,0.0,0.07480794,0.0017429106,-0.16726427,-0.10719014,-0.00029740902,-0.0005503716,0.0,0.15069234,0.001870525,-0.11825468,0.40885937,0.0,0.15607785,0.16726427,0.18409517,0.42742208,0.32660252,0.47094578,inf,inf,inf,inf,1,1,1,1,1,0,1,1,0,0,0
4055999,0,0.0,0.0,0.035932127,0.00072521175,-0.10487362,-1.1896361e-06,-2.2014865e-06,0.0,0.08185368,0.002999841,-0.17108352,-0.107651934,-0.00029740902,-0.0005503716,0.0,0.12601593,0.1164463,-0.070195496,0.40857154,0.0,0.14587536,0.17108352,0.17955707,0.41833273,0.32663366,0.44673672,inf,inf,inf,inf,1,1,1,1,1,0,1,1,0,0,0
4159999,0,0.0,0.0,0.039525844,0.0009938746,-0.11090487,-1.1896361e-06,-2.2014865e-06,0.0,0.08720276,0.0032797307,-0.1768393,-0.11074157,-0.00029740902,-0.0005503716,0.0,0.1702166,0.09546697,-0.16754676,0.4082374,0.0,0.15357172,0.1768393,0.18166287,0.41816157,0.33335835,0.4312976,inf,inf,inf,inf,1,1,1,1,1,0,1,1,0,0,0
4256000,0,0.0,0.0,0.04277886,0.0012683873,-0.11182118,-1.1896361e-06,-2.2014865e-06,0.0,0.093280934,0.003966231,-0.17727078,-0.104065016,-0.00029740902,-0.0005503716,0.0,0.07522336,-0.015881784,-0.17101875,0.40802422,0.0,0.15889657,0.17727078,0.18348333,0.416413,0.3383268,0.4171588,inf,inf,inf,inf,1,1,1,1,1,0,1,1,0,0,0
4360000,0,0.0,0.0,0.046133105,0.0014987059,-0.114607684,-1.1896361e-06,-2.2014865e-06,0.0,0.09782258,0.0021930577,-0.17899738,-0.10063488,-0.00029740902,-0.0005503716,0.0,0.107506834,-0.049370717,-0.06361771,0.40813935,0.0,0.15406302,0.17899738,0.18052937,0.40703326,0.33726946,0.40003026,inf,inf,inf,inf,1,1,1,1,1,0,1,1,0,0,0
4456000,0,0.0,0.0,0.049063694,0.0015954704,-0.11611173,-1.1896361e-06,-2.2014865e-06,0.0,0.101661555,0.0017160446,-0.18031941,-0.09646713,-0.00029740902,-0.0005503716,0.0,0.10183005,0.012415475,-0.07111113,0.40837535,0.0,0.16330972,0.18031941,0.18198997,0.404049,0.33986583,0.38977307,inf,inf,inf,inf,1,1,1,1,1,0,1,1,0,0,0
4560000,0,0.0,0.0,0.0519748,0.0015201635,-0.11506245,-1.1896361e-06,-2.2014865e-06,0.0,0.10439288,0.0011822174,-0.17866974,-0.08694961,-0.00029740902,-0.0005503716,0.0,0.13017206,0.03306844,-0.051164996,0.40846264,0.0,0.16204864,0.17866974,0.1855281,0.40346387,0.34340587,0.38190043,inf,inf,inf,inf,1,1,1,1,1,0,1,1,0,0,0
4656000,0,0.0,0.0,0.053999525,0.0014634553,-0.11316344,-1.1896361e-06,-2.2014865e-06,0.0,0.10499524,0.0024494363,-0.17753702,-0.07866423,-0.00029740902,-0.0005503716,0.0,0.109169506,0.007870359,-0.12351572,0.40838575,0.0,0.16096997,0.17753702,0.18088163,0.39286286,0.33602148,0.36991888,inf,inf,inf,inf,1,1,1,1,1,0,1,1,0,0,0
4760000,0,0.0,0.0,0.055784494,0.0015027734,-0.113315746,-1.1896361e-06,-2.2014865e-06,0.0,0.106849775,0.004524336,-0.17881356,-0.07529184,-0.00029740902,-0.0005503716,0.0,0.11641651,-0.004497269,-0.120754346,0.4084534,0.0,0.15484497,0.17881356,0.18429321,0.39267883,0.33697575,0.3650427,inf,inf,inf,inf,1,1,1,1,1,0,1,1,0,0,0
4856000,0,0.0,0.0,0.057086997,0.001695967,-0.114225656,-1.1896361e-06,-2.2014865e-06,0.0,0.10895681,0.004803913,-0.18118162,-0.07444384,-0.00029740902,-0.0005503716,0.0,0.08384487,0.047850814,-0.07838569,0.4085643,0.0,0.15270323,0.18118162,0.18515812,0.39022025,0.3341836,0.3600984,inf,inf,inf,inf,1,1,1,1,1,0,1,1,0,0,0
4960000,0,0.0,0.0,0.057923228,0.001901473,-0.11590487,-1.1896361e-06,-2.2014865e-06,0.0,0.10806109,0.0049563516,-0.18404365,-0.07455811,-0.00029740902,-0.0005503716,0.0,0.09615483,0.013978991,-0.14915596,0.4086072,0.0,0.14453445,0.18404365,0.18206033,0.38324976,0.3257452,0.3532104,inf,inf,inf,inf,1,1,1,1,1,0,1,1,0,0,0
5056000,0,0.0,0.0,0.0,0.0,-0.12178813,-1.1896361e-06,-2.2014865e-06,0.0,0.10561267,0.007949502,-0.18655337,-0.07872219,-0.00029740902,-0.0005503716,0.0,0.07321394,0.029899498,-0.15849805,0.40899828,0.0,0.14452457,0.18655337,0.18259259,0.38144538,0.32166252,0.35016212,inf,inf,inf,inf,0,1,0,1,1,0,1,1,0,0,0
5160000,0,0.0,0.0,0.0,0.0,-0.1276737,-1.1896361e-06,-2.2014865e-06,0.0,0.103250965,0.010596318,-0.19089969,-0.083342314,-0.00029740902,-0.0005503716,0.0,0.11664727,-0.0074017076,-0.12561771,0.4093008,0.0,0.14493755,0.19089969,0.18502598,0.38205296,0.31926918,0.34886396,inf,inf,inf,inf,0,1,0,1,1,0,1,1,0,0,0
5256000,0,0.0,0.0,0.0,0.0,-0.1336722,-1.1896361e-06,-2.2014865e-06,0.0,0.10195417,0.010862979,-0.19631799,-0.08895593,-0.00029740902,-0.0005503716,0.0,0.11607984,0.031156972,-0.11897645,0.40954086,0.0,0.14257327,0.19631799,0.1853599,0.38081625,0.31480873,0.3470475,inf,inf,inf,inf,0,1,0,1,1,0,1,1,0,0,0
5360000,0,0.0,0.0,0.0,0.0,-0.14090359,-1.1896361e-06,-2.2014865e-06,0.0,0.10186948,0.012260323,-0.20011577,-0.09298455,-0.00029740902,-0.0005503716,0.0,0.09319765,-0.052951485,-0.10831467,0.40964544,0.0,0.14526626,0.20011577,0.18117534,0.37511536,0.30454537,0.34283918,inf,inf,inf,inf,0,1,0,1,1,0,1,1,0,0,0
5456000,0,0.0,0.0,0.0,0.0,-0.14544833,-1.1896361e-06,-2.2014865e-06,0.0,0.09861692,0.012116796,-0.20195694,-0.09249042,-0.00029740902,-0.0005503716,0.0,0.10120452,-0.013264456,-0.08525419,0.4096116,0.0,0.15451199,0.20195694,0.18112801,0.37432677,0.29997113,0.34167534,inf,inf,inf,inf,0,1,0,1,1,0,1,1,0,0,0
5560000,0,0.0,0.0,0.0,0.0,-0.14835243,-1.1896361e-06,-2.2014865e-06,0.0,0.098001756,0.012937871,-0.2016113,-0.08785212,-0.00029740902,-0.0005503716,0.0,0.06321407,0.020927835,-0.18887965,0.40972677,0.0,0.15378767,0.2016113,0.18304786,0.37593687,0.29751402,0.34189433,inf,inf,inf,inf,0,1,0,1,1,0,1,1,0,0,0
5656000,0,0.0,0.0,0.0,0.0,-0.15059723,-1.1896361e-06,-2.2014865e-06,0.0,0.09686371,0.012526025,-0.20154104,-0.08391726,-0.00029740902,-0.0005503716,0.0,0.15623634,0.1201941,-0.08237361,0.4098487,0.0,0.1550449,0.20154104,0.18270697,0.3754769,0.29301122,0.3409518,inf,inf,inf,inf,0,1,0,1,1,0,1,1,0,0,0
5760000,0,0.0,0.0,0.0,0.0,-0.15364952,-1.1896361e-06,-2.2014865e-06,0.0,0.09459674,0.014936168,-0.20121327,-0.080675505,-0.00029740902,-0.0005503716,0.0,0.045088816,0.08238731,-0.17858203,0.41004407,0.0,0.15092286,0.20121327,0.17854391,0.37093216,0.28432095,0.33757964,inf,inf,inf,inf,0,1,0,1,1,0,1,1,0,0,0
5856000,0,0.0,0.0,0.0,0.0,-0.15646575,-1.1896361e-06,-2.2014865e-06,0.0,0.09254967,0.0141528845,-0.20151153,-0.07857743,-0.00029740902,-0.0005503716,0.0,0.07818525,-0.015608478,-0.017249955,0.41033763,0.0,0.15023188,0.20151153,0.17830898,0.37088737,0.2807325,0.33670494,inf,inf,inf,inf,0,1,0,1,1,0,1,1,0,0,0
5960000,0,0.0,0.0,0.0,0.0,-0.15874676,-1.1896361e-06,-2.2014865e-06,0.0,0.090693295,0.013902678,-0.19717625,-0.07130872,-0.00029740902,-0.0005503716,0.0,0.021166632,-0.031134207,-0.05461182,0.41009784,0.0,0.15186605,0.19717625,0.17978828,0.37300432,0.27902308,0.33679605,inf,inf,inf,inf,0,1,0,1,1,0,1,1,0,0,0
6056000,0,0.0,0.0,0.0,0.0,-0.15960999,-1.1896361e-06,-2.2014865e-06,0.0,0.0846649,0.013550602,-0.1969455,-0.06775179,-0.00029740902,-0.0005503716,0.0,-0.022270309,-0.030934766,-0.092016526,0.41007388,0.0,0.15192279,0.1969455,0.17407137,0.36686704,0.27009338,0.33208278,inf,inf,inf,inf,0,1,0,1,1,0,1,1,0,0,0
6160000,0,0.0,0.0,0.0,0.0,-0.16186874,-1.1896361e-06,-2.2014865e-06,0.0,0.080946855,0.012763037,-0.1941564,-0.0632809,-0.00029740902,-0.0005503716,0.0,0.08117963,0.017151222,-0.1518037,0.4102438,0.0,0.14751226,0.1941564,0.1756544,0.36920854,0.26914912,0.33191386,inf,inf,inf,inf,0,1,0,1,1,0,1,1,0,0,0
6256000,0,0.0,0.0,0.0,0.0,-0.16474377,-1.1896361e-06,-2.2014865e-06,0.0,0.0788354,0.013184797,-0.19085799,-0.05964998,-0.00029740902,-0.0005503716,0.0,0.13618185,0.038777586,-0.090143636,0.41023678,0.0,0.14430267,0.19085799,0.17532453,0.3693823,0.26658475,0.33036554,inf,inf,inf,inf,0,1,0,1,1,0,1,1,0,0,0
6360000,0,0.0,0.0,0.0,0.0,-0.16601634,-1.1896361e-06,-2.2014865e-06,0.0,0.07711824,0.013171748,-0.18852325,-0.0552838,-0.00029740902,-0.0005503716,0.0,0.1361743,0.021711107,-0.103177495,0.41023847,0.0,0.14839235,0.18852325,0.17179365,0.36563364,0.26073977,0.32622868,inf,inf,inf,inf,0,1,0,1,1,0,1,1,0,0,0
6456000,0,0.0,0.0,0.0,0.0,-0.16598056,-1.1896361e-06,-2.2014865e-06,0.0,0.07296138,0.0148151005,-0.185965,-0.050028477,-0.00029740902,-0.0005503716,0.0,0.013881478,-0.0074827834,-0.0873031,0.41037643,0.0,0.14600879,0.185965,0.17166536,0.3659089,0.25880828,0.3243306,inf,inf,inf,inf,0,1,0,1,1,0,1,1,0,0,0
6560000,0,0.0,0.0,0.0,0.0,-0.16578828,-1.1896361e-06,-2.2014865e-06,0.0,0.07154651,0.016049067,-0.17863566,-0.04054229,-0.00029740902,-0.0005503716,0.0,0.11611164,0.020942023,-0.056817193,0.410398,0.0,0.14468843,0.17863566,0.17327598,0.3682483,0.25876468,0.3232397,inf,inf,inf,inf,0,1,0,1,1,0,1,1,0,0,0
6656000,0,0.0,0.0,0.0,0.0,-0.16534138,-1.1896361e-06,-2.2014865e-06,0.0,0.06830988,0.019032294,-0.17259397,-0.033144306,-0.00029740902,-0.0005503716,0.0,-0.007311435,0.054516565,-0.07700733,0.41047698,0.0,0.14219576,0.17259397,0.17335598,0.36857107,0.2573812,0.32099938,inf,inf,inf,inf,0,1,0,1,1,0,1,1,0,0,0
6760000,0,0.0,0.0,0.0,0.0,-0.16327465,-1.1896361e-06,-2.2014865e-06,0.0,0.06487205,0.021460397,-0.1683093,-0.026409661,-0.00029740902,-0.0005503716,0.0,0.11446044,0.02855936,-0.07980409,0.41064745,0.0,0.1439884,0.1683093,0.16991559,0.36463082,0.25212982,0.31585306,inf,inf,inf,inf,0,1,0,1,1,0,1,1,0,0,0
6856000,0,0.0,0.0,0.0,0.0,-0.16163194,-1.1896361e-06,-2.2014865e-06,0.0,0.06328214,0.025186624,-0.16277596,-0.019676432,-0.00029740902,-0.0005503716,0.0,0.051589623,0.10906009,-0.049804334,0.41065165,0.0,0.14004691,0.16277596,0.16998546,0.36479497,0.25088713,0.31316864,inf,inf,inf,inf,0,1,0,1,1,0,1,1,0,0,0
6960000,0,0.0,0.0,0.0,0.0,-0.15854625,-1.1896361e-06,-2.2014865e-06,0.0,0.059968904,0.025987912,-0.1565921,-0.011582298,-0.00029740902,-0.0005503716,0.0,0.086827695,0.021509584,-0.09157601,0.4104261,0.0,0.14043897,0.1565921,0.17180613,0.3669847,0.2512888,0.31127465,inf,inf,inf,inf,0,1,0,1,1,0,1,1,0,0,0
7056000,0,0.0,0.0,0.0,0.0,-0.15294577,-1.1896361e-06,-2.2014865e-06,0.0,0.057931762,0.028690288,-0.1495849,-0.00077725796,-0.00029740902,-0.0005503716,0.0,0.11491056,-0.0747536,-0.09596068,0.41043612,0.0,0.14415139,0.1495849,0.17183787,0.36695546,0.24991001,0.30818868,inf,inf,inf,inf,0,1,0,1,1,0,1,1,0,0,0
7160000,0,0.0,0.0,0.0,0.0,-0.14466606,-1.1896361e-06,-2.2014865e-06,0.0,0.05611948,0.030903311,-0.13853453,0.015160434,-0.00029740902,-0.0005503716,0.0,0.0826189,-0.031145426,-0.030369496,0.41067904,0.0,0.14512631,0.13853453,0.16872258,0.36287606,0.24531272,0.3024377,inf,inf,inf,inf,0,1,0,1,1,0,1,1,0,0,0
7256000,0,0.0,0.0,0.0,0.0,-0.13668084,-1.1896361e-06,-2.2014865e-06,0.0,0.054952063,0.029238602,-0.13035999,0.026554571,-0.00029740902,-0.0005503716,0.0,0.027832078,0.0804624,-0.091784626,0.41079155,0.0,0.14066914,0.13035999,0.16889091,0.36277452,0.24409094,0.29914445,inf,inf,inf,inf,0,1,0,1,1,0,1,1,0,0,0
7360000,0,0.0,0.0,0.0,0.0,-0.12776169,-1.1896361e-06,-2.2014865e-06,0.0,0.052238595,0.029738383,-0.11937182,0.039863072,-0.00029740902,-0.0005503716,0.0,0.017278535,0.016393917,-0.006012618,0.41066536,0.0,0.13374093,0.11937182,0.1705734,0.36448342,0.2440848,0.29650587,inf,inf,inf,inf,0,1,0,1,1,0,1,1,0,0,0
7456000,0,0.0,0.0,0.0,0.0,-0.119768046,-1.1896361e-06,-2.2014865e-06,0.0,0.05171051,0.030031549,-0.11350451,0.04668653,-0.00029740902,-0.0005503716,0.0,0.062512025,0.057089422,-0.04964601,0.41055834,0.0,0.13245708,0.11350451,0.1660074,0.35834196,0.23799469,0.28969416,inf,inf,inf,inf,0,1,0,1,1,0,1,1,0,0,0
7560000,0,0.0,0.0,0.0,0.0,-0.11167398,-1.1896361e-06,-2.2014865e-06,0.0,0.047057346,0.029729193,-0.10549629,0.054334372,-0.00029740902,-0.0005503716,0.0,0.018091785,0.06781405,-0.052566636,0.41081604,0.0,0.12737164,0.10549629,0.16773479,0.35991916,0.2380085,0.28690287,inf,inf,inf,inf,0,1,0,1,1,0,1,1,0,0,0
7656000,0,0.0,0.0,0.0,0.0,-0.10478058,-1.1896361e-06,-2.2014865e-06,0.0,0.044271883,0.029513974,-0.10016013,0.05831495,-0.00029740902,-0.0005503716,0.0,0.088010326,-0.006232636,-0.029434448,0.4109896,0.0,0.123532355,0.10016013,0.16775225,0.35941285,0.23634173,0.2831801,inf,inf,inf,inf,0,1,0,1,1,0,1,1,0,0,0
7760000,0,0.0,0.0,0.0,0.0,-0.099322826,-1.1896361e-06,-2.2014865e-06,0.0,0.041619968,0.027400227,-0.09358398,0.061118096,-0.00029740902,-0.0005503716,0.0,0.039147153,-0.013002012,-0.03849901,0.41109574,0.0,0.11422907,0.09358398,0.16490245,0.35514358,0.23174065,0.27713087,inf,inf,inf,inf,0,1,0,1,1,0,1,1,0,0,0
7856000,0,0.0,0.0,0.0,0.0,-0.09581316,-1.1896361e-06,-2.2014865e-06,0.0,0.03883743,0.025808051,-0.09075609,0.059071116,-0.00029740902,-0.0005503716,0.0,0.025434623,-0.003462337,-0.06321165,0.41113275,0.0,0.10859942,0.09075609,0.16498311,0.35458124,0.2300664,0.2733995,inf,inf,inf,inf,0,1,0,1,1,0,1,1,0,0,0
7960000,0,0.0,0.0,0.0,0.0,-0.09123663,-1.1896361e-06,-2.2014865e-06,0.0,0.033428628,0.025067292,-0.088303745,0.057691656,-0.00029740902,-0.0005503716,0.0,-0.012940785,0.029740635,-0.055376437,0.4110338,0.0,0.11122913,0.088303745,0.16656652,0.3557569,0.22963816,0.27033186,inf,inf,inf,inf,0,1,0,1,1,0,1,1,0,0,0
8056000,0,0.0,0.0,0.0,0.0,-0.087794244,-1.1896361e-06,-2.2014865e-06,0.0,0.03168571,0.024287466,-0.08332616,0.058585282,-0.00029740902,-0.0005503716,0.0,0.09908181,0.010826494,0.006543699,0.41105974,0.0,0.108325176,0.08332616,0.1667158,0.35512665,0.22798014,0.26660463,inf,inf,inf,inf,0,1,0,1,1,0,1,1,0,0,0
8160000,0,0.0,0.0,0.0,0.0,-0.083657645,-1.1896361e-06,-2.2014865e-06,0.0,0.029793834,0.022034524,-0.07846218,0.059451405,-0.00029740902,-0.0005503716,0.0,0.034425724,-0.037305687,-0.1273807,0.41108915,0.0,0.10514886,0.07846218,0.1636899,0.3506254,0.22302209,0.26055443,inf,inf,inf,inf,0,1,0,1,1,0,1,1,0,0,0
8264000,0,0.0,0.0,0.0,0.0,-0.07922949,-1.1896361e-06,-2.2014865e-06,0.0,0.02768774,0.020322155,-0.0718473,0.062399678,-0.00029740902,-0.0005503716,0.0,-0.013995327,0.034137134,0.04258991,0.41117677,0.0,0.10276999,0.0718473,0.16529955,0.35165015,0.22244312,0.25750408,inf,inf,inf,inf,0,1,0,1,1,0,1,1,0,0,0
8360000,0,0.0,0.0,0.0,0.0,-0.07649658,-1.1896361e-06,-2.2014865e-06,0.0,0.02528403,0.021218713,-0.06945852,0.060029116,-0.00029740902,-0.0005503716,0.0,0.021648914,-0.05639774,-0.14191112,0.41138658,0.0,0.1,0.06945852,0.16519158,0.35074344,0.22027718,0.2537258,inf,inf,inf,inf,0,1,0,1,1,0,1,1,0,0,0
8464000,0,0.0,0.0,0.0,0.0,-0.074346095,-1.1896361e-06,-2.2014865e-06,0.0,0.022620533,0.020809418,-0.06619548,0.057845842,-0.00029740902,-0.0005503716,0.0,0.027253726,0.113386884,0.00016298144,0.41152072,0.0,0.1,0.06619548,0.16216008,0.34622195,0.2151757,0.24787599,inf,inf,inf,inf,0,1,0,1,1,0,1,1,0,0,0
8560000,0,0.0,0.0,0.0,0.0,-0.070401125,-1.1896361e-06,-2.2014865e-06,0.0,0.021137113,0.020261934,-0.061187886,0.060021248,-0.00029740902,-0.0005503716,0.0,0.0093198605,0.061567944,-0.0017024575,0.4116551,0.0,0.10207873,0.061187886,0.16225727,0.3454208,0.2133136,0.24430607,inf,inf,inf,inf,0,1,0,1,1,0,1,1,0,0,0
8664000,0,0.0,0.0,0.0,0.0,-0.06735014,-1.1896361e-06,-2.2014865e-06,0.0,0.019315604,0.021706866,-0.05788204,0.05905956,-0.00029740902,-0.0005503716,0.0,0.001178414,0.070689924,-0.0076331194,0.41167134,0.0,0.10149722,0.05788204,0.15943418,0.34107512,0.20847468,0.23873626,inf,inf,inf,inf,0,1,0,1,1,0,1,1,0,0,0
8760000,0,0.0,0.0,0.0,0.0,-0.06297885,-1.1896361e-06,-2.2014865e-06,0.0,0.019165045,0.020601794,-0.052996423,0.061689295,-0.00029740902,-0.0005503716,0.0,0.06316459,0.011475399,0.009036622,0.41177228,0.0,0.102076754,0.052996423,0.15952998,0.3402668,0.20659892,0.23529774,inf,inf,inf,inf,0,1,0,1,1,0,1,1,0,0,0
8864000,0,0.0,0.0,0.0,0.0,-0.058756325,-1.1896361e-06,-2.2014865e-06,0.0,0.018427245,0.019843735,-0.049048565,0.062366314,-0.00029740902,-0.0005503716,0.0,0.045835618,0.052888192,-0.021462327,0.41178295,0.0,0.1,0.049048565,0.16087388,0.34093142,0.20566966,0.23237944,inf,inf,inf,inf,0,1,0,1,1,0,1,1,0,0,0
8960000,0,0.0,0.0,0.0,0.0,-0.055706628,-1.1896361e-06,-2.2014865e-06,0.0,0.016184699,0.021781748,-0.047570635,0.06013677,-0.00029740902,-0.0005503716,0.0,0.07392882,0.003389992,-0.0097164875,0.4117478,0.0,0.1,0.047570635,0.16077231,0.339955,0.20350029,0.22895324,inf,inf,inf,inf,0,1,0,1,1,0,1,1,0,0,0
9064000,0,0.0,0.0,0.0,0.0,-0.053379465,-1.1896361e-06,-2.2014865e-06,0.0,0.014855846,0.02016606,-0.044971287,0.05813174,-0.00029740902,-0.0005503716,0.0,0.055186883,0.031891547,0.05857553,0.41157466,0.0,0.1,0.044971287,0.15802144,0.33572596,0.19885874,0.2237949,inf,inf,inf,inf,0,1,0,1,1,0,1,1,0,0,0
9160000,0,0.0,0.0,0.0,0.0,-0.052553732,-1.1896361e-06,-2.2014865e-06,0.0,0.011898681,0.021037178,-0.043756194,0.054136697,-0.00029740902,-0.0005503716,0.0,-0.008636561,-0.07181497,-0.015594996,0.41154596,0.0,0.1,0.043756194,0.15787506,0.3347272,0.19678947,0.22050093,inf,inf,inf,inf,0,1,0,1,1,0,1,1,0,0,0
9264000,0,0.0,0.0,0.0,0.0,-0.052914638,-1.1896361e-06,-2.2014865e-06,0.0,0.011751874,0.021195466,-0.042492893,0.04911475,-0.00029740902,-0.0005503716,0.0,0.08033691,-0.034869757,-0.034145076,0.41168636,0.0,0.1,0.042492893,0.15907992,0.3352157,0.19572335,0.2177495,inf,inf,inf,inf,0,1,0,1,1,0,1,1,0,0,0
9360000,0,0.0,0.0,0.0,0.0,-0.052537993,-1.1896361e-06,-2.2014865e-06,0.0,0.011829058,0.021177797,-0.041014146,0.046096347,-0.00029740902,-0.0005503716,0.0,0.016535778,0.006320253,-0.03709085,0.41150227,0.0,0.1,0.041014146,0.15896538,0.33420855,0.19367777,0.21458355,inf,inf,inf,inf,0,1,0,1,1,0,1,1,0,0,0
9464000,0,0.0,0.0,0.0,0.0,-0.048943296,-1.1896361e-06,-2.2014865e-06,0.0,0.010806464,0.023727417,-0.037607096,0.04816732,-0.00029740902,-0.0005503716,0.0,0.012772651,0.014920602,-0.0075846906,0.41154748,0.0,0.1,0.037607096,0.15609935,0.32998767,0.1890394,0.20977058,inf,inf,inf,inf,0,1,0,1,1,0,1,1,0,0,0
9560000,0,0.0,0.0,0.0,0.0,-0.042782344,-1.1896361e-06,-2.2014865e-06,0.0,0.010163725,0.023117317,-0.031239988,0.05575716,-0.00029740902,-0.0005503716,0.0,-0.0030241788,0.08092228,0.0045793126,0.41139346,0.0,0.10052072,0.031239988,0.1559731,0.3289848,0.18706277,0.20675439,inf,inf,inf,inf,0,1,0,1,1,0,1,1,0,0,0
9664000,0,0.0,0.0,0.0,0.0,-0.03543199,-1.1896361e-06,-2.2014865e-06,0.0,0.008750683,0.021639027,-0.027747275,0.06045288,-0.00029740902,-0.0005503716,0.0,0.06873076,0.034065027,0.00060629094,0.41133872,0.0,0.100439556,0.027747275,0.1570599,0.3293429,0.18598641,0.20420428,inf,inf,inf,inf,0,1,0,1,1,0,1,1,0,0,0
9760000,0,0.0,0.0,0.0,0.0,-0.029288676,-1.1896361e-06,-2.2014865e-06,0.0,0.006312443,0.020911831,-0.023232134,0.06477211,-0.00029740902,-0.0005503716,0.0,-0.0024928593,0.018952508,-0.035258938,0.4113719,0.0,0.1,0.023232134,0.15678401,0.32823285,0.18388897,0.20125125,inf,inf,inf,inf,0,1,0,1,1,0,1,1,0,0,0
9864000,0,0.0,0.0,0.0,0.0,-0.023253841,-1.1896361e-06,-2.2014865e-06,0.0,0.004707927,0.022587067,-0.018038636,0.06859213,-0.00029740902,-0.0005503716,0.0,-0.005305919,-0.042904347,0.018146819,0.41124758,0.0,0.1,0.018038636,0.15410975,0.32422337,0.17974082,0.1968968,inf,inf,inf,inf,0,1,0,1,1,0,1,1,0,0,0
9960000,0,0.0,0.0,0.0,0.0,-0.01944464,-1.1896361e-06,-2.2014865e-06,0.0,0.0032593762,0.02030817,-0.015748417,0.067644134,-0.00029740902,-0.0005503716,0.0,0.028529871,0.045577053,-0.011204741,0.410991,0.0,0.1,0.015748417,0.1538943,0.32316947,0.17781077,0.19411612,inf,inf,inf,inf,0,1,0,1,1,0,1,1,0,0,0
10064000,0,0.0,0.0,0.0,0.0,-0.016566645,-1.1896361e-06,-2.2014865e-06,0.0,0.0015609995,0.018860172,-0.01453412,0.06448312,-0.00029740902,-0.0005503716,0.0,0.038505558,0.0073011904,-0.09620282,0.41080087,0.0,0.1,0.01453412,0.15121312,0.31922674,0.17371319,0.1899569,inf,inf,inf,inf,0,1,0,1,1,0,1,1,0,0,0
10160000,0,0.0,0.0,0.0,0.0,-0.015825773,-1.1896361e-06,-2.2014865e-06,0.0,0.0011511018,0.018322846,-0.015046326,0.058584195,-0.00029740902,-0.0005503716,0.0,0.0066279313,0.012230862,-0.053975727,0.41051257,0.0,0.1,0.015046326,0.15106162,0.31823182,0.17199413,0.18734384,inf,inf,inf,inf,0,1,0,1,1,0,1,1,0,0,0
10264000,0,0.0,0.0,0.0,0.0,-0.0150619745,-1.1896361e-06,-2.2014865e-06,0.0,-0.0013542353,0.017199904,-0.011440005,0.056926005,-0.00029740902,-0.0005503716,0.0,-0.007593102,-0.01963169,0.021205282,0.4104563,0.0,0.1,0.011440005,0.15198378,0.31844842,0.17104058,0.18511714,inf,inf,inf,inf,0,1,0,1,1,0,1,1,0,0,0
10360000,0,0.0,0.0,0.0,0.0,-0.013092647,-1.1896361e-06,-2.2014865e-06,0.0,-0.000715192,0.016681528,-0.011500984,0.053643383,-0.00029740902,-0.0005503716,0.0,-0.019264406,0.07045573,-0.03052037,0.41024712,0.0,0.1,0.011500984,0.1517289,0.31737944,0.16925034,0.18257694,inf,inf,inf,inf,0,1,0,1,1,0,1,1,0,0,0
10464000,0,0.0,0.0,0.0,0.0,-0.012066485,-1.1896361e-06,-2.2014865e-06,0.0,-7.060604e-05,0.015735159,-0.009527645,0.051324606,-0.00029740902,-0.0005503716,0.0,0.02313865,-0.0584449,0.056277025,0.4099568,0.0,0.1,0.009527645,0.14924912,0.3136604,0.16560972,0.17883652,inf,inf,inf,inf,0,1,0,1,1,0,1,1,0,0,0
10560000,0,0.0,0.0,0.0,0.0,-0.011901599,-1.1896361e-06,-2.2014865e-06,0.0,0.0016692193,0.013402444,-0.008035315,0.048386887,-0.00029740902,-0.0005503716,0.0,-0.022412946,0.046988226,-0.0005587935,0.40956137,0.0,0.1,0.008035315,0.14900438,0.312624,0.1639541,0.17643565,inf,inf,inf,inf,0,1,0,1,1,0,1,1,0,0,0
10664000,0,0.0,0.0,0.0,0.0,-0.011677665,-1.1896361e-06,-2.2014865e-06,0.0,0.000901744,0.012808178,-0.005801633,0.046287052,-0.00029740902,-0.0005503716,0.0,-0.042286728,0.04721973,0.04405528,0.4092892,0.0,0.1,0.005801633,0.14989425,0.31279656,0.16308622,0.17442313,inf,inf,inf,inf,0,1,0,1,1,0,1,1,0,0,0
10760000,0,0.0,0.0,0.0,0.0,-0.012128813,-1.1896361e-06,-2.2014865e-06,0.0,0.000293939,0.009508676,-0.006067781,0.0417104,-0.00029740902,-0.0005503716,0.0,-0.007039343,0.0100823445,-0.10203849,0.40879783,0.0,0.1,0.006067781,0.14970157,0.3117873,0.1615372,0.17214282,inf,inf,inf,inf,0,1,0,1,1,0,1,1,0,0,0
10864000,0,0.0,0.0,0.0,0.0,-0.013195656,-1.1896361e-06,-2.2014865e-06,0.0,-0.0017358504,0.006372135,-0.0050460324,0.037953332,-0.00029740902,-0.0005503716,0.0,-0.08595923,-0.015295859,-0.029607674,0.4083545,0.0,0.1,0.0050460324,0.1472286,0.30817735,0.15815091,0.1687242,inf,inf,inf,inf,0,1,0,1,1,0,1,1,0,0,0
10968000,0,0.0,0.0,0.0,0.0,-0.013403722,-1.1896361e-06,-2.2014865e-06,0.0,-0.00047475955,0.0053751944,-0.0040485505,0.035547234,-0.00029740902,-0.0005503716,0.0,0.013401411,-0.052979097,0.04719756,0.40808997,0.0,0.1,0.0040485505,0.14811641,0.30834004,0.15741847,0.1668725,inf,inf,inf,inf,0,1,0,1,1,0,1,1,0,0,0
11064000,0,0.0,0.0,0.0,0.0,-0.013675096,-1.1896361e-06,-2.2014865e-06,0.0,-0.00059112324,0.002357599,-0.003414638,0.03317829,-0.00029740902,-0.0005503716,0.0,0.023804458,0.008184339,-0.025637446,0.40771878,0.0,0.1,0.003414638,0.14791642,0.30734766,0.15599264,0.1647582,inf,inf,inf,inf,0,1,0,1,1,0,1,1,0,0,0
11160000,11096000,47.3977508,8.5456074,-0.007409067,-0.0010981658,-0.013441706,-0.0040213303,-0.0053926203,0.0,-0.0058659413,-0.01451537,0.009707248,0.033033084,-0.005172173,-0.013341625,0.011712402,0.106685355,0.1143335,-0.045882534,0.40315586,488.07034,0.1,-0.009707248,1.0000032,0.3052264,0.31625852,0.23718752,inf,inf,inf,inf,1,1,1,1,2,0,2,2,1,1,0
11264000,11096000,47.3977508,8.5456074,-0.007756466,-0.0041021416,-0.008923829,-0.0040213303,-0.0053926203,0.0,-0.005203758,-0.015797302,0.012433266,0.040246397,-0.005172173,-0.013341625,0.011712402,0.009247887,-0.0048478027,0.026142223,0.403735,488.07034,0.1,-0.012433266,1.0006284,0.2900899,0.31774375,0.23738861,inf,inf,inf,inf,1,1,1,1,2,0,2,2,1,1,0
11368000,11096000,47.3977508,8.5456074,-0.007946158,-0.00710673,-0.0052658664,-0.0040213303,-0.0053926203,0.0,-0.0049361777,-0.01958917,0.014081974,0.043622643,-0.005172173,-0.013341625,0.011712402,-0.012348697,-0.07277088,-0.008297152,0.40435967,488.07034,0.1,-0.014081974,0.81768453,0.28149223,0.2924024,0.22639644,inf,inf,inf,inf,1,1,1,1,2,0,2,2,1,1,0
11464000,11096000,47.3977508,8.5456074,-0.008182793,-0.009323861,-0.0025693423,-0.0040213303,-0.0053926203,0.0,-0.0070372946,-0.018899582,0.0125854,0.042483486,-0.005172173,-0.013341625,0.011712402,-0.048648912,0.049761698,-0.025697982,0.40496618,488.07034,0.1,-0.0125854,0.8196492,0.27285588,0.29710993,0.22614196,inf,inf,inf,inf,1,1,1,1,2,0,2,2,1,1,0
11560000,11096000,47.3977508,8.5456074,-0.008420983,-0.011140671,-9.970211e-05,-0.0040213303,-0.0053926203,0.0,-0.008071369,-0.019361774,0.011762503,0.04166815,-0.005172173,-0.013341625,0.011712402,0.020511186,0.0595447,0.043016855,0.40553665,488.07034,0.1,-0.011762503,0.7105978,0.2679405,0.2785938,0.21611647,inf,inf,inf,inf,1,1,1,1,2,0,2,2,1,1,0
11664000,11096000,47.3977508,8.5456074,-0.008388292,-0.012365727,0.0015596638,-0.0040213303,-0.0053926203,0.0,-0.009041856,-0.01836632,0.009744683,0.038603537,-0.005172173,-0.013341625,0.011712402,-0.0064008925,0.07412399,-0.083728686,0.40631706,488.07034,0.1,-0.009744683,0.7139989,0.26617816,0.28684485,0.21546921,inf,inf,inf,inf,1,1,1,1,2,0,2,2,1,1,0
11760000,11096000,47.3977508,8.5456074,-0.008564693,-0.013177722,0.0017632667,-0.0040213303,-0.0053926203,0.0,-0.009650296,-0.018616984,0.0091049615,0.035929818,-0.005172173,-0.013341625,0.011712402,-0.012614327,0.012367563,0.030979512,0.40677282,488.07034,0.1,-0.0091049615,0.63943624,0.2633459,0.27257884,0.20619665,inf,inf,inf,inf,1,1,1,1,2,0,2,2,1,1,0
11864000,11096000,47.3977508,8.5456074,-0.009444779,-0.013559206,0.0033332205,-0.0040213303,-0.0053926203,0.0,-0.008422979,-0.017438497,0.008801448,0.03474765,-0.005172173,-0.013341625,0.011712402,-0.0017139827,-0.021582643,-0.037916,0.40696898,488.07034,0.1,-0.008801448,0.64412487,0.26178005,0.2835459,0.2046334,inf,inf,inf,inf,1,1,1,1,2,0,2,2,1,1,0
11960000,11096000,47.3977508,8.5456074,-0.009894448,-0.014063248,0.0050483565,-0.0040213303,-0.0053926203,0.0,-0.007406277,-0.01962282,0.009798702,0.035140157,-0.005172173,-0.013341625,0.011712402,-0.0139362225,-0.034725793,0.0319574,0.40693337,488.07034,0.1,-0.009798702,0.588782,0.2600975,0.2715064,0.19597545,inf,inf,inf,inf,1,1,1,1,2,0,2,2,1,1,0
12064000,11096000,47.3977508,8.5456074,-0.009860817,-0.014603947,0.0074091875,-0.0040213303,-0.0053926203,0.0,-0.0069469195,-0.019972771,0.009746373,0.034718513,-0.005172173,-0.013341625,0.011712402,-0.030396126,-0.06408744,-0.042099502,0.4066264,488.07034,0.1,-0.009746373,0.5947775,0.26222697,0.28449032,0.19428757,inf,inf,inf,inf,1,1,1,1,2,0,2,2,1,1,0
12160000,11096000,47.3977508,8.5456074,-0.009615414,-0.015262133,0.009787231,-0.0040213303,-0.0053926203,0.0,-0.0058618863,-0.020658962,0.011038148,0.03579715,-0.005172173,-0.013341625,0.011712402,-0.041496124,0.01334105,0.012638046,0.4063059,488.07034,0.1,-0.011038148,0.55130094,0.26105094,0.273261,0.18625559,inf,inf,inf,inf,1,1,1,1,2,0,2,2,1,1,0
12264000,11096000,47.3977508,8.5456074,-0.009152203,-0.015330614,0.014215738,-0.0040213303,-0.0053926203,0.0,-0.0049584378,-0.016056677,0.014016992,0.04005414,-0.005172173,-0.013341625,0.011712402,-0.056746732,-0.020954888,0.052205283,0.40606976,488.07034,0.1,-0.014016992,0.5586312,0.2616594,0.28760538,0.1835633,inf,inf,inf,inf,1,1,1,1,2,0,2,2,1,1,0
12360000,11096000,47.3977508,8.5456074,-0.008602276,-0.01517008,0.017783547,-0.0040213303,-0.0053926203,0.0,-0.0047463872,-0.013370602,0.015875125,0.0421364,-0.005172173,-0.013341625,0.011712402,0.0064332266,0.03760035,-0.0028684733,0.40596476,488.07034,0.1,-0.015875125,0.522945,0.26066253,0.2761912,0.17611407,inf,inf,inf,inf,1,1,1,1,2,0,2,2,1,1,0
12464000,11096000,47.3977508,8.5456074,-0.0075261234,-0.014207078,0.020940367,-0.0040213303,-0.0053926203,0.0,-0.0019837313,-0.009418667,0.01707025,0.042555187,-0.005172173,-0.013341625,0.011712402,-0.02225142,0.052764375,-0.0073108817,0.40547746,488.07034,0.1,-0.01707025,0.5316163,0.26378977,0.29129592,0.17375483,inf,inf,inf,inf,1,1,1,1,2,0,2,2,1,1,0
12560000,11096000,47.3977508,8.5456074,-0.006641438,-0.013248654,0.0233091,-0.0040213303,-0.0053926203,0.0,-0.0027493779,-0.007640359,0.018744985,0.04288621,-0.005172173,-0.013341625,0.011712402,0.08655438,-0.02025834,0.047469508,0.40522927,488.07034,0.1,-0.018744985,0.5012294,0.2627258,0.2791347,0.16686906,inf,inf,inf,inf,1,1,1,1,2,0,2,2,1,1,0
12664000,11096000,47.3977508,8.5456074,-0.0058062156,-0.012071648,0.02534271,-0.0040213303,-0.0053926203,0.0,-0.0022171405,-0.0056404793,0.01898649,0.04115015,-0.005172173,-0.013341625,0.011712402,0.02545386,0.0697394,-0.017233191,0.40534788,488.07034,0.1,-0.01898649,0.5112105,0.26354915,0.29453275,0.16363186,inf,inf,inf,inf,1,1,1,1,2,0,2,2,1,1,0
12760000,11096000,47.3977508,8.5456074,-0.005144179,-0.011119599,0.027347157,-0.0040213303,-0.0053926203,0.0,-0.0037840158,-0.005860689,0.018442309,0.039068397,-0.005172173,-0.013341625,0.011712402,-0.12514228,0.09117487,0.043480653,0.4054729,488.07034,0.1,-0.018442309,0.48449585,0.26241148,0.28139222,0.15733773,inf,inf,inf,inf,1,1,1,1,2,0,2,2,1,1,0
12864000,11096000,47.3977508,8.5456074,-0.0045975978,-0.010083047,0.028718865,-0.0040213303,-0.0053926203,0.0,-0.00094150985,-0.0046342183,0.01963918,0.037960365,-0.005172173,-0.013341625,0.011712402,0.020830104,-0.019279387,-0.0060489397,0.40561333,488.07034,0.1,-0.01963918,0.4957139,0.26295936,0.2967488,0.1539783,inf,inf,inf,inf,1,1,1,1,2,0,2,2,1,1,0
12960000,11096000,47.3977508,8.5456074,-0.003940455,-0.009366533,0.028260136,-0.0040213303,-0.0053926203,0.0,0.00017615294,-0.0038769846,0.02004226,0.034722235,-0.005172173,-0.013341625,0.011712402,-0.027567321,0.0013074313,0.005047768,0.40577194,488.07034,0.1,-0.02004226,0.47156447,0.2617225,0.28262693,0.14827177,inf,inf,inf,inf,1,1,1,1,2,0,2,2,1,1,0
13064000,11096000,47.3977508,8.5456074,-0.0033145226,-0.008753318,0.028127525,-0.0040213303,-0.0053926203,0.0,-0.0002716196,-0.0011412888,0.018294418,0.029934077,-0.005172173,-0.013341625,0.011712402,-0.03984908,0.012982556,0.008858739,0.40582192,488.07034,0.1,-0.018294418,0.48391092,0.26426306,0.2976686,0.14569825,inf,inf,inf,inf,1,1,1,1,2,0,2,2,1,1,0
13160000,11096000,47.3977508,8.5456074,-0.0027559267,-0.008139856,0.028430628,-0.0040213303,-0.0053926203,0.0,0.0007357801,-0.0016064427,0.019073024,0.028661387,-0.005172173,-0.013341625,0.011712402,-0.04335458,-0.0047721476,-0.06132852,0.40570313,488.07034,0.1,-0.019073024,0.4615598,0.26285154,0.28271064,0.14051886,inf,inf,inf,inf,1,1,1,1,2,0,2,2,1,1,0
13264000,11096000,47.3977508,8.5456074,-0.002151266,-0.006819064,0.029173741,-0.0040213303,-0.0053926203,0.0,0.0023175452,0.0025760962,0.018838685,0.026908565,-0.005172173,-0.013341625,0.011712402,-0.04069504,0.040183436,-0.041509975,0.40561795,488.07034,0.1,-0.018838685,0.47490168,0.26279914,0.29729834,0.13732252,inf,inf,inf,inf,1,1,1,1,2,0,2,2,1,1,0
13360000,11096000,47.3977508,8.5456074,-0.0014164319,-0.005563487,0.02932859,-0.0040213303,-0.0053926203,0.0,0.004783903,0.002937071,0.017409155,0.02375826,-0.005172173,-0.013341625,0.011712402,0.034945622,-0.020296676,0.015714204,0.4055201,488.07034,0.1,-0.017409155,0.4538148,0.26129878,0.28175217,0.13269025,inf,inf,inf,inf,1,1,1,1,2,0,2,2,1,1,0
13464000,11096000,47.3977508,8.5456074,-0.0006531488,-0.0039715795,0.029391158,-0.0040213303,-0.0053926203,0.0,0.0067384057,0.0036516043,0.017745571,0.022289522,-0.005172173,-0.013341625,0.011712402,0.033938587,0.01729447,7.171183e-05,0.4053861,488.07034,0.1,-0.017745571,0.46800828,0.26317814,0.29578617,0.1304002,inf,inf,inf,inf,1,1,1,1,2,0,2,2,1,1,0
13560000,11096000,47.3977508,8.5456074,0.00013557004,-0.0027361787,0.02873708,-0.0040213303,-0.0053926203,0.0,0.005453605,0.0033003492,0.016495638,0.018948454,-0.005172173,-0.013341625,0.011712402,-0.045033693,-0.02795991,-0.011115334,0.40536684,488.07034,0.1,-0.016495638,0.4478168,0.2615898,0.27985543,0.12627536,inf,inf,inf,inf,1,1,1,1,2,0,2,2,1,1,0
13664000,11096000,47.3977508,8.5456074,0.00056491024,-0.0018560139,0.027385948,-0.0040213303,-0.0053926203,0.0,0.006043744,0.002240439,0.015713047,0.015612913,-0.005172173,-0.013341625,0.011712402,0.0025466431,-0.095588766,-0.041067597,0.4051795,488.07034,0.1,-0.015713047,0.46271762,0.26091027,0.29329938,0.12349627,inf,inf,inf,inf,1,1,1,1,2,0,2,2,1,1,0
13760000,11096000,47.3977508,8.5456074,0.0011669233,-0.0014157154,0.02599779,-0.0040213303,-0.0053926203,0.0,0.00634661,0.0010830231,0.01749407,0.01514556,-0.005172173,-0.013341625,0.011712402,0.055282738,-0.062797725,0.015089287,0.40530053,488.07034,0.1,-0.01749407,0.44316766,0.25928742,0.27722934,0.11987449,inf,inf,inf,inf,1,1,1,1,2,0,2,2,1,1,0
13864000,11096000,47.3977508,8.5456074,0.00206907,-0.001614416,0.02513947,-0.0040213303,-0.0053926203,0.0,0.008271495,0.0009425903,0.018136075,0.014032246,-0.005172173,-0.013341625,0.011712402,0.0116978185,0.016072445,0.05053542,0.4056587,488.07034,0.1,-0.018136075,0.45863926,0.26058152,0.2900497,0.118053734,inf,inf,inf,inf,1,1,1,1,2,0,2,2,1,1,0
13960000,11096000,47.3977508,8.5456074,0.0032887086,-0.0020967713,0.024293054,-0.0040213303,-0.0053926203,0.0,0.010431832,-0.00060806173,0.016518006,0.010968232,-0.005172173,-0.013341625,0.011712402,0.08345866,-0.009077812,0.0029988585,0.4057712,488.07034,0.1,-0.016518006,0.43956062,0.2588798,0.27398422,0.11487128,inf,inf,inf,inf,1,1,1,1,2,0,2,2,1,1,0
14064000,11096000,47.3977508,8.5456074,0.0051177,-0.003677555,0.025056329,-0.0040213303,-0.0053926203,0.0,0.012624954,-0.0015385979,0.017678913,0.012390142,-0.005172173,-0.013341625,0.011712402,0.057559516,0.05013037,-0.021961516,0.40583974,488.07034,0.1,-0.017678913,0.45547742,0.25778884,0.2862124,0.11269558,inf,inf,inf,inf,1,1,1,1,2,0,2,2,1,1,0
14160000,11096000,47.3977508,8.5456074,0.0067837625,-0.0048487303,0.025505364,-0.0040213303,-0.0053926203,0.0,0.013608089,-0.0036283694,0.016128123,0.010753981,-0.005172173,-0.013341625,0.011712402,-0.02280087,-0.072054386,0.017019918,0.4058426,488.07034,0.1,-0.016128123,0.43675402,0.25611347,0.27036273,0.109970585,inf,inf,inf,inf,1,1,1,1,2,0,2,2,1,1,0
14264000,11096000,47.3977508,8.5456074,0.0077683963,-0.005681027,0.025510633,-0.0040213303,-0.0053926203,0.0,0.014252921,-0.004340713,0.016561966,0.010623703,-0.005172173,-0.013341625,0.011712402,0.034095556,-0.007582064,-0.047255304,0.4057097,488.07034,0.1,-0.016561966,0.45300725,0.25485715,0.2820189,0.108113855,inf,inf,inf,inf,1,1,1,1,2,0,2,2,1,1,0
14360000,11096000,47.3977508,8.5456074,0.008819564,-0.0063489415,0.02512662,-0.0040213303,-0.0053926203,0.0,0.01540211,-0.0029523233,0.016358403,0.009522279,-0.005172173,-0.013341625,0.011712402,-0.0024598555,-0.046036765,-0.020256264,0.40573218,488.07034,0.1,-0.016358403,0.43456373,0.25322565,0.26646256,0.105816536,inf,inf,inf,inf,1,1,1,1,2,0,2,2,1,1,0
14464000,11096000,47.3977508,8.5456074,0.009540342,-0.007288571,0.024770556,-0.0040213303,-0.0053926203,0.0,0.017504593,-0.0042689913,0.012871599,0.005475068,-0.005172173,-0.013341625,0.011712402,-0.122430876,-0.0017125275,-0.0012982636,0.40570173,488.07034,0.1,-0.012871599,0.45105898,0.25391775,0.27759045,0.104852885,inf,inf,inf,inf,1,1,1,1,2,0,2,2,1,1,0
14560000,11096000,47.3977508,8.5456074,0.010222058,-0.007915914,0.025449015,-0.0040213303,-0.0053926203,0.0,0.015230132,-0.003473789,0.013771757,0.006947837,-0.005172173,-0.013341625,0.011712402,-0.059806272,-0.016600111,0.045813616,0.40563902,488.07034,0.1,-0.013771757,0.43284473,0.25227436,0.26241595,0.10291599,inf,inf,inf,inf,1,1,1,1,2,0,2,2,1,1,0
14664000,11096000,47.3977508,8.5456074,0.010308005,-0.008183581,0.02596739,-0.0040213303,-0.0053926203,0.0,0.0150049655,-0.002897767,0.011994227,0.0055992594,-0.005172173,-0.013341625,0.011712402,-0.017276265,0.03914088,0.029756686,0.40537232,488.07034,0.1,-0.011994227,0.4495026,0.25086668,0.27306134,0.1017204,inf,inf,inf,inf,1,1,1,1,2,0,2,2,1,1,0
14760000,11096000,47.3977508,8.5456074,0.0107052475,-0.008263288,0.026037171,-0.0040213303,-0.0053926203,0.0,0.014378357,-0.0012655343,0.012448335,0.0059886537,-0.005172173,-0.013341625,0.011712402,0.04222922,-0.0057660723,0.06265472,0.4052217,488.07034,0.1,-0.012448335,0.43148556,0.24928774,0.25831705,0.10014389,inf,inf,inf,inf,1,1,1,1,2,0,2,2,1,1,0
14864000,11096000,47.3977508,8.5456074,0.011442971,-0.007989656,0.02523457,-0.0040213303,-0.0053926203,0.0,0.014685619,-0.0027297044,0.014290837,0.0068111094,-0.005172173,-0.013341625,0.011712402,-0.011226511,-0.014186399,-0.011236406,0.4051164,488.07034,0.1,-0.014290837,0.44823915,0.24978575,0.2685106,0.09975268,inf,inf,inf,inf,1,1,1,1,2,0,2,2,1,1,0
14960000,11096000,47.3977508,8.5456074,0.012532156,-0.0077936715,0.02441864,-0.0040213303,-0.0053926203,0.0,0.014990747,-0.003971305,0.01445594,0.005941117,-0.005172173,-0.013341625,0.011712402,-0.003913388,-0.029605113,0.013038515,0.4052519,488.07034,0.1,-0.01445594,0.43039897,0.24825712,0.25421003,0.09848679,inf,inf,inf,inf,1,1,1,1,2,0,2,2,1,1,0
15064000,11096000,47.3977508,8.5456074,0.014426301,-0.0071293055,0.022426957,-0.0040213303,-0.0053926203,0.0,0.01793547,-0.0033130897,0.013916236,0.0033708038,-0.005172173,-0.013341625,0.011712402,0.020236794,0.06433796,0.026059335,0.40512753,488.07034,0.1,-0.013916236,0.4471926,0.24679829,0.2639834,0.09788827,inf,inf,inf,inf,1,1,1,1,2,0,2,2,1,1,0
15160000,11096000,47.3977508,8.5456074,0.016197432,-0.006636464,0.02054957,-0.0040213303,-0.0053926203,0.0,0.019130528,-0.0012061106,0.013296427,0.0010850221,-0.005172173,-0.013341625,0.011712402,0.059857465,0.040945776,0.04611816,0.40527546,488.07034,0.1,-0.013296427,0.42951587,0.24535705,0.2501775,0.09691372,inf,inf,inf,inf,1,1,1,1,2,0,2,2,1,1,0
15264000,11096000,47.3977508,8.5456074,0.017162874,-0.0063519436,0.01838387,-0.0040213303,-0.0053926203,0.0,0.02184513,0.00067346205,0.013000567,-0.0009464907,-0.005172173,-0.013341625,0.011712402,0.058435366,0.039339557,-0.094276845,0.40540713,488.07034,0.1,-0.013000567,0.4463059,0.24579127,0.25959516,0.09703279,inf,inf,inf,inf,1,1,1,1,2,0,2,2,1,1,0
15360000,11096000,47.3977508,8.5456074,0.018601004,-0.006097939,0.016238589,-0.0040213303,-0.0053926203,0.0,0.022079783,-0.0024597072,0.013002587,-0.0024683618,-0.005172173,-0.013341625,0.011712402,-0.016057426,-0.08556732,0.024723819,0.40545258,488.07034,0.1,-0.013002587,0.46302027,0.24560367,0.26843008,0.09709063,inf,inf,inf,inf,1,1,1,1,2,0,2,2,1,1,0
15464000,11096000,47.3977508,8.5456074,0.019879645,-0.0062266425,0.01446942,-0.0040213303,-0.0053926203,0.0,0.018413417,-0.003158574,0.013288206,-0.0032106785,-0.005172173,-0.013341625,0.011712402,0.0022886377,0.02440909,0.032686625,0.40548587,488.07034,0.1,-0.013288206,0.44335884,0.24301723,0.2532823,0.09616988,inf,inf,inf,inf,1,1,1,1,2,0,2,2,1,1,0
15560000,11096000,47.3977508,8.5456074,0.020124452,-0.0062987264,0.012421722,-0.0040213303,-0.0053926203,0.0,0.018308226,-0.003558283,0.011996158,-0.00572018,-0.005172173,-0.013341625,0.011712402,0.0373731,0.029762018,-0.024965031,0.40557513,488.07034,0.1,-0.011996158,0.45974496,0.24287467,0.2617448,0.096432894,inf,inf,inf,inf,1,1,1,1,2,0,2,2,1,1,0
15664000,11096000,47.3977508,8.5456074,0.020908965,-0.0065281647,0.011342239,-0.0040213303,-0.0053926203,0.0,0.021414211,-0.004032882,0.009968888,-0.007526503,-0.005172173,-0.013341625,0.011712402,-0.012481962,-0.01276579,0.033833083,0.4056381,488.07034,0.1,-0.009968888,0.44080764,0.24041568,0.24766964,0.09573621,inf,inf,inf,inf,1,1,1,1,2,0,2,2,1,1,0
15760000,11096000,47.3977508,8.5456074,0.021220785,-0.0070324405,0.011044212,-0.0040213303,-0.0053926203,0.0,0.019177707,-0.0046533854,0.012194725,-0.004495455,-0.005172173,-0.013341625,0.011712402,0.008971284,-0.06080537,0.015590339,0.4059361,488.07034,0.1,-0.012194725,0.4569006,0.24033576,0.2558646,0.096178696,inf,inf,inf,inf,1,1,1,1,2,0,2,2,1,1,0
15864000,11096000,47.3977508,8.5456074,0.021581588,-0.007542167,0.012158858,-0.0040213303,-0.0053926203,0.0,0.020171521,-0.0029573918,0.013209231,-0.0015188244,-0.005172173,-0.013341625,0.011712402,0.042691782,0.022125967,0.0067846845,0.40598154,488.07034,0.10046317,-0.013209231,0.43857914,0.23974238,0.24271576,0.096055895,inf,inf,inf,inf,1,1,1,1,2,0,2,2,1,1,0
15960000,11096000,47.3977508,8.5456074,0.020596707,-0.007934326,0.013428303,-0.0040213303,-0.0053926203,0.0,0.019138627,-0.0025250667,0.012664988,-0.0002746315,-0.005172173,-0.013341625,0.011712402,-0.05387107,-0.045689993,0.039892267,0.4060312,488.07034,0.1,-0.012664988,0.45440778,0.23971428,0.25062442,0.096638486,inf,inf,inf,inf,1,1,1,1,2,0,2,2,1,1,0
16064000,11096000,47.3977508,8.5456074,0.020062264,-0.00797202,0.01442968,-0.0040213303,-0.0053926203,0.0,0.020120794,-0.00274838,0.012523422,0.00088264456,-0.005172173,-0.013341625,0.011712402,0.002405344,0.048208673,-0.04847906,0.4059529,488.07034,0.1,-0.012523422,0.43661702,0.23752126,0.23827796,0.09627608,inf,inf,inf,inf,1,1,1,1,2,0,2,2,1,1,0
16160000,11096000,47.3977508,8.5456074,0.019109879,-0.0064513963,0.015252001,-0.0040213303,-0.0053926203,0.0,0.018621389,-0.0036249722,0.015138305,0.0044347644,-0.005172173,-0.013341625,0.011712402,-0.042362165,-0.048555955,0.05385745,0.40612245,488.07034,0.1,-0.015138305,0.45220527,0.23757476,0.2459927,0.09698037,inf,inf,inf,inf,1,1,1,1,2,0,2,2,1,1,0
16264000,11096000,47.3977508,8.5456074,0.018547088,-0.0054851715,0.016489007,-0.0040213303,-0.0053926203,0.0,0.018663272,-0.0039939615,0.017254706,0.007456761,-0.005172173,-0.013341625,0.011712402,0.061985858,0.07962601,0.009533948,0.4061792,488.07034,0.1,-0.017254706,0.43487555,0.23715882,0.23434894,0.097084165,inf,inf,inf,inf,1,1,1,1,2,0,2,2,1,1,0
16368000,11096000,47.3977508,8.5456074,0.017454855,-0.005208006,0.018225627,-0.0040213303,-0.0053926203,0.0,0.017166782,-0.0028087653,0.020205958,0.011408688,-0.005172173,-0.013341625,0.011712402,0.06047236,-0.013088555,0.007726183,0.40620047,488.07034,0.1,-0.020205958,0.45156825,0.23785286,0.2425163,0.09806647,inf,inf,inf,inf,1,1,1,1,2,0,2,2,1,1,0
16464000,11096000,47.3977508,8.5456074,0.016880976,-0.005035577,0.020504436,-0.0040213303,-0.0053926203,0.0,0.016160449,-0.0036163158,0.021884348,0.014353368,-0.005172173,-0.013341625,0.011712402,-0.015764864,0.068411395,-0.0548775,0.40610337,488.07034,0.1,-0.021884348,0.43331942,0.2352995,0.23083578,0.09768538,inf,inf,inf,inf,1,1,1,1,2,0,2,2,1,1,0
16568000,11096000,47.3977508,8.5456074,0.015835991,-0.0048558703,0.023402989,-0.0040213303,-0.0053926203,0.0,0.015615888,-0.00509331,0.023519663,0.017528597,-0.005172173,-0.013341625,0.011712402,0.010378934,-0.019897196,0.100396566,0.4059633,488.07034,0.1,-0.023519663,0.4497931,0.23609181,0.23886675,0.098745644,inf,inf,inf,inf,1,1,1,1,2,0,2,2,1,1,0
16671999,11096000,47.3977508,8.5456074,0.0152728865,-0.0048105116,0.025895147,-0.0040213303,-0.0053926203,0.0,0.016396252,-0.0035408274,0.025722075,0.020404926,-0.005172173,-0.013341625,0.011712402,0.0131420065,0.08929308,-0.028990006,0.40603703,488.07034,0.1,-0.025722075,0.43313307,0.23587056,0.22835778,0.09896317,inf,inf,inf,inf,1,1,1,1,2,0,2,2,1,1,0
16767999,11096000,47.3977508,8.5456074,0.01454534,-0.0045769983,0.027436586,-0.0040213303,-0.0053926203,0.0,0.01477279,-0.0043163598,0.025562948,0.020003807,-0.005172173,-0.013341625,0.011712402,0.009365378,-0.11879532,0.046345815,0.40602416,488.07034,0.1,-0.025562948,0.44819307,0.2345601,0.2356737,0.099522635,inf,inf,inf,inf,1,1,1,1,2,0,2,2,1,1,0
16872000,11096000,47.3977508,8.5456074,0.0144280605,-0.0049491157,0.028785639,-0.0040213303,-0.0053926203,0.0,0.015330484,-0.004113374,0.026146447,0.01994312,-0.005172173,-0.013341625,0.011712402,0.029716058,-0.035209812,0.014894641,0.40606448,488.07034,0.1,-0.026146447,0.4318516,0.23444295,0.22565521,0.09976233,inf,inf,inf,inf,1,1,1,1,2,0,2,2,1,1,0
16968000,11096000,47.3977508,8.5456074,0.014743899,-0.0063221417,0.029136384,-0.0040213303,-0.0053926203,0.0,0.016452534,-0.006994679,0.02556032,0.017992934,-0.005172173,-0.013341625,0.011712402,0.06871654,-0.013394309,0.101747915,0.4059972,488.07034,0.1,-0.02556032,0.44674394,0.23486508,0.23291017,0.10070997,inf,inf,inf,inf,1,1,1,1,2,0,2,2,1,1,0
17072000,11096000,47.3977508,8.5456074,0.015333429,-0.0077639385,0.029270353,-0.0040213303,-0.0053926203,0.0,0.017100915,-0.008875739,0.026182303,0.017032523,-0.005172173,-0.013341625,0.011712402,0.04860904,-0.040635705,0.0077746804,0.405933,488.07034,0.1,-0.026182303,0.43068615,0.23481335,0.22332194,0.1009364,inf,inf,inf,inf,1,1,1,1,2,0,2,2,1,1,0
17168000,11096000,47.3977508,8.5456074,0.015252366,-0.008623807,0.029237462,-0.0040213303,-0.0053926203,0.0,0.015097471,-0.007974958,0.025454149,0.014887692,-0.005172173,-0.013341625,0.011712402,0.025545187,0.010558506,-0.022273509,0.40593252,488.07034,0.1,-0.025454149,0.44542697,0.23532976,0.23052576,0.10189692,inf,inf,inf,inf,1,1,1,1,2,0,2,2,1,1,0
17272000,11096000,47.3977508,8.5456074,0.015372993,-0.009220669,0.02915429,-0.0040213303,-0.0053926203,0.0,0.015381455,-0.007135936,0.024649242,0.012715003,-0.005172173,-0.013341625,0.011712402,0.020683989,-0.038335368,-0.012878328,0.40581673,488.07034,0.1,-0.024649242,0.42962232,0.2337338,0.22131552,0.10173561,inf,inf,inf,inf,1,1,1,1,2,0,2,2,1,1,0
17368000,11096000,47.3977508,8.5456074,0.014925372,-0.009356974,0.028879194,-0.0040213303,-0.0053926203,0.0,0.014312409,-0.007848765,0.02087513,0.007920782,-0.005172173,-0.013341625,0.011712402,-0.0156452,-0.07439058,-0.037821937,0.40546757,488.07034,0.1,-0.02087513,0.44422716,0.23435406,0.22849731,0.10269791,inf,inf,inf,inf,1,1,1,1,2,0,2,2,1,1,0
17472000,11096000,47.3977508,8.5456074,0.0145620275,-0.009507826,0.028992144,-0.0040213303,-0.0053926203,0.0,0.012738267,-0.007269615,0.02070014,0.007342384,-0.005172173,-0.013341625,0.011712402,-0.055727836,-0.08697268,0.027529893,0.40545288,488.07034,0.1,-0.02070014,0.42864853,0.23445424,0.21964285,0.10286948,inf,inf,inf,inf,1,1,1,1,2,0,2,2,1,1,0
17568000,11096000,47.3977508,8.5456074,0.013406061,-0.009346976,0.029547298,-0.0040213303,-0.0053926203,0.0,0.0119001465,-0.007435796,0.019422602,0.0062058787,-0.005172173,-0.013341625,0.011712402,0.024157196,-0.023995562,-0.109149136,0.4055225,488.07034,0.1,-0.019422602,0.44313332,0.23355141,0.22682816,0.103449665,inf,inf,inf,inf,1,1,1,1,2,0,2,2,1,1,0
17672000,11096000,47.3977508,8.5456074,0.012794765,-0.009270924,0.02939532,-0.0040213303,-0.0053926203,0.0,0.012376253,-0.007250969,0.020561721,0.0067971386,-0.005172173,-0.013341625,0.011712402,0.00087299844,-0.03373192,-0.01915451,0.40576187,488.07034,0.1,-0.020561721,0.4277574,0.23373161,0.2182516,0.10358669,inf,inf,inf,inf,1,1,1,1,2,0,2,2,1,1,0
17768000,11096000,47.3977508,8.5456074,0.012524635,-0.0091232965,0.029033335,-0.0040213303,-0.0053926203,0.0,0.012603909,-0.009054043,0.020294996,0.0057988516,-0.005172173,-0.013341625,0.011712402,0.008759612,-0.08425628,-0.10751001,0.40583795,488.07034,0.1,-0.020294996,0.44213632,0.23451671,0.22542588,0.10451564,inf,inf,inf,inf,1,1,1,1,2,0,2,2,1,1,0
17872000,11096000,47.3977508,8.5456074,0.012642772,-0.009184426,0.029098893,-0.0040213303,-0.0053926203,0.0,0.016045904,-0.0085914945,0.022734724,0.007906176,-0.005172173,-0.013341625,0.011712402,0.0845961,0.003481822,0.011657364,0.40594396,488.07034,0.1,-0.022734724,0.42694148,0.23314527,0.21709904,0.10422796,inf,inf,inf,inf,1,1,1,1,2,0,2,2,1,1,0
17968000,11096000,47.3977508,8.5456074,0.012737612,-0.009152873,0.030204156,-0.0040213303,-0.0053926203,0.0,0.01738802,-0.0107938945,0.023329332,0.009019176,-0.005172173,-0.013341625,0.011712402,0.14326939,-0.048481908,0.07514748,0.40597838,488.07034,0.1,-0.023329332,0.44122815,0.23400693,0.22427338,0.105131656,inf,inf,inf,inf,1,1,1,1,2,0,2,2,1,1,0
18072000,11096000,47.3977508,8.5456074,0.013305936,-0.0095273955,0.03087178,-0.0040213303,-0.0053926203,0.0,0.020220239,-0.013251404,0.022542503,0.008180962,-0.005172173,-0.013341625,0.011712402,0.04335126,-0.02069419,-0.08077546,0.40596944,488.07034,0.1,-0.022542503,0.4261954,0.23427668,0.21614864,0.10516606,inf,inf,inf,inf,1,1,1,1,2,0,2,2,1,1,0
18168000,11096000,47.3977508,8.5456074,0.013602222,-0.009677629,0.031256765,-0.0040213303,-0.0053926203,0.0,0.019277235,-0.012227995,0.023974868,0.009369065,-0.005172173,-0.013341625,0.011712402,-0.028844165,-0.055794425,0.039378177,0.40596095,488.07034,0.1,-0.023974868,0.44040304,0.23521465,0.22334094,0.10604589,inf,inf,inf,inf,1,1,1,1,2,0,2,2,1,1,0
18272000,11096000,47.3977508,8.5456074,0.014239769,-0.010040618,0.03159271,-0.0040213303,-0.0053926203,0.0,0.01904397,-0.012801673,0.024318207,0.009286934,-0.005172173,-0.013341625,0.011712402,0.046966914,0.032053012,0.011497176,0.40597543,488.07034,0.1,-0.024318207,0.42551357,0.23391208,0.21545358,0.10564047,inf,inf,inf,inf,1,1,1,1,2,0,2,2,1,1,0
18368000,11096000,47.3977508,8.5456074,0.015066892,-0.010367493,0.032093983,-0.0040213303,-0.0053926203,0.0,0.021071445,-0.01453711,0.026209505,0.01090891,-0.005172173,-0.013341625,0.011712402,0.09049697,-0.0054137344,-0.04616007,0.4058828,488.07034,0.1,-0.026209505,0.43965572,0.23487915,0.22265494,0.10647432,inf,inf,inf,inf,1,1,1,1,2,0,2,2,1,1,0
18472000,11096000,47.3977508,8.5456074,0.01622831,-0.011254231,0.032685243,-0.0040213303,-0.0053926203,0.0,0.02226384,-0.0164128,0.025648372,0.0101144165,-0.005172173,-0.013341625,0.011712402,-0.019754048,-0.031142363,0.03721937,0.40591782,488.07034,0.1,-0.025648372,0.42489427,0.23522958,0.21490487,0.10641145,inf,inf,inf,inf,1,1,1,1,2,0,2,2,1,1,0
18568000,11096000,47.3977508,8.5456074,0.016773408,-0.0127338795,0.03330424,-0.0040213303,-0.0053926203,0.0,0.022589812,-0.018064402,0.025096506,0.009447215,-0.005172173,-0.013341625,0.011712402,0.07484319,-0.015667057,0.0132331615,0.40596735,488.07034,0.1,-0.025096506,0.4389829,0.23626117,0.2221535,0.10721976,inf,inf,inf,inf,1,1,1,1,2,0,2,2,1,1,0
18672000,11096000,47.3977508,8.5456074,0.017730322,-0.014262918,0.0340138,-0.0040213303,-0.0053926203,0.0,0.019433081,-0.02227514,0.026294006,0.010531564,-0.005172173,-0.013341625,0.011712402,-0.005509093,-0.08285494,-0.0403095,0.40580472,488.07034,0.1,-0.026294006,0.42433423,0.23497131,0.21453308,0.10668942,inf,inf,inf,inf,1,1,1,1,2,0,2,2,1,1,0
18768000,11096000,47.3977508,8.5456074,0.01827157,-0.014942354,0.034806862,-0.0040213303,-0.0053926203,0.0,0.01670435,-0.02338484,0.025844721,0.010035451,-0.005172173,-0.013341625,0.011712402,0.06220865,0.017811835,0.019326804,0.40570375,488.07034,0.1,-0.025844721,0.43838185,0.23603635,0.22181298,0.10746054,inf,inf,inf,inf,1,1,1,1,2,0,2,2,1,1,0
18872000,11096000,47.3977508,8.5456074,0.01860177,-0.015756274,0.035719737,-0.0040213303,-0.0053926203,0.0,0.017187003,-0.02193249,0.025771273,0.010033691,-0.005172173,-0.013341625,0.011712402,0.025079148,0.020910446,0.063596286,0.40579522,488.07034,0.1,-0.025771273,0.4238313,0.23639366,0.21429116,0.107288025,inf,inf,inf,inf,1,1,1,1,2,0,2,2,1,1,0
18968000,11096000,47.3977508,8.5456074,0.017654883,-0.015910193,0.036159664,-0.0040213303,-0.0053926203,0.0,0.016435394,-0.022158297,0.025950875,0.00986249,-0.005172173,-0.013341625,0.011712402,-0.065928206,-0.013566073,-0.03885105,0.40565637,488.07034,0.1,-0.025950875,0.43784827,0.23582146,0.22160321,0.1075996,inf,inf,inf,inf,1,1,1,1,2,0,2,2,1,1,0
19072000,11096000,47.3977508,8.5456074,0.016983092,-0.016143665,0.037010424,-0.0040213303,-0.0053926203,0.0,0.016606387,-0.02223095,0.025890844,0.009835606,-0.005172173,-0.013341625,0.011712402,0.08688736,-0.110378936,0.04424527,0.40546277,488.07034,0.1,-0.025890844,0.42338252,0.2361884,0.21417566,0.10738664,inf,inf,inf,inf,1,1,1,1,2,0,2,2,1,1,0
19168000,11096000,47.3977508,8.5456074,0.016487578,-0.0157089,0.037296697,-0.0040213303,-0.0053926203,0.0,0.019190319,-0.024008216,0.024896298,0.00844067,-0.005172173,-0.013341625,0.011712402,-0.0013812677,-0.09146804,-0.021245329,0.40530807,488.07034,0.1,-0.024896298,0.43737918,0.23727794,0.22151089,0.10807899,inf,inf,inf,inf,1,1,1,1,2,0,2,2,1,1,0
19272000,11096000,47.3977508,8.5456074,0.016390326,-0.015319228,0.03808275,-0.0040213303,-0.0053926203,0.0,0.017309012,-0.022312107,0.022869103,0.006689898,-0.005172173,-0.013341625,0.011712402,-0.062035423,0.01738069,-0.08313916,0.40532452,488.07034,0.1,-0.022869103,0.42298618,0.23596942,0.21414298,0.107393906,inf,inf,inf,inf,1,1,1,1,2,0,2,2,1,1,0
19368000,11096000,47.3977508,8.5456074,0.016017627,-0.01375091,0.03997685,-0.0040213303,-0.0053926203,0.0,0.018336622,-0.02113218,0.022319112,0.007561013,-0.005172173,-0.013341625,0.011712402,0.02999717,-0.012621901,-0.08767936,0.40519947,488.07034,0.1,-0.022319112,0.4369716,0.23706532,0.2215184,0.10805227,inf,inf,inf,inf,1,1,1,1,2,0,2,2,1,1,0
19472000,11096000,47.3977508,8.5456074,0.015959324,-0.012667369,0.041300945,-0.0040213303,-0.0053926203,0.0,0.015410535,-0.01993865,0.024805818,0.010577776,-0.005172173,-0.013341625,0.011712402,0.010843082,0.0033732357,0.02277456,0.40519318,488.07034,0.1,-0.024805818,0.42263997,0.23739645,0.21419185,0.10775133,inf,inf,inf,inf,1,1,1,1,2,0,2,2,1,1,0
19568000,11096000,47.3977508,8.5456074,0.015871635,-0.0116793,0.041800868,-0.0040213303,-0.0053926203,0.0,0.01682649,-0.019623635,0.024641493,0.010025404,-0.005172173,-0.013341625,0.011712402,0.07337256,-0.01961812,-0.051052306,0.4052682,488.07034,0.1,-0.024641493,0.4366225,0.23850639,0.22156967,0.108384594,inf,inf,inf,inf,1,1,1,1,2,0,2,2,1,1,0
19672000,11096000,47.3977508,8.5456074,0.01634531,-0.011136263,0.041530643,-0.0040213303,-0.0053926203,0.0,0.01618018,-0.019335177,0.023126086,0.0074599306,-0.005172173,-0.013341625,0.011712402,0.04731332,-0.029685352,-0.0048642973,0.40526018,488.07034,0.1,-0.023126086,0.42234194,0.23714487,0.21424149,0.10761526,inf,inf,inf,inf,1,1,1,1,2,0,2,2,1,1,0
19768000,11096000,47.3977508,8.5456074,0.017067352,-0.010639921,0.04090977,-0.0040213303,-0.0053926203,0.0,0.019211456,-0.019700387,0.021725832,0.004970092,-0.005172173,-0.013341625,0.011712402,0.020944584,-0.03601935,0.05713943,0.40531388,488.07034,0.1,-0.021725832,0.43632698,0.23822086,0.22164701,0.108207226,inf,inf,inf,inf,1,1,1,1,2,0,2,2,1,1,0
19872000,11096000,47.3977508,8.5456074,0.018074969,-0.010549458,0.03977758,-0.0040213303,-0.0053926203,0.0,0.019961443,-0.019812243,0.021553092,0.003286891,-0.005172173,-0.013341625,0.011712402,-0.023055632,-0.090639226,0.044054348,0.4053377,488.07034,0.1,-0.021553092,0.4220878,0.2385367,0.21433565,0.10785401,inf,inf,inf,inf,1,1,1,1,2,0,2,2,1,1,0
19968000,11096000,47.3977508,8.5456074,0.018420093,-0.010291614,0.03853957,-0.0040213303,-0.0053926203,0.0,0.018134534,-0.01880689,0.020726062,0.0011838393,-0.005172173,-0.013341625,0.011712402,0.024896376,0.011985029,-0.050015744,0.40537205,488.07034,0.1,-0.020726062,0.43608207,0.23962504,0.22174397,0.10843044,inf,inf,inf,inf,1,1,1,1,2,0,2,2,1,1,0
20072000,11096000,47.3977508,8.5456074,0.018968252,-0.010384918,0.037023038,-0.0040213303,-0.0053926203,0.0,0.017373635,-0.020471811,0.02056643,-0.0002446773,-0.005172173,-0.013341625,0.011712402,0.039565783,0.0142518245,0.06702914,0.40536454,488.07034,0.1,-0.02056643,0.42187548,0.23819213,0.21443209,0.10759578,inf,inf,inf,inf,1,1,1,1,2,0,2,2,1,1,0
20168000,11096000,47.3977508,8.5456074,0.019119304,-0.010356623,0.035496503,-0.0040213303,-0.0053926203,0.0,0.016483916,-0.020127432,0.019052573,-0.0029736646,-0.005172173,-0.013341625,0.011712402,-0.0098608425,-0.010908901,-0.004941597,0.40538883,488.07034,0.1,-0.019052573,0.43588284,0.23926646,0.22185338,0.10814995,inf,inf,inf,inf,1,1,1,1,2,0,2,2,1,1,0
20272000,11096000,47.3977508,8.5456074,0.019349445,-0.010608844,0.033945125,-0.0040213303,-0.0053926203,0.0,0.015756248,-0.021075975,0.01867536,-0.0042367163,-0.005172173,-0.013341625,0.011712402,-0.015389158,-0.088506654,0.036821697,0.4053789,488.07034,0.1,-0.01867536,0.4217015,0.23952094,0.21449941,0.10774668,inf,inf,inf,inf,1,1,1,1,2,0,2,2,1,1,0
20368000,11096000,47.3977508,8.5456074,0.018928979,-0.010656921,0.03275843,-0.0040213303,-0.0053926203,0.0,0.014367946,-0.021393497,0.018226895,-0.005122867,-0.005172173,-0.013341625,0.011712402,-0.061879296,-0.010023257,0.064779066,0.40555042,488.07034,0.1,-0.018226895,0.43572488,0.23885155,0.2219199,0.10782325,inf,inf,inf,inf,1,1,1,1,2,0,2,2,1,1,0
20472000,11096000,47.3977508,8.5456074,0.018546673,-0.011156883,0.032940224,-0.0040213303,-0.0053926203,0.0,0.0125712175,-0.023210239,0.020322522,-0.0021644305,-0.005172173,-0.013341625,0.011712402,0.014537595,0.0017221172,-0.013791024,0.40548494,488.07034,0.1,-0.020322522,0.42156175,0.23909542,0.21455657,0.10741282,inf,inf,inf,inf,1,1,1,1,2,0,2,2,1,1,0
20568000,11096000,47.3977508,8.5456074,0.017706934,-0.011351004,0.034282308,-0.0040213303,-0.0053926203,0.0,0.011168122,-0.022260197,0.019504454,-0.0011550684,-0.005172173,-0.013341625,0.011712402,-0.02196869,-0.024028609,-0.059433278,0.40536517,488.07034,0.1,-0.019504454,0.43560362,0.24011983,0.22193728,0.10792536,inf,inf,inf,inf,1,1,1,1,2,0,2,2,1,1,0
20672000,11096000,47.3977508,8.5456074,0.017286474,-0.012032884,0.03422245,-0.0040213303,-0.0053926203,0.0,0.010007884,-0.020863257,0.022512402,0.0019218565,-0.005172173,-0.013341625,0.011712402,0.031124057,0.04186465,0.021643003,0.40524042,488.07034,0.1,-0.022512402,0.45177722,0.24005862,0.23014015,0.108144194,inf,inf,inf,inf,1,1,1,1,2,0,2,2,1,1,0
20768000,11096000,47.3977508,8.5456074,0.017040258,-0.01271222,0.03391191,-0.0040213303,-0.0053926203,0.0,0.008679951,-0.020755276,0.022790104,0.0018954683,-0.005172173,-0.013341625,0.011712402,-0.042992394,-0.045082238,0.0032968817,0.40546727,488.07034,0.1,-0.022790104,0.43369296,0.23957616,0.22042958,0.10748633,inf,inf,inf,inf,1,1,1,1,2,0,2,2,1,1,0
20872000,11096000,47.3977508,8.5456074,0.016084583,-0.0122992005,0.03282387,-0.0040213303,-0.0053926203,0.0,0.005372993,-0.021728428,0.021420972,-0.00041327666,-0.005172173,-0.013341625,0.011712402,0.03342962,0.0048744986,-0.043889504,0.40571955,488.07034,0.1,-0.021420972,0.449702,0.24122,0.22854742,0.1081523,inf,inf,inf,inf,1,1,1,1,2,0,2,2,1,1,0
20968000,11096000,47.3977508,8.5456074,0.015495809,-0.0125277275,0.03156916,-0.0040213303,-0.0053926203,0.0,0.00450543,-0.020825153,0.021837061,-0.0010751905,-0.005172173,-0.013341625,0.011712402,0.014277989,0.014802382,-0.0020731238,0.40566447,488.07034,0.1,-0.021837061,0.43200418,0.24071309,0.21912983,0.10749071,inf,inf,inf,inf,1,1,1,1,2,0,2,2,1,1,0
