timestamp,rollspeed,pitchspeed,yawspeed,q[0],q[1],q[2],q[3],delta_q_reset[0],delta_q_reset[1],delta_q_reset[2],delta_q_reset[3],quat_reset_counter
1944000,2.0333953e-06,-2.1803894e-06,9.438697e-12,0.9768958,6.336717e-07,-1.1552496e-06,0.21373738,0.0,0.0,0.0,0.0,0
1956000,2.0333953e-06,-2.1803892e-06,9.428785e-12,0.9768958,6.373001e-07,-1.1637767e-06,0.21373738,0.0,0.0,0.0,0.0,0
1968000,2.0333953e-06,-2.1803892e-06,9.418873e-12,0.9768958,6.409087e-07,-1.1723081e-06,0.21373738,0.0,0.0,0.0,0.0,0
1980000,2.0333953e-06,-2.1803892e-06,9.4089615e-12,0.9768958,6.444986e-07,-1.1808436e-06,0.21373738,0.0,0.0,0.0,0.0,0
1992000,2.0333953e-06,-2.1803892e-06,9.399049e-12,0.9768958,6.4807114e-07,-1.1893829e-06,0.21373738,0.0,0.0,0.0,0.0,0
2004000,2.0333953e-06,-2.1803892e-06,9.389137e-12,0.9768958,6.516274e-07,-1.1979258e-06,0.21373738,0.0,0.0,0.0,0.0,0
2016000,2.0333953e-06,-2.1803892e-06,9.379225e-12,0.9768958,6.551685e-07,-1.206472e-06,0.21373738,0.0,0.0,0.0,0.0,0
2028000,2.0333953e-06,-2.1803892e-06,9.369313e-12,0.9768958,6.586955e-07,-1.2150213e-06,0.21373738,0.0,0.0,0.0,0.0,0
2040000,2.0333953e-06,-2.1803892e-06,9.3594e-12,0.9768958,6.622094e-07,-1.2235733e-06,0.21373738,0.0,0.0,0.0,0.0,0
2052000,2.0333953e-06,-2.1803892e-06,9.349488e-12,0.9768958,6.6571107e-07,-1.2321282e-06,0.21373738,0.0,0.0,0.0,0.0,0
2064000,2.0333953e-06,-2.1803892e-06,9.339576e-12,0.9768958,6.39604e-07,-1.2471612e-06,0.21373738,0.0,0.0,0.0,0.0,0
2076000,2.0333953e-06,-2.1803892e-06,9.329664e-12,0.9768958,6.437201e-07,-1.2555815e-06,0.21373738,0.0,0.0,0.0,0.0,0
2088000,2.0333953e-06,-2.1803892e-06,9.319752e-12,0.9768958,6.4779346e-07,-1.2640113e-06,0.21373738,0.0,0.0,0.0,0.0,0
2100000,2.0333953e-06,-2.1803892e-06,9.30984e-12,0.9768958,6.5182525e-07,-1.27245e-06,0.21373738,0.0,0.0,0.0,0.0,0
2112000,2.0333953e-06,-2.1803892e-06,9.299928e-12,0.9768958,6.5581673e-07,-1.2808978e-06,0.21373738,0.0,0.0,0.0,0.0,0
2124000,2.0333953e-06,-2.1803892e-06,9.290016e-12,0.9768958,6.5976934e-07,-1.2893539e-06,0.21373738,0.0,0.0,0.0,0.0,0
2136000,2.0333953e-06,-2.1803892e-06,9.280104e-12,0.9768958,6.636846e-07,-1.2978182e-06,0.21373738,0.0,0.0,0.0,0.0,0
2148000,2.0333953e-06,-2.1803892e-06,9.270191e-12,0.9768958,6.6756405e-07,-1.3062904e-06,0.21373738,0.0,0.0,0.0,0.0,0
2160000,2.0333953e-06,-2.1803892e-06,9.260279e-12,0.9768958,6.714094e-07,-1.31477e-06,0.21373738,0.0,0.0,0.0,0.0,0
2172000,2.0333953e-06,-2.1803892e-06,9.250367e-12,0.9768958,6.752221e-07,-1.3232567e-06,0.21373738,0.0,0.0,0.0,0.0,0
2184000,2.0333953e-06,-2.1803892e-06,9.240455e-12,0.9768958,6.79004e-07,-1.3317502e-06,0.21373738,0.0,0.0,0.0,0.0,0
2196000,2.0333953e-06,-2.1803892e-06,9.2305425e-12,0.9768958,6.8275665e-07,-1.3402502e-06,0.21373738,0.0,0.0,0.0,0.0,0
2208000,2.0333953e-06,-2.1803892e-06,9.220631e-12,0.9768958,6.8648166e-07,-1.3487561e-06,0.21373738,0.0,0.0,0.0,0.0,0
2220000,2.0333953e-06,-2.1803892e-06,9.210719e-12,0.9768958,6.901806e-07,-1.3572677e-06,0.21373738,0.0,0.0,0.0,0.0,0
2232000,2.0333953e-06,-2.1803892e-06,9.200807e-12,0.9768958,6.938551e-07,-1.3657848e-06,0.21373738,0.0,0.0,0.0,0.0,0
2244000,2.0333953e-06,-2.1803892e-06,9.190895e-12,0.9768958,6.9750655e-07,-1.3743067e-06,0.21373738,0.0,0.0,0.0,0.0,0
2256000,2.0333953e-06,-2.1803892e-06,9.180982e-12,0.9768958,7.011364e-07,-1.3828336e-06,0.21373738,0.0,0.0,0.0,0.0,0
2268000,2.0333953e-06,-2.1803892e-06,9.17107e-12,0.9768958,7.047461e-07,-1.3913648e-06,0.21373738,0.0,0.0,0.0,0.0,0
2280000,2.0333953e-06,-2.1803892e-06,9.161158e-12,0.9768958,7.083369e-07,-1.3999e-06,0.21373738,0.0,0.0,0.0,0.0,0
2292000,2.0333953e-06,-2.1803892e-06,9.151246e-12,0.9768958,7.1191016e-07,-1.4084392e-06,0.21373738,0.0,0.0,0.0,0.0,0
2304000,2.0333953e-06,-2.1803892e-06,9.141334e-12,0.9768958,7.1546697e-07,-1.416982e-06,0.21373738,0.0,0.0,0.0,0.0,0
2316000,2.0333953e-06,-2.1803892e-06,9.131422e-12,0.9768958,7.190085e-07,-1.425528e-06,0.21373738,0.0,0.0,0.0,0.0,0
2328000,2.0333953e-06,-2.1803892e-06,9.12151e-12,0.9768958,7.225358e-07,-1.4340773e-06,0.21373738,0.0,0.0,0.0,0.0,0
2340000,2.0333953e-06,-2.180389e-06,9.111598e-12,0.9768958,7.2604985e-07,-1.4426294e-06,0.21373738,0.0,0.0,0.0,0.0,0
2352000,2.0333953e-06,-2.180389e-06,9.1016856e-12,0.9768958,7.2955163e-07,-1.4511841e-06,0.21373738,0.0,0.0,0.0,0.0,0
2364000,2.0333953e-06,-2.180389e-06,9.091773e-12,0.9768958,7.3304204e-07,-1.4597414e-06,0.21373738,0.0,0.0,0.0,0.0,0
2372000,2.0333953e-06,-2.180389e-06,9.085166e-12,0.9768958,7.457928e-07,-1.4631656e-06,0.21373738,0.0,0.0,0.0,0.0,0
2388000,2.0333953e-06,-2.180389e-06,9.071949e-12,0.9768958,7.4123454e-07,-1.4765908e-06,0.21373738,0.0,0.0,0.0,0.0,0
2400000,2.0333953e-06,-2.180389e-06,9.062038e-12,0.9768958,7.4526974e-07,-1.485029e-06,0.21373738,0.0,0.0,0.0,0.0,0
2412000,2.0333953e-06,-2.180389e-06,9.052125e-12,0.9768958,7.4926555e-07,-1.4934756e-06,0.21373738,0.0,0.0,0.0,0.0,0
2424000,2.0333953e-06,-2.180389e-06,9.042213e-12,0.9768958,7.532233e-07,-1.5019307e-06,0.21373738,0.0,0.0,0.0,0.0,0
2436000,2.0333953e-06,-2.180389e-06,9.032301e-12,0.9768958,7.571442e-07,-1.5103938e-06,0.21373738,0.0,0.0,0.0,0.0,0
2448000,2.0333953e-06,-2.180389e-06,9.022389e-12,0.9768958,7.610298e-07,-1.5188646e-06,0.21373738,0.0,0.0,0.0,0.0,0
2460000,2.0333953e-06,-2.180389e-06,9.0124765e-12,0.9768958,7.648815e-07,-1.5273428e-06,0.21373738,0.0,0.0,0.0,0.0,0
2472000,2.0333953e-06,-2.180389e-06,9.002564e-12,0.9768958,7.6870083e-07,-1.5358281e-06,0.21373738,0.0,0.0,0.0,0.0,0
2484000,2.0333953e-06,-2.180389e-06,8.992652e-12,0.9768958,7.7248944e-07,-1.5443201e-06,0.21373738,0.0,0.0,0.0,0.0,0
2496000,2.0333953e-06,-2.180389e-06,8.982741e-12,0.9768958,7.762488e-07,-1.5528185e-06,0.21373738,0.0,0.0,0.0,0.0,0
2508000,2.033395e-06,-2.180389e-06,8.9728286e-12,0.9768958,7.799804e-07,-1.5613231e-06,0.21373738,0.0,0.0,0.0,0.0,0
2520000,2.033395e-06,-2.180389e-06,8.962916e-12,0.9768958,7.836859e-07,-1.5698332e-06,0.21373738,0.0,0.0,0.0,0.0,0
2532000,2.033395e-06,-2.180389e-06,8.953004e-12,0.9768958,7.8736673e-07,-1.5783489e-06,0.21373738,0.0,0.0,0.0,0.0,0
2540000,2.0333953e-06,-2.180389e-06,8.946396e-12,0.9768958,7.999271e-07,-1.5818148e-06,0.21373738,0.0,0.0,0.0,0.0,0
2556000,2.033395e-06,-2.180389e-06,8.93318e-12,0.9768958,7.946602e-07,-1.595395e-06,0.21373738,0.0,0.0,0.0,0.0,0
2568000,2.033395e-06,-2.180389e-06,8.9232675e-12,0.9768958,7.9827555e-07,-1.6039249e-06,0.21373738,0.0,0.0,0.0,0.0,0
2580000,2.033395e-06,-2.180389e-06,8.913355e-12,0.9768958,8.0187186e-07,-1.6124591e-06,0.21373738,0.0,0.0,0.0,0.0,0
2592000,2.033395e-06,-2.180389e-06,8.903444e-12,0.9768958,8.0545027e-07,-1.6209971e-06,0.21373738,0.0,0.0,0.0,0.0,0
2604000,2.033395e-06,-2.180389e-06,8.893532e-12,0.9768958,8.09012e-07,-1.6295387e-06,0.21373738,0.0,0.0,0.0,0.0,0
2616000,2.033395e-06,-2.180389e-06,8.8836195e-12,0.9768958,8.1255814e-07,-1.6380839e-06,0.21373738,0.0,0.0,0.0,0.0,0
2628000,2.033395e-06,-2.180389e-06,8.873707e-12,0.9768958,8.160899e-07,-1.6466321e-06,0.21373738,0.0,0.0,0.0,0.0,0
2640000,2.033395e-06,-2.180389e-06,8.863795e-12,0.9768958,8.196081e-07,-1.6551833e-06,0.21373738,0.0,0.0,0.0,0.0,0
2652000,2.033395e-06,-2.180389e-06,8.853883e-12,0.9768958,8.2311374e-07,-1.6637372e-06,0.21373738,0.0,0.0,0.0,0.0,0
2664000,2.033395e-06,-2.180389e-06,8.843971e-12,0.9768958,8.266078e-07,-1.6722937e-06,0.21373738,0.0,0.0,0.0,0.0,0
2676000,2.033395e-06,-2.180389e-06,8.834059e-12,0.9768958,8.307457e-07,-1.6807093e-06,0.21373738,0.0,0.0,0.0,0.0,0
2688000,2.033395e-06,-2.180389e-06,8.824147e-12,0.9768958,8.348429e-07,-1.6891338e-06,0.21373738,0.0,0.0,0.0,0.0,0
2700000,2.033395e-06,-2.180389e-06,8.814235e-12,0.9768958,8.388999e-07,-1.6975671e-06,0.21373738,0.0,0.0,0.0,0.0,0
2712000,2.033395e-06,-2.180389e-06,8.804323e-12,0.9768958,8.429175e-07,-1.706009e-06,0.21373738,0.0,0.0,0.0,0.0,0
2724000,2.033395e-06,-2.180389e-06,8.7944105e-12,0.9768958,8.4689674e-07,-1.7144594e-06,0.21373738,0.0,0.0,0.0,0.0,0
2736000,2.033395e-06,-2.180389e-06,8.784498e-12,0.9768958,8.508389e-07,-1.7229178e-06,0.21373738,0.0,0.0,0.0,0.0,0
2748000,2.033395e-06,-2.180389e-06,8.774586e-12,0.9768958,8.547452e-07,-1.731384e-06,0.21373738,0.0,0.0,0.0,0.0,0
2760000,2.033395e-06,-2.1803887e-06,8.764674e-12,0.9768958,8.5861706e-07,-1.7398579e-06,0.21373738,0.0,0.0,0.0,0.0,0
2772000,2.033395e-06,-2.1803887e-06,8.7547625e-12,0.9768958,8.624559e-07,-1.748339e-06,0.21373738,0.0,0.0,0.0,0.0,0
2784000,2.033395e-06,-2.1803887e-06,8.74485e-12,0.9768958,8.6626324e-07,-1.7568269e-06,0.21373738,0.0,0.0,0.0,0.0,0
2796000,2.033395e-06,-2.1803887e-06,8.734938e-12,0.9768958,8.7004054e-07,-1.7653214e-06,0.21373738,0.0,0.0,0.0,0.0,0
2808000,2.033395e-06,-2.1803887e-06,8.725026e-12,0.9768958,8.737894e-07,-1.7738221e-06,0.21373738,0.0,0.0,0.0,0.0,0
2820000,2.033395e-06,-2.1803887e-06,8.715114e-12,0.9768958,8.7751124e-07,-1.7823288e-06,0.21373738,0.0,0.0,0.0,0.0,0
2832000,2.033395e-06,-2.1803887e-06,8.7052015e-12,0.9768958,8.812076e-07,-1.790841e-06,0.21373738,0.0,0.0,0.0,0.0,0
2844000,2.033395e-06,-2.1803887e-06,8.695289e-12,0.9768958,8.8487997e-07,-1.7993584e-06,0.21373738,0.0,0.0,0.0,0.0,0
2856000,2.033395e-06,-2.1803887e-06,8.685377e-12,0.9768958,8.885297e-07,-1.8078808e-06,0.21373738,0.0,0.0,0.0,0.0,0
2868000,2.033395e-06,-2.1803887e-06,8.675466e-12,0.9768958,8.921582e-07,-1.8164079e-06,0.21373738,0.0,0.0,0.0,0.0,0
2880000,2.033395e-06,-2.1803887e-06,8.6655535e-12,0.9768958,8.957668e-07,-1.8249393e-06,0.21373738,0.0,0.0,0.0,0.0,0
2892000,2.033395e-06,-2.1803887e-06,8.655641e-12,0.9768958,8.993568e-07,-1.8334748e-06,0.21373738,0.0,0.0,0.0,0.0,0
2904000,2.033395e-06,-2.1803887e-06,8.645729e-12,0.9768958,9.0292934e-07,-1.8420142e-06,0.21373738,0.0,0.0,0.0,0.0,0
2916000,2.033395e-06,-2.1803887e-06,8.635817e-12,0.9768958,9.0648564e-07,-1.8505569e-06,0.21373738,0.0,0.0,0.0,0.0,0
2928000,2.033395e-06,-2.1803887e-06,8.625905e-12,0.9768958,9.100268e-07,-1.8591031e-06,0.21373738,0.0,0.0,0.0,0.0,0
2940000,2.033395e-06,-2.1803887e-06,8.6159925e-12,0.9768958,9.1355383e-07,-1.8676524e-06,0.21373738,0.0,0.0,0.0,0.0,0
2948000,2.033395e-06,-2.1803887e-06,8.609385e-12,0.9768958,8.959556e-07,-1.8777167e-06,0.21373738,0.0,0.0,0.0,0.0,0
2964000,2.033395e-06,-2.1803887e-06,8.596169e-12,0.9768958,9.205695e-07,-1.8847594e-06,0.21373738,0.0,0.0,0.0,0.0,0
2976000,2.033395e-06,-2.1803887e-06,8.586257e-12,0.9768958,8.9446246e-07,-1.8997923e-06,0.21373738,0.0,0.0,0.0,0.0,0
2988000,2.033395e-06,-2.1803887e-06,8.5763445e-12,0.9768958,8.9857855e-07,-1.9082127e-06,0.21373738,0.0,0.0,0.0,0.0,0
3000000,2.033395e-06,-2.1803887e-06,8.566432e-12,0.9768958,9.026519e-07,-1.9166425e-06,0.21373738,0.0,0.0,0.0,0.0,0
3012000,2.033395e-06,-2.1803887e-06,8.55652e-12,0.9768958,9.066837e-07,-1.9250813e-06,0.21373738,0.0,0.0,0.0,0.0,0
3024000,2.033395e-06,-2.1803887e-06,8.546608e-12,0.9768958,9.106752e-07,-1.933529e-06,0.21373738,0.0,0.0,0.0,0.0,0
3036000,2.033395e-06,-2.1803887e-06,8.536696e-12,0.9768958,9.1462783e-07,-1.9419851e-06,0.21373738,0.0,0.0,0.0,0.0,0
3048000,2.033395e-06,-2.1803887e-06,8.5267834e-12,0.9768958,9.1854315e-07,-1.9504494e-06,0.21373738,0.0,0.0,0.0,0.0,0
3060000,2.033395e-06,-2.1803887e-06,8.516871e-12,0.9768958,9.224226e-07,-1.9589215e-06,0.21373738,0.0,0.0,0.0,0.0,0
3072000,2.033395e-06,-2.1803887e-06,8.50696e-12,0.9768958,9.2626794e-07,-1.9674012e-06,0.21373738,0.0,0.0,0.0,0.0,0
3084000,2.033395e-06,-2.1803887e-06,8.497048e-12,0.9768958,9.300807e-07,-1.975888e-06,0.21373738,0.0,0.0,0.0,0.0,0
3096000,2.0333948e-06,-2.1803887e-06,8.4871355e-12,0.9768958,9.3386257e-07,-1.9843815e-06,0.21373738,0.0,0.0,0.0,0.0,0
3108000,2.0333948e-06,-2.1803887e-06,8.477223e-12,0.9768958,9.3761525e-07,-1.9928814e-06,0.21373738,0.0,0.0,0.0,0.0,0
3120000,2.0333948e-06,-2.1803887e-06,8.467311e-12,0.9768958,9.4134026e-07,-2.0013872e-06,0.21373738,0.0,0.0,0.0,0.0,0
3132000,2.0333948e-06,-2.1803887e-06,8.457399e-12,0.9768958,9.4503923e-07,-2.009899e-06,0.21373738,0.0,0.0,0.0,0.0,0
3144000,2.0333948e-06,-2.1803885e-06,8.447487e-12,0.9768958,9.487137e-07,-2.018416e-06,0.21373738,0.0,0.0,0.0,0.0,0
3156000,2.0333948e-06,-2.1803885e-06,8.437575e-12,0.9768958,9.5236516e-07,-2.0269379e-06,0.21373738,0.0,0.0,0.0,0.0,0
3168000,2.0333948e-06,-2.1803885e-06,8.427663e-12,0.9768958,9.559951e-07,-2.0354646e-06,0.21373738,0.0,0.0,0.0,0.0,0
3180000,2.0333948e-06,-2.1803885e-06,8.417751e-12,0.9768958,9.596048e-07,-2.043996e-06,0.21373738,0.0,0.0,0.0,0.0,0
3192000,2.0333948e-06,-2.1803885e-06,8.407839e-12,0.9768958,9.631956e-07,-2.052531e-06,0.21373738,0.0,0.0,0.0,0.0,0
3204000,2.0333948e-06,-2.1803885e-06,8.3979265e-12,0.9768958,9.667689e-07,-2.0610703e-06,0.21373738,0.0,0.0,0.0,0.0,0
3216000,2.0333948e-06,-2.1803885e-06,8.388014e-12,0.9768958,9.703257e-07,-2.069613e-06,0.21373738,0.0,0.0,0.0,0.0,0
3228000,2.0333948e-06,-2.1803885e-06,8.378102e-12,0.9768958,9.738671e-07,-2.0781592e-06,0.21373738,0.0,0.0,0.0,0.0,0
3240000,2.0333948e-06,-2.1803885e-06,8.36819e-12,0.9768958,9.773945e-07,-2.0867083e-06,0.21373738,0.0,0.0,0.0,0.0,0
3252000,2.0333948e-06,-2.1803885e-06,8.3582785e-12,0.9768958,9.809086e-07,-2.0952605e-06,0.21373738,0.0,0.0,0.0,0.0,0
3264000,2.0333948e-06,-2.1803885e-06,8.348366e-12,0.9768958,9.844103e-07,-2.1038152e-06,0.21373738,0.0,0.0,0.0,0.0,0
3276000,2.0333948e-06,-2.1803885e-06,8.338454e-12,0.9768958,9.879008e-07,-2.1123724e-06,0.21373738,0.0,0.0,0.0,0.0,0
3288000,2.0333948e-06,-2.1803885e-06,8.328542e-12,0.9768958,9.913806e-07,-2.120932e-06,0.21373738,0.0,0.0,0.0,0.0,0
3300000,2.0333948e-06,-2.1803885e-06,8.31863e-12,0.9768958,9.954908e-07,-2.1293538e-06,0.21373738,0.0,0.0,0.0,0.0,0
3312000,2.0333948e-06,-2.1803885e-06,8.308717e-12,0.9768958,9.995598e-07,-2.1377843e-06,0.21373738,0.0,0.0,0.0,0.0,0
3324000,2.0333948e-06,-2.1803885e-06,8.298805e-12,0.9768958,1.0035885e-06,-2.146224e-06,0.21373738,0.0,0.0,0.0,0.0,0
3336000,2.0333948e-06,-2.1803885e-06,8.288894e-12,0.9768958,1.0075781e-06,-2.154672e-06,0.21373738,0.0,0.0,0.0,0.0,0
3348000,2.0333948e-06,-2.1803885e-06,8.278982e-12,0.9768958,1.0115298e-06,-2.1631283e-06,0.21373738,0.0,0.0,0.0,0.0,0
3360000,2.0333948e-06,-2.1803885e-06,8.2690695e-12,0.9768958,1.0154449e-06,-2.1715928e-06,0.21373738,0.0,0.0,0.0,0.0,0
3372000,2.0333948e-06,-2.1803885e-06,8.259157e-12,0.9768958,1.0193249e-06,-2.1800647e-06,0.21373738,0.0,0.0,0.0,0.0,0
3384000,2.0333948e-06,-2.1803885e-06,8.249245e-12,0.9768958,1.0231713e-06,-2.1885442e-06,0.21373738,0.0,0.0,0.0,0.0,0
3396000,2.0333948e-06,-2.1803885e-06,8.239333e-12,0.9768958,1.0269855e-06,-2.1970307e-06,0.21373738,0.0,0.0,0.0,0.0,0
3408000,2.0333948e-06,-2.1803885e-06,8.229421e-12,0.9768958,1.0307692e-06,-2.2055237e-06,0.21373738,0.0,0.0,0.0,0.0,0
3420000,2.0333948e-06,-2.1803885e-06,8.219509e-12,0.9768958,1.0345241e-06,-2.2140232e-06,0.21373738,0.0,0.0,0.0,0.0,0
3432000,2.0333948e-06,-2.1803885e-06,8.209597e-12,0.9768958,1.0382513e-06,-2.2225286e-06,0.21373738,0.0,0.0,0.0,0.0,0
3440000,2.0333948e-06,-2.1803885e-06,8.202989e-12,0.9768958,1.0508278e-06,-2.2259908e-06,0.21373738,0.0,0.0,0.0,0.0,0
3456000,2.0333948e-06,-2.1803885e-06,8.189773e-12,0.9768958,1.0456297e-06,-2.2395561e-06,0.21373738,0.0,0.0,0.0,0.0,0
3468000,2.0333948e-06,-2.1803885e-06,8.1798604e-12,0.9768958,1.0492837e-06,-2.2480776e-06,0.21373738,0.0,0.0,0.0,0.0,0
3476000,2.0333948e-06,-2.1803885e-06,8.173253e-12,0.9768958,1.061835e-06,-2.2515455e-06,0.21373738,0.0,0.0,0.0,0.0,0
3492000,2.0333948e-06,-2.1803885e-06,8.160036e-12,0.9768958,1.0565284e-06,-2.2651343e-06,0.21373738,0.0,0.0,0.0,0.0,0
3500000,2.0333948e-06,-2.1803885e-06,8.1534285e-12,0.9768958,1.0690657e-06,-2.2686054e-06,0.21373738,0.0,0.0,0.0,0.0,0
3516000,2.0333948e-06,-2.1803885e-06,8.1402125e-12,0.9768958,1.0636974e-06,-2.2822078e-06,0.21373738,0.0,0.0,0.0,0.0,0
3528000,2.0333948e-06,-2.1803885e-06,8.1303e-12,0.9768958,1.0672564e-06,-2.29075e-06,0.21373738,0.0,0.0,0.0,0.0,0
3540000,2.0333948e-06,-2.1803885e-06,8.120388e-12,0.9768958,1.0708002e-06,-2.2992956e-06,0.21373738,0.0,0.0,0.0,0.0,0
3552000,2.0333948e-06,-2.1803885e-06,8.110476e-12,0.9768958,1.0743297e-06,-2.3078444e-06,0.21373738,0.0,0.0,0.0,0.0,0
3564000,2.0333948e-06,-2.1803883e-06,8.100564e-12,0.9768958,1.0778458e-06,-2.316396e-06,0.21373738,0.0,0.0,0.0,0.0,0
3576000,2.0333948e-06,-2.1803883e-06,8.090651e-12,0.9768958,1.0813495e-06,-2.3249504e-06,0.21373738,0.0,0.0,0.0,0.0,0
3588000,2.0333948e-06,-2.1803883e-06,8.08074e-12,0.9768958,1.0848418e-06,-2.3335072e-06,0.21373738,0.0,0.0,0.0,0.0,0
3600000,2.0333948e-06,-2.1803883e-06,8.070828e-12,0.9768958,1.0889786e-06,-2.3419232e-06,0.21373738,0.0,0.0,0.0,0.0,0
3608000,2.0333948e-06,-2.1803883e-06,8.064219e-12,0.9768958,1.0718578e-06,-2.351883e-06,0.21373738,0.0,0.0,0.0,0.0,0
3624000,2.0333948e-06,-2.1803883e-06,8.0510034e-12,0.9768958,1.0971305e-06,-2.3587813e-06,0.21373738,0.0,0.0,0.0,0.0,0
3636000,2.0333948e-06,-2.1803883e-06,8.041091e-12,0.9768958,1.1011471e-06,-2.3672235e-06,0.21373738,0.0,0.0,0.0,0.0,0
3648000,2.0333948e-06,-2.1803883e-06,8.031179e-12,0.9768958,1.1051254e-06,-2.375674e-06,0.21373738,0.0,0.0,0.0,0.0,0
3660000,2.0333948e-06,-2.1803883e-06,8.021267e-12,0.9768958,1.1090665e-06,-2.3841328e-06,0.21373738,0.0,0.0,0.0,0.0,0
3672000,2.0333948e-06,-2.1803883e-06,8.0113555e-12,0.9768958,1.1129719e-06,-2.3925993e-06,0.21373738,0.0,0.0,0.0,0.0,0
3684000,2.0333948e-06,-2.1803883e-06,8.001443e-12,0.9768958,1.1168429e-06,-2.4010733e-06,0.21373738,0.0,0.0,0.0,0.0,0
3696000,2.0333948e-06,-2.1803883e-06,7.991531e-12,0.9768958,1.1206808e-06,-2.4095546e-06,0.21373738,0.0,0.0,0.0,0.0,0
3708000,2.0333948e-06,-2.1803883e-06,7.981619e-12,0.9768958,1.1244873e-06,-2.4180426e-06,0.21373738,0.0,0.0,0.0,0.0,0
3720000,2.0333948e-06,-2.1803883e-06,7.971707e-12,0.9768958,1.1282639e-06,-2.4265373e-06,0.21373738,0.0,0.0,0.0,0.0,0
3732000,2.0333948e-06,-2.1803883e-06,7.961794e-12,0.9768958,1.1320119e-06,-2.4350381e-06,0.21373738,0.0,0.0,0.0,0.0,0
3744000,2.0333948e-06,-2.1803883e-06,7.951882e-12,0.9768958,1.1357331e-06,-2.4435449e-06,0.21373738,0.0,0.0,0.0,0.0,0
3756000,2.0333948e-06,-2.1803883e-06,7.941971e-12,0.9768958,1.1394288e-06,-2.4520573e-06,0.21373738,0.0,0.0,0.0,0.0,0
3768000,2.0333948e-06,-2.1803883e-06,7.932059e-12,0.9768958,1.1431005e-06,-2.460575e-06,0.21373738,0.0,0.0,0.0,0.0,0
3780000,2.0333948e-06,-2.1803883e-06,7.9221464e-12,0.9768958,1.1467497e-06,-2.4690976e-06,0.21373738,0.0,0.0,0.0,0.0,0
3792000,2.0333948e-06,-2.1803883e-06,7.912234e-12,0.9768958,1.1503776e-06,-2.4776248e-06,0.21373738,0.0,0.0,0.0,0.0,0
3804000,2.0333948e-06,-2.1803883e-06,7.902322e-12,0.9768958,1.1539857e-06,-2.4861563e-06,0.21373738,0.0,0.0,0.0,0.0,0
3816000,2.0333948e-06,-2.1803883e-06,7.89241e-12,0.9768958,1.1575752e-06,-2.494692e-06,0.21373738,0.0,0.0,0.0,0.0,0
3828000,2.0333948e-06,-2.1803883e-06,7.882498e-12,0.9768958,1.1611473e-06,-2.5032311e-06,0.21373738,0.0,0.0,0.0,0.0,0
3840000,2.0333948e-06,-2.1803883e-06,7.872586e-12,0.9768958,1.1647032e-06,-2.5117743e-06,0.21373738,0.0,0.0,0.0,0.0,0
3852000,2.0333948e-06,-2.1803883e-06,7.862674e-12,0.9768958,1.1682439e-06,-2.5203203e-06,0.21373738,0.0,0.0,0.0,0.0,0
3864000,2.0333948e-06,-2.1803883e-06,7.852762e-12,0.9768958,1.1717707e-06,-2.5288698e-06,0.21373738,0.0,0.0,0.0,0.0,0
3876000,2.0333948e-06,-2.1803883e-06,7.84285e-12,0.9768958,1.1752842e-06,-2.537422e-06,0.21373738,0.0,0.0,0.0,0.0,0
3888000,2.0333948e-06,-2.1803883e-06,7.832937e-12,0.9768958,1.1787856e-06,-2.5459767e-06,0.21373738,0.0,0.0,0.0,0.0,0
3900000,2.0333946e-06,-2.1803883e-06,7.823025e-12,0.9768958,1.1526784e-06,-2.5610098e-06,0.21373738,0.0,0.0,0.0,0.0,0
3912000,2.0333946e-06,-2.1803883e-06,7.813113e-12,0.9768958,1.1567942e-06,-2.5694303e-06,0.21373738,0.0,0.0,0.0,0.0,0
3924000,2.0333946e-06,-2.1803883e-06,7.803201e-12,0.9768958,1.1608673e-06,-2.57786e-06,0.21373738,0.0,0.0,0.0,0.0,0
3936000,2.0333946e-06,-2.1803883e-06,7.7932895e-12,0.9768958,1.164899e-06,-2.586299e-06,0.21373738,0.0,0.0,0.0,0.0,0
3948000,2.0333946e-06,-2.1803883e-06,7.783377e-12,0.9768958,1.1688903e-06,-2.5947465e-06,0.21373738,0.0,0.0,0.0,0.0,0
3960000,2.0333946e-06,-2.180388e-06,7.773465e-12,0.9768958,1.1728428e-06,-2.6032028e-06,0.21373738,0.0,0.0,0.0,0.0,0
3972000,2.0333946e-06,-2.180388e-06,7.763553e-12,0.9768958,1.1767579e-06,-2.6116672e-06,0.21373738,0.0,0.0,0.0,0.0,0
3984000,2.0333946e-06,-2.180388e-06,7.753641e-12,0.9768958,1.1806372e-06,-2.6201394e-06,0.21373738,0.0,0.0,0.0,0.0,0
3996000,2.0333946e-06,-2.180388e-06,7.743728e-12,0.9768958,1.1844824e-06,-2.628619e-06,0.21373738,0.0,0.0,0.0,0.0,0
4007999,2.0333946e-06,-2.180388e-06,7.733816e-12,0.9768958,1.1882951e-06,-2.6371058e-06,0.21373738,0.0,0.0,0.0,0.0,0
4020000,2.0333946e-06,-2.180388e-06,7.723905e-12,0.9768958,1.1920768e-06,-2.6455994e-06,0.21373738,0.0,0.0,0.0,0.0,0
4031999,2.0333946e-06,-2.180388e-06,7.713993e-12,0.9768958,1.1958293e-06,-2.6540993e-06,0.21373738,0.0,0.0,0.0,0.0,0
4044000,2.0333946e-06,-2.180388e-06,7.70408e-12,0.9768958,1.1995542e-06,-2.662605e-06,0.21373738,0.0,0.0,0.0,0.0,0
4055999,2.0333946e-06,-2.180388e-06,7.694168e-12,0.9768958,1.2032531e-06,-2.6711168e-06,0.21373738,0.0,0.0,0.0,0.0,0
4068000,2.0333946e-06,-2.180388e-06,7.684256e-12,0.9768958,1.2069274e-06,-2.6796338e-06,0.21373738,0.0,0.0,0.0,0.0,0
4079999,2.0333946e-06,-2.180388e-06,7.674344e-12,0.9768958,1.2105788e-06,-2.688156e-06,0.21373738,0.0,0.0,0.0,0.0,0
4092000,2.0333946e-06,-2.180388e-06,7.6644325e-12,0.9768958,1.2142086e-06,-2.6966827e-06,0.21373738,0.0,0.0,0.0,0.0,0
4103999,2.0333946e-06,-2.180388e-06,7.65452e-12,0.9768958,1.2178182e-06,-2.705214e-06,0.21373738,0.0,0.0,0.0,0.0,0
4116000,2.0333946e-06,-2.180388e-06,7.644608e-12,0.9768958,1.221409e-06,-2.7137492e-06,0.21373738,0.0,0.0,0.0,0.0,0
4127999,2.0333946e-06,-2.180388e-06,7.634696e-12,0.9768958,1.2249822e-06,-2.7222884e-06,0.21373738,0.0,0.0,0.0,0.0,0
4140000,2.0333946e-06,-2.180388e-06,7.624784e-12,0.9768958,1.2285388e-06,-2.730831e-06,0.21373738,0.0,0.0,0.0,0.0,0
4151999,2.0333946e-06,-2.180388e-06,7.614871e-12,0.9768958,1.2320803e-06,-2.7393774e-06,0.21373738,0.0,0.0,0.0,0.0,0
4164000,2.0333946e-06,-2.180388e-06,7.604959e-12,0.9768958,1.2356076e-06,-2.7479264e-06,0.21373738,0.0,0.0,0.0,0.0,0
4175999,2.0333946e-06,-2.180388e-06,7.595048e-12,0.9768958,1.2391216e-06,-2.7564786e-06,0.21373738,0.0,0.0,0.0,0.0,0
4188000,2.0333946e-06,-2.180388e-06,7.585136e-12,0.9768958,1.2426234e-06,-2.7650333e-06,0.21373738,0.0,0.0,0.0,0.0,0
4200000,2.0333946e-06,-2.180388e-06,7.5752234e-12,0.9768958,1.2461137e-06,-2.7735907e-06,0.21373738,0.0,0.0,0.0,0.0,0
4212000,2.0333946e-06,-2.180388e-06,7.565311e-12,0.9768958,1.2502306e-06,-2.7820108e-06,0.21373738,0.0,0.0,0.0,0.0,0
4224000,2.0333946e-06,-2.180388e-06,7.555399e-12,0.9768958,1.2543062e-06,-2.79044e-06,0.21373738,0.0,0.0,0.0,0.0,0
4236000,2.0333946e-06,-2.180388e-06,7.545487e-12,0.9768958,1.2583413e-06,-2.7988783e-06,0.21373738,0.0,0.0,0.0,0.0,0
4248000,2.0333946e-06,-2.180388e-06,7.5355755e-12,0.9768958,1.2623372e-06,-2.807325e-06,0.21373738,0.0,0.0,0.0,0.0,0
4260000,2.0333946e-06,-2.180388e-06,7.525663e-12,0.9768958,1.2662948e-06,-2.81578e-06,0.21373738,0.0,0.0,0.0,0.0,0
4272000,2.0333946e-06,-2.180388e-06,7.515751e-12,0.9768958,1.2702158e-06,-2.824243e-06,0.21373738,0.0,0.0,0.0,0.0,0
4284000,2.0333946e-06,-2.180388e-06,7.505839e-12,0.9768958,1.2741012e-06,-2.8327138e-06,0.21373738,0.0,0.0,0.0,0.0,0
4296000,2.0333946e-06,-2.180388e-06,7.495927e-12,0.9768958,1.277953e-06,-2.841192e-06,0.21373738,0.0,0.0,0.0,0.0,0
4308000,2.0333946e-06,-2.180388e-06,7.486014e-12,0.9768958,1.2817724e-06,-2.8496775e-06,0.21373738,0.0,0.0,0.0,0.0,0
4316000,2.0333946e-06,-2.180388e-06,7.479407e-12,0.9768958,1.2943818e-06,-2.8531324e-06,0.21373738,0.0,0.0,0.0,0.0,0
4332000,2.0333946e-06,-2.180388e-06,7.466191e-12,0.9768958,1.2893202e-06,-2.866668e-06,0.21373738,0.0,0.0,0.0,0.0,0
4344000,2.0333946e-06,-2.180388e-06,7.456279e-12,0.9768958,1.2930518e-06,-2.8751724e-06,0.21373738,0.0,0.0,0.0,0.0,0
4356000,2.0333946e-06,-2.180388e-06,7.4463664e-12,0.9768958,1.2967573e-06,-2.8836826e-06,0.21373738,0.0,0.0,0.0,0.0,0
4368000,2.0333946e-06,-2.1803878e-06,7.436454e-12,0.9768958,1.3004382e-06,-2.8921982e-06,0.21373738,0.0,0.0,0.0,0.0,0
4380000,2.0333946e-06,-2.1803878e-06,7.426542e-12,0.9768958,1.3040957e-06,-2.900719e-06,0.21373738,0.0,0.0,0.0,0.0,0
4392000,2.0333946e-06,-2.1803878e-06,7.41663e-12,0.9768958,1.3077315e-06,-2.9092444e-06,0.21373738,0.0,0.0,0.0,0.0,0
4404000,2.0333946e-06,-2.1803878e-06,7.406718e-12,0.9768958,1.311347e-06,-2.9177743e-06,0.21373738,0.0,0.0,0.0,0.0,0
4416000,2.0333946e-06,-2.1803878e-06,7.396806e-12,0.9768958,1.3149432e-06,-2.9263085e-06,0.21373738,0.0,0.0,0.0,0.0,0
4428000,2.0333946e-06,-2.1803878e-06,7.386894e-12,0.9768958,1.3185216e-06,-2.9348464e-06,0.21373738,0.0,0.0,0.0,0.0,0
4436000,2.0333946e-06,-2.1803878e-06,7.380286e-12,0.9768958,1.3310478e-06,-2.9383198e-06,0.21373738,0.0,0.0,0.0,0.0,0
4452000,2.0333946e-06,-2.1803878e-06,7.36707e-12,0.9768958,1.3256296e-06,-2.951933e-06,0.21373738,0.0,0.0,0.0,0.0,0
4464000,2.0333946e-06,-2.1803878e-06,7.357157e-12,0.9768958,1.3291613e-06,-2.9604814e-06,0.21373738,0.0,0.0,0.0,0.0,0
4476000,2.0333946e-06,-2.1803878e-06,7.347245e-12,0.9768958,1.3326794e-06,-2.9690327e-06,0.21373738,0.0,0.0,0.0,0.0,0
4488000,2.0333946e-06,-2.1803878e-06,7.337334e-12,0.9768958,1.336185e-06,-2.9775865e-06,0.21373738,0.0,0.0,0.0,0.0,0
4500000,2.0333946e-06,-2.1803878e-06,7.327422e-12,0.9768958,1.3396791e-06,-2.986143e-06,0.21373738,0.0,0.0,0.0,0.0,0
4512000,2.0333946e-06,-2.1803878e-06,7.3175094e-12,0.9768958,1.3431624e-06,-2.9947018e-06,0.21373738,0.0,0.0,0.0,0.0,0
4524000,2.0333946e-06,-2.1803878e-06,7.307597e-12,0.9768958,1.3472936e-06,-3.003119e-06,0.21373738,0.0,0.0,0.0,0.0,0
4536000,2.0333946e-06,-2.1803878e-06,7.297685e-12,0.9768958,1.3513843e-06,-3.011545e-06,0.21373738,0.0,0.0,0.0,0.0,0
4548000,2.0333946e-06,-2.1803878e-06,7.287773e-12,0.9768958,1.3554347e-06,-3.0199797e-06,0.21373738,0.0,0.0,0.0,0.0,0
4560000,2.0333946e-06,-2.1803878e-06,7.2778615e-12,0.9768958,1.3594461e-06,-3.028423e-06,0.21373738,0.0,0.0,0.0,0.0,0
4572000,2.0333946e-06,-2.1803878e-06,7.267949e-12,0.9768958,1.3634193e-06,-3.0368747e-06,0.21373738,0.0,0.0,0.0,0.0,0
4584000,2.0333946e-06,-2.1803878e-06,7.258037e-12,0.9768958,1.3673555e-06,-3.0453343e-06,0.21373738,0.0,0.0,0.0,0.0,0
4596000,2.0333946e-06,-2.1803878e-06,7.248125e-12,0.9768958,1.3712562e-06,-3.0538017e-06,0.21373738,0.0,0.0,0.0,0.0,0
4608000,2.0333946e-06,-2.1803878e-06,7.2382126e-12,0.9768958,1.3751226e-06,-3.0622768e-06,0.21373738,0.0,0.0,0.0,0.0,0
4620000,2.0333946e-06,-2.1803878e-06,7.228301e-12,0.9768958,1.3789562e-06,-3.070759e-06,0.21373738,0.0,0.0,0.0,0.0,0
4632000,2.0333946e-06,-2.1803878e-06,7.2183886e-12,0.9768958,1.3827586e-06,-3.079248e-06,0.21373738,0.0,0.0,0.0,0.0,0
4644000,2.0333946e-06,-2.1803878e-06,7.2084764e-12,0.9768958,1.3865312e-06,-3.0877436e-06,0.21373738,0.0,0.0,0.0,0.0,0
4656000,2.0333946e-06,-2.1803878e-06,7.1985647e-12,0.9768958,1.3902755e-06,-3.0962453e-06,0.21373738,0.0,0.0,0.0,0.0,0
4668000,2.0333946e-06,-2.1803878e-06,7.1886525e-12,0.9768958,1.3939932e-06,-3.1047528e-06,0.21373738,0.0,0.0,0.0,0.0,0
4680000,2.0333946e-06,-2.1803878e-06,7.1787402e-12,0.9768958,1.3976855e-06,-3.1132658e-06,0.21373738,0.0,0.0,0.0,0.0,0
4692000,2.0333946e-06,-2.1803878e-06,7.1688285e-12,0.9768958,1.4013541e-06,-3.1217842e-06,0.21373738,0.0,0.0,0.0,0.0,0
4704000,2.0333946e-06,-2.1803878e-06,7.1589163e-12,0.9768958,1.4050004e-06,-3.1303075e-06,0.21373738,0.0,0.0,0.0,0.0,0
4716000,2.0333946e-06,-2.1803878e-06,7.149004e-12,0.9768958,1.4086255e-06,-3.1388352e-06,0.21373738,0.0,0.0,0.0,0.0,0
4728000,2.0333946e-06,-2.1803878e-06,7.1390923e-12,0.9768958,1.4122311e-06,-3.1473674e-06,0.21373738,0.0,0.0,0.0,0.0,0
4740000,2.0333944e-06,-2.1803878e-06,7.12918e-12,0.9768958,1.4158181e-06,-3.1559034e-06,0.21373738,0.0,0.0,0.0,0.0,0
4752000,2.0333944e-06,-2.1803878e-06,7.119268e-12,0.9768958,1.419388e-06,-3.1644433e-06,0.21373738,0.0,0.0,0.0,0.0,0
4764000,2.0333944e-06,-2.1803878e-06,7.1093556e-12,0.9768958,1.4229418e-06,-3.1729867e-06,0.21373738,0.0,0.0,0.0,0.0,0
4776000,2.0333944e-06,-2.1803878e-06,7.099444e-12,0.9768958,1.4264806e-06,-3.1815334e-06,0.21373738,0.0,0.0,0.0,0.0,0
4788000,2.0333944e-06,-2.1803876e-06,7.0895317e-12,0.9768958,1.4300055e-06,-3.1900831e-06,0.21373738,0.0,0.0,0.0,0.0,0
4800000,2.0333944e-06,-2.1803876e-06,7.0796194e-12,0.9768958,1.4335174e-06,-3.1986358e-06,0.21373738,0.0,0.0,0.0,0.0,0
4808000,2.0333944e-06,-2.1803876e-06,7.0730114e-12,0.9768958,1.4159051e-06,-3.2087032e-06,0.21373738,0.0,0.0,0.0,0.0,0
4824000,2.0333944e-06,-2.1803876e-06,7.0597955e-12,0.9768958,1.4109083e-06,-3.2222242e-06,0.21373738,0.0,0.0,0.0,0.0,0
4836000,2.0333944e-06,-2.1803876e-06,7.0498832e-12,0.9768958,1.4150233e-06,-3.230645e-06,0.21373738,0.0,0.0,0.0,0.0,0
4848000,2.0333944e-06,-2.1803876e-06,7.0399715e-12,0.9768958,1.4190955e-06,-3.2390749e-06,0.21373738,0.0,0.0,0.0,0.0,0
4860000,2.0333944e-06,-2.1803876e-06,7.0300593e-12,0.9768958,1.4231263e-06,-3.247514e-06,0.21373738,0.0,0.0,0.0,0.0,0
4872000,2.0333944e-06,-2.1803876e-06,7.020147e-12,0.9768958,1.4271167e-06,-3.255962e-06,0.21373738,0.0,0.0,0.0,0.0,0
4884000,2.0333944e-06,-2.1803876e-06,7.010235e-12,0.9768958,1.4310683e-06,-3.2644182e-06,0.21373738,0.0,0.0,0.0,0.0,0
4896000,2.0333944e-06,-2.1803876e-06,7.000323e-12,0.9768958,1.4349826e-06,-3.2728829e-06,0.21373738,0.0,0.0,0.0,0.0,0
4908000,2.0333944e-06,-2.1803876e-06,6.990411e-12,0.9768958,1.4388611e-06,-3.281355e-06,0.21373738,0.0,0.0,0.0,0.0,0
4920000,2.0333944e-06,-2.1803876e-06,6.9804986e-12,0.9768958,1.4427055e-06,-3.289835e-06,0.21373738,0.0,0.0,0.0,0.0,0
4932000,2.0333944e-06,-2.1803876e-06,6.970587e-12,0.9768958,1.4465174e-06,-3.2983219e-06,0.21373738,0.0,0.0,0.0,0.0,0
4944000,2.0333944e-06,-2.1803876e-06,6.9606747e-12,0.9768958,1.4502986e-06,-3.3068156e-06,0.21373738,0.0,0.0,0.0,0.0,0
4956000,2.0333944e-06,-2.1803876e-06,6.9507624e-12,0.9768958,1.4540504e-06,-3.3153156e-06,0.21373738,0.0,0.0,0.0,0.0,0
4968000,2.0333944e-06,-2.1803876e-06,6.9408507e-12,0.9768958,1.4577747e-06,-3.3238216e-06,0.21373738,0.0,0.0,0.0,0.0,0
4980000,2.0333944e-06,-2.1803876e-06,6.9309385e-12,0.9768958,1.4614731e-06,-3.3323336e-06,0.21373738,0.0,0.0,0.0,0.0,0
4992000,2.0333944e-06,-2.1803876e-06,6.9210263e-12,0.9768958,1.4651469e-06,-3.3408508e-06,0.21373738,0.0,0.0,0.0,0.0,0
5000000,2.0333944e-06,-2.1803876e-06,6.9144183e-12,0.9768958,1.4773628e-06,-3.3443919e-06,0.21373738,0.0,0.0,0.0,0.0,0
5016000,2.0333944e-06,-2.1803876e-06,6.9012023e-12,0.9768958,1.472427e-06,-3.3578997e-06,0.21373738,0.0,0.0,0.0,0.0,0
5028000,2.0333944e-06,-2.1803876e-06,6.89129e-12,0.9768958,1.4760362e-06,-3.366431e-06,0.21373738,0.0,0.0,0.0,0.0,0
5040000,2.0333944e-06,-2.1803876e-06,6.8813783e-12,0.9768958,1.4796266e-06,-3.3749664e-06,0.21373738,0.0,0.0,0.0,0.0,0
5052000,2.0333944e-06,-2.1803876e-06,6.871466e-12,0.9768958,1.4831994e-06,-3.3835056e-06,0.21373738,0.0,0.0,0.0,0.0,0
5064000,2.0333944e-06,-2.1803876e-06,6.861554e-12,0.9768958,1.4867558e-06,-3.3920485e-06,0.21373738,0.0,0.0,0.0,0.0,0
5076000,2.0333944e-06,-2.1803876e-06,6.851642e-12,0.9768958,1.4902969e-06,-3.4005946e-06,0.21373738,0.0,0.0,0.0,0.0,0
5088000,2.0333944e-06,-2.1803876e-06,6.84173e-12,0.9768958,1.4938238e-06,-3.409144e-06,0.21373738,0.0,0.0,0.0,0.0,0
5100000,2.0333944e-06,-2.1803876e-06,6.8318177e-12,0.9768958,1.4973376e-06,-3.417696e-06,0.21373738,0.0,0.0,0.0,0.0,0
5112000,2.0333944e-06,-2.1803876e-06,6.821906e-12,0.9768958,1.5008391e-06,-3.426251e-06,0.21373738,0.0,0.0,0.0,0.0,0
5124000,2.0333944e-06,-2.1803876e-06,6.8119937e-12,0.9768958,1.5043292e-06,-3.4348084e-06,0.21373738,0.0,0.0,0.0,0.0,0
5136000,2.0333944e-06,-2.1803876e-06,6.8020815e-12,0.9768958,1.508446e-06,-3.4432285e-06,0.21373738,0.0,0.0,0.0,0.0,0
5148000,2.0333944e-06,-2.1803876e-06,6.7921697e-12,0.9768958,1.5125213e-06,-3.451658e-06,0.21373738,0.0,0.0,0.0,0.0,0
5160000,2.0333944e-06,-2.1803876e-06,6.7822575e-12,0.9768958,1.5165563e-06,-3.460096e-06,0.21373738,0.0,0.0,0.0,0.0,0
5172000,2.0333944e-06,-2.1803874e-06,6.7723453e-12,0.9768958,1.520552e-06,-3.4685427e-06,0.21373738,0.0,0.0,0.0,0.0,0
5184000,2.0333944e-06,-2.1803874e-06,6.7624335e-12,0.9768958,1.5245096e-06,-3.4769978e-06,0.21373738,0.0,0.0,0.0,0.0,0
5196000,2.0333944e-06,-2.1803874e-06,6.7525213e-12,0.9768958,1.5284303e-06,-3.4854609e-06,0.21373738,0.0,0.0,0.0,0.0,0
5208000,2.0333944e-06,-2.1803874e-06,6.742609e-12,0.9768958,1.5323158e-06,-3.4939317e-06,0.21373738,0.0,0.0,0.0,0.0,0
5220000,2.0333944e-06,-2.1803874e-06,6.7326973e-12,0.9768958,1.5361674e-06,-3.50241e-06,0.21373738,0.0,0.0,0.0,0.0,0
5232000,2.0333944e-06,-2.1803874e-06,6.722785e-12,0.9768958,1.5399866e-06,-3.5108953e-06,0.21373738,0.0,0.0,0.0,0.0,0
5244000,2.0333944e-06,-2.1803874e-06,6.712873e-12,0.9768958,1.5437749e-06,-3.5193873e-06,0.21373738,0.0,0.0,0.0,0.0,0
5256000,2.0333944e-06,-2.1803874e-06,6.702961e-12,0.9768958,1.5475342e-06,-3.5278858e-06,0.21373738,0.0,0.0,0.0,0.0,0
5268000,2.0333944e-06,-2.1803874e-06,6.693049e-12,0.9768958,1.5512658e-06,-3.5363903e-06,0.21373738,0.0,0.0,0.0,0.0,0
5280000,2.0333944e-06,-2.1803874e-06,6.6831367e-12,0.9768958,1.554971e-06,-3.5449007e-06,0.21373738,0.0,0.0,0.0,0.0,0
5292000,2.0333944e-06,-2.1803874e-06,6.673225e-12,0.9768958,1.5586518e-06,-3.5534163e-06,0.21373738,0.0,0.0,0.0,0.0,0
5304000,2.0333944e-06,-2.1803874e-06,6.6633127e-12,0.9768958,1.5623093e-06,-3.5619369e-06,0.21373738,0.0,0.0,0.0,0.0,0
5316000,2.0333944e-06,-2.1803874e-06,6.6534005e-12,0.9768958,1.5659451e-06,-3.5704625e-06,0.21373738,0.0,0.0,0.0,0.0,0
5328000,2.0333944e-06,-2.1803874e-06,6.6434887e-12,0.9768958,1.5695605e-06,-3.5789924e-06,0.21373738,0.0,0.0,0.0,0.0,0
5340000,2.0333944e-06,-2.1803874e-06,6.6335765e-12,0.9768958,1.5731566e-06,-3.5875264e-06,0.21373738,0.0,0.0,0.0,0.0,0
5352000,2.0333944e-06,-2.1803874e-06,6.6236643e-12,0.9768958,1.576735e-06,-3.5960645e-06,0.21373738,0.0,0.0,0.0,0.0,0
5364000,2.0333944e-06,-2.1803874e-06,6.6137525e-12,0.9768958,1.5802966e-06,-3.6046063e-06,0.21373738,0.0,0.0,0.0,0.0,0
5376000,2.0333944e-06,-2.1803874e-06,6.6038403e-12,0.9768958,1.5838427e-06,-3.6131514e-06,0.21373738,0.0,0.0,0.0,0.0,0
5388000,2.0333944e-06,-2.1803874e-06,6.593928e-12,0.9768958,1.5873744e-06,-3.6216995e-06,0.21373738,0.0,0.0,0.0,0.0,0
5400000,2.0333944e-06,-2.1803874e-06,6.5840163e-12,0.9768958,1.5908926e-06,-3.6302508e-06,0.21373738,0.0,0.0,0.0,0.0,0
5412000,2.0333944e-06,-2.1803874e-06,6.574104e-12,0.9768958,1.5943982e-06,-3.6388046e-06,0.21373738,0.0,0.0,0.0,0.0,0
5420000,2.0333944e-06,-2.1803874e-06,6.567496e-12,0.9768958,1.6069009e-06,-3.6422832e-06,0.21373738,0.0,0.0,0.0,0.0,0
5436000,2.0333944e-06,-2.1803874e-06,6.55428e-12,0.9768958,1.60203e-06,-3.655777e-06,0.21373738,0.0,0.0,0.0,0.0,0
5448000,2.0333944e-06,-2.1803874e-06,6.544368e-12,0.9768958,1.6061272e-06,-3.6642014e-06,0.21373738,0.0,0.0,0.0,0.0,0
5460000,2.0333944e-06,-2.1803874e-06,6.5344557e-12,0.9768958,1.6101842e-06,-3.6726346e-06,0.21373738,0.0,0.0,0.0,0.0,0
5472000,2.0333941e-06,-2.1803874e-06,6.524544e-12,0.9768958,1.6142018e-06,-3.6810766e-06,0.21373738,0.0,0.0,0.0,0.0,0
5484000,2.0333941e-06,-2.1803874e-06,6.5146317e-12,0.9768958,1.618181e-06,-3.689527e-06,0.21373738,0.0,0.0,0.0,0.0,0
5496000,2.0333941e-06,-2.1803874e-06,6.50472e-12,0.9768958,1.6221231e-06,-3.6979854e-06,0.21373738,0.0,0.0,0.0,0.0,0
5508000,2.0333941e-06,-2.1803874e-06,6.4948077e-12,0.9768958,1.6260294e-06,-3.7064517e-06,0.21373738,0.0,0.0,0.0,0.0,0
5520000,2.0333941e-06,-2.1803874e-06,6.4848955e-12,0.9768958,1.6299012e-06,-3.7149255e-06,0.21373738,0.0,0.0,0.0,0.0,0
5532000,2.0333941e-06,-2.1803874e-06,6.4749837e-12,0.9768958,1.6337401e-06,-3.7234065e-06,0.21373738,0.0,0.0,0.0,0.0,0
5544000,2.0333941e-06,-2.1803874e-06,6.4650715e-12,0.9768958,1.6375474e-06,-3.7318944e-06,0.21373738,0.0,0.0,0.0,0.0,0
5556000,2.0333941e-06,-2.1803874e-06,6.4551593e-12,0.9768958,1.6413247e-06,-3.740389e-06,0.21373738,0.0,0.0,0.0,0.0,0
5568000,2.0333941e-06,-2.1803874e-06,6.4452475e-12,0.9768958,1.6450736e-06,-3.7488896e-06,0.21373738,0.0,0.0,0.0,0.0,0
5580000,2.0333941e-06,-2.1803874e-06,6.4353353e-12,0.9768958,1.6487953e-06,-3.7573964e-06,0.21373738,0.0,0.0,0.0,0.0,0
5592000,2.0333941e-06,-2.1803871e-06,6.425423e-12,0.9768958,1.6524917e-06,-3.7659086e-06,0.21373738,0.0,0.0,0.0,0.0,0
5604000,2.0333941e-06,-2.1803871e-06,6.4155114e-12,0.9768958,1.656164e-06,-3.774426e-06,0.21373738,0.0,0.0,0.0,0.0,0
5616000,2.0333941e-06,-2.1803871e-06,6.405599e-12,0.9768958,1.6598137e-06,-3.7829484e-06,0.21373738,0.0,0.0,0.0,0.0,0
5628000,2.0333941e-06,-2.1803871e-06,6.395687e-12,0.9768958,1.6634423e-06,-3.7914756e-06,0.21373738,0.0,0.0,0.0,0.0,0
5640000,2.0333941e-06,-2.1803871e-06,6.385775e-12,0.9768958,1.6670508e-06,-3.8000069e-06,0.21373738,0.0,0.0,0.0,0.0,0
5652000,2.0333941e-06,-2.1803871e-06,6.375863e-12,0.9768958,1.6706408e-06,-3.8085425e-06,0.21373738,0.0,0.0,0.0,0.0,0
5664000,2.0333941e-06,-2.1803871e-06,6.3659507e-12,0.9768958,1.6742134e-06,-3.8170815e-06,0.21373738,0.0,0.0,0.0,0.0,0
5676000,2.0333941e-06,-2.1803871e-06,6.356039e-12,0.9768958,1.6777697e-06,-3.8256244e-06,0.21373738,0.0,0.0,0.0,0.0,0
5688000,2.0333941e-06,-2.1803871e-06,6.3461267e-12,0.9768958,1.6813109e-06,-3.834171e-06,0.21373738,0.0,0.0,0.0,0.0,0
5700000,2.0333941e-06,-2.1803871e-06,6.3362145e-12,0.9768958,1.6848379e-06,-3.84272e-06,0.21373738,0.0,0.0,0.0,0.0,0
5712000,2.0333941e-06,-2.1803871e-06,6.3263028e-12,0.9768958,1.6883517e-06,-3.851272e-06,0.21373738,0.0,0.0,0.0,0.0,0
5724000,2.0333941e-06,-2.1803871e-06,6.3163906e-12,0.9768958,1.6918535e-06,-3.859827e-06,0.21373738,0.0,0.0,0.0,0.0,0
5736000,2.0333941e-06,-2.1803871e-06,6.3064783e-12,0.9768958,1.6953439e-06,-3.8683843e-06,0.21373738,0.0,0.0,0.0,0.0,0
5748000,2.0333941e-06,-2.1803871e-06,6.2965666e-12,0.9768958,1.6692263e-06,-3.8834196e-06,0.21373738,0.0,0.0,0.0,0.0,0
5760000,2.0333941e-06,-2.1803871e-06,6.2866544e-12,0.9768958,1.6733354e-06,-3.8918415e-06,0.21373738,0.0,0.0,0.0,0.0,0
5772000,2.0333941e-06,-2.1803871e-06,6.276742e-12,0.9768958,1.677402e-06,-3.9002725e-06,0.21373738,0.0,0.0,0.0,0.0,0
5784000,2.0333941e-06,-2.1803871e-06,6.2668304e-12,0.9768958,1.6814272e-06,-3.908713e-06,0.21373738,0.0,0.0,0.0,0.0,0
5796000,2.0333941e-06,-2.1803871e-06,6.256918e-12,0.9768958,1.6854123e-06,-3.917162e-06,0.21373738,0.0,0.0,0.0,0.0,0
5808000,2.0333941e-06,-2.1803871e-06,6.247006e-12,0.9768958,1.6893588e-06,-3.9256192e-06,0.21373738,0.0,0.0,0.0,0.0,0
5820000,2.0333941e-06,-2.1803871e-06,6.237094e-12,0.9768958,1.6932681e-06,-3.9340853e-06,0.21373738,0.0,0.0,0.0,0.0,0
5832000,2.0333941e-06,-2.1803871e-06,6.227182e-12,0.9768958,1.697142e-06,-3.9425586e-06,0.21373738,0.0,0.0,0.0,0.0,0
5844000,2.0333941e-06,-2.1803871e-06,6.2172698e-12,0.9768958,1.7009819e-06,-3.951039e-06,0.21373738,0.0,0.0,0.0,0.0,0
5856000,2.0333941e-06,-2.1803871e-06,6.207358e-12,0.9768958,1.7047896e-06,-3.959527e-06,0.21373738,0.0,0.0,0.0,0.0,0
5868000,2.0333941e-06,-2.1803871e-06,6.1974458e-12,0.9768958,1.7085666e-06,-3.9680217e-06,0.21373738,0.0,0.0,0.0,0.0,0
5880000,2.0333941e-06,-2.1803871e-06,6.187534e-12,0.9768958,1.7123147e-06,-3.9765227e-06,0.21373738,0.0,0.0,0.0,0.0,0
5892000,2.0333941e-06,-2.1803871e-06,6.1776218e-12,0.9768958,1.7160354e-06,-3.9850293e-06,0.21373738,0.0,0.0,0.0,0.0,0
5904000,2.0333941e-06,-2.1803871e-06,6.1677096e-12,0.9768958,1.7197303e-06,-3.993542e-06,0.21373738,0.0,0.0,0.0,0.0,0
5916000,2.0333941e-06,-2.1803871e-06,6.157798e-12,0.9768958,1.7234009e-06,-4.00206e-06,0.21373738,0.0,0.0,0.0,0.0,0
5928000,2.0333941e-06,-2.1803871e-06,6.1478856e-12,0.9768958,1.7270488e-06,-4.010583e-06,0.21373738,0.0,0.0,0.0,0.0,0
5940000,2.0333941e-06,-2.1803871e-06,6.1379734e-12,0.9768958,1.7306754e-06,-4.0191103e-06,0.21373738,0.0,0.0,0.0,0.0,0
5948000,2.0333941e-06,-2.1803871e-06,6.1313654e-12,0.9768958,1.7428595e-06,-4.0226582e-06,0.21373738,0.0,0.0,0.0,0.0,0
5964000,2.0333941e-06,-2.1803871e-06,6.1181494e-12,0.9768958,1.7378699e-06,-4.036178e-06,0.21373738,0.0,0.0,0.0,0.0,0
5976000,2.0333941e-06,-2.1803871e-06,6.108237e-12,0.9768958,1.7414403e-06,-4.0447176e-06,0.21373738,0.0,0.0,0.0,0.0,0
5988000,2.0333941e-06,-2.180387e-06,6.0983254e-12,0.9768958,1.7449946e-06,-4.053261e-06,0.21373738,0.0,0.0,0.0,0.0,0
6000000,2.0333941e-06,-2.180387e-06,6.088413e-12,0.9768958,1.7485338e-06,-4.0618074e-06,0.21373738,0.0,0.0,0.0,0.0,0
6012000,2.033394e-06,-2.180387e-06,6.078501e-12,0.9768958,1.7520589e-06,-4.070357e-06,0.21373738,0.0,0.0,0.0,0.0,0
6024000,2.033394e-06,-2.180387e-06,6.068589e-12,0.9768958,1.7555709e-06,-4.07891e-06,0.21373738,0.0,0.0,0.0,0.0,0
6036000,2.033394e-06,-2.180387e-06,6.058677e-12,0.9768958,1.7590709e-06,-4.087465e-06,0.21373738,0.0,0.0,0.0,0.0,0
6048000,2.0333941e-06,-2.180387e-06,6.0487652e-12,0.9768958,1.7625595e-06,-4.0960226e-06,0.21373738,0.0,0.0,0.0,0.0,0
6060000,2.0333941e-06,-2.180387e-06,6.038853e-12,0.9768958,1.7666753e-06,-4.104443e-06,0.21373738,0.0,0.0,0.0,0.0,0
6072000,2.0333941e-06,-2.180387e-06,6.028941e-12,0.9768958,1.7707498e-06,-4.112873e-06,0.21373738,0.0,0.0,0.0,0.0,0
6084000,2.0333941e-06,-2.180387e-06,6.019029e-12,0.9768958,1.7747839e-06,-4.121311e-06,0.21373738,0.0,0.0,0.0,0.0,0
6096000,2.0333941e-06,-2.180387e-06,6.009117e-12,0.9768958,1.7787786e-06,-4.129758e-06,0.21373738,0.0,0.0,0.0,0.0,0
6108000,2.0333941e-06,-2.180387e-06,5.9992046e-12,0.9768958,1.7827354e-06,-4.138213e-06,0.21373738,0.0,0.0,0.0,0.0,0
6120000,2.0333941e-06,-2.180387e-06,5.989293e-12,0.9768958,1.7866553e-06,-4.1466765e-06,0.21373738,0.0,0.0,0.0,0.0,0
6132000,2.0333941e-06,-2.180387e-06,5.9793806e-12,0.9768958,1.79054e-06,-4.1551475e-06,0.21373738,0.0,0.0,0.0,0.0,0
6144000,2.0333941e-06,-2.180387e-06,5.9694684e-12,0.9768958,1.7943908e-06,-4.163626e-06,0.21373738,0.0,0.0,0.0,0.0,0
6156000,2.033394e-06,-2.180387e-06,5.9595566e-12,0.9768958,1.7982093e-06,-4.1721114e-06,0.21373738,0.0,0.0,0.0,0.0,0
6168000,2.033394e-06,-2.180387e-06,5.9496444e-12,0.9768958,1.8019971e-06,-4.1806034e-06,0.21373738,0.0,0.0,0.0,0.0,0
6180000,2.033394e-06,-2.180387e-06,5.939732e-12,0.9768958,1.8057557e-06,-4.189102e-06,0.21373738,0.0,0.0,0.0,0.0,0
6188000,2.0333941e-06,-2.180387e-06,5.9331242e-12,0.9768958,1.8183431e-06,-4.1925623e-06,0.21373738,0.0,0.0,0.0,0.0,0
6204000,2.033394e-06,-2.180387e-06,5.9199082e-12,0.9768958,1.8131914e-06,-4.2061174e-06,0.21373738,0.0,0.0,0.0,0.0,0
6216000,2.033394e-06,-2.180387e-06,5.9099965e-12,0.9768958,1.8168715e-06,-4.214633e-06,0.21373738,0.0,0.0,0.0,0.0,0
6228000,2.033394e-06,-2.180387e-06,5.9000842e-12,0.9768958,1.8205286e-06,-4.2231536e-06,0.21373738,0.0,0.0,0.0,0.0,0
6240000,2.033394e-06,-2.180387e-06,5.890172e-12,0.9768958,1.8241639e-06,-4.231679e-06,0.21373738,0.0,0.0,0.0,0.0,0
6252000,2.033394e-06,-2.180387e-06,5.8802603e-12,0.9768958,1.8277788e-06,-4.2402094e-06,0.21373738,0.0,0.0,0.0,0.0,0
6264000,2.033394e-06,-2.180387e-06,5.870348e-12,0.9768958,1.8313746e-06,-4.2487436e-06,0.21373738,0.0,0.0,0.0,0.0,0
6276000,2.033394e-06,-2.180387e-06,5.860436e-12,0.9768958,1.8349525e-06,-4.257282e-06,0.21373738,0.0,0.0,0.0,0.0,0
6288000,2.033394e-06,-2.180387e-06,5.850524e-12,0.9768958,1.8385139e-06,-4.2658235e-06,0.21373738,0.0,0.0,0.0,0.0,0
6300000,2.033394e-06,-2.180387e-06,5.840612e-12,0.9768958,1.8420596e-06,-4.2743686e-06,0.21373738,0.0,0.0,0.0,0.0,0
6312000,2.033394e-06,-2.180387e-06,5.8306996e-12,0.9768958,1.845591e-06,-4.282917e-06,0.21373738,0.0,0.0,0.0,0.0,0
6324000,2.033394e-06,-2.180387e-06,5.820788e-12,0.9768958,1.8491088e-06,-4.291468e-06,0.21373738,0.0,0.0,0.0,0.0,0
6336000,2.033394e-06,-2.180387e-06,5.8108757e-12,0.9768958,1.8526142e-06,-4.3000223e-06,0.21373738,0.0,0.0,0.0,0.0,0
6348000,2.033394e-06,-2.180387e-06,5.800964e-12,0.9768958,1.8561079e-06,-4.308579e-06,0.21373738,0.0,0.0,0.0,0.0,0
6360000,2.033394e-06,-2.180387e-06,5.7910517e-12,0.9768958,1.8602457e-06,-4.3169944e-06,0.21373738,0.0,0.0,0.0,0.0,0
6372000,2.033394e-06,-2.180387e-06,5.7811395e-12,0.9768958,1.8643426e-06,-4.325419e-06,0.21373738,0.0,0.0,0.0,0.0,0
6384000,2.033394e-06,-2.180387e-06,5.7712277e-12,0.9768958,1.8683994e-06,-4.3338523e-06,0.21373738,0.0,0.0,0.0,0.0,0
6396000,2.033394e-06,-2.180387e-06,5.7613155e-12,0.9768958,1.8724169e-06,-4.3422942e-06,0.21373738,0.0,0.0,0.0,0.0,0
6408000,2.033394e-06,-2.1803867e-06,5.7514033e-12,0.9768958,1.876396e-06,-4.350745e-06,0.21373738,0.0,0.0,0.0,0.0,0
6420000,2.033394e-06,-2.1803867e-06,5.7414915e-12,0.9768958,1.880338e-06,-4.359203e-06,0.21373738,0.0,0.0,0.0,0.0,0
6432000,2.033394e-06,-2.1803867e-06,5.7315793e-12,0.9768958,1.8842442e-06,-4.3676696e-06,0.21373738,0.0,0.0,0.0,0.0,0
6444000,2.033394e-06,-2.1803867e-06,5.7216675e-12,0.9768958,1.8881159e-06,-4.3761434e-06,0.21373738,0.0,0.0,0.0,0.0,0
6456000,2.033394e-06,-2.1803867e-06,5.7117553e-12,0.9768958,1.8919545e-06,-4.3846244e-06,0.21373738,0.0,0.0,0.0,0.0,0
6468000,2.033394e-06,-2.1803867e-06,5.701843e-12,0.9768958,1.8957618e-06,-4.3931122e-06,0.21373738,0.0,0.0,0.0,0.0,0
6480000,2.033394e-06,-2.1803867e-06,5.6919313e-12,0.9768958,1.8995389e-06,-4.401607e-06,0.21373738,0.0,0.0,0.0,0.0,0
6492000,2.033394e-06,-2.1803867e-06,5.682019e-12,0.9768958,1.9032876e-06,-4.4101075e-06,0.21373738,0.0,0.0,0.0,0.0,0
6504000,2.033394e-06,-2.1803867e-06,5.672107e-12,0.9768958,1.9070094e-06,-4.4186145e-06,0.21373738,0.0,0.0,0.0,0.0,0
6516000,2.033394e-06,-2.1803867e-06,5.662195e-12,0.9768958,1.9107056e-06,-4.4271264e-06,0.21373738,0.0,0.0,0.0,0.0,0
6528000,2.033394e-06,-2.1803867e-06,5.652283e-12,0.9768958,1.914378e-06,-4.435644e-06,0.21373738,0.0,0.0,0.0,0.0,0
6540000,2.033394e-06,-2.1803867e-06,5.642371e-12,0.9768958,1.9180275e-06,-4.4441663e-06,0.21373738,0.0,0.0,0.0,0.0,0
6552000,2.033394e-06,-2.1803867e-06,5.632459e-12,0.9768958,1.921656e-06,-4.4526937e-06,0.21373738,0.0,0.0,0.0,0.0,0
6564000,2.033394e-06,-2.1803867e-06,5.6225467e-12,0.9768958,1.9252645e-06,-4.4612248e-06,0.21373738,0.0,0.0,0.0,0.0,0
6576000,2.033394e-06,-2.1803867e-06,5.612635e-12,0.9768958,1.9288543e-06,-4.4697604e-06,0.21373738,0.0,0.0,0.0,0.0,0
6588000,2.033394e-06,-2.1803867e-06,5.6027227e-12,0.9768958,1.9324268e-06,-4.4782996e-06,0.21373738,0.0,0.0,0.0,0.0,0
6600000,2.033394e-06,-2.1803867e-06,5.5928105e-12,0.9768958,1.9359832e-06,-4.4868425e-06,0.21373738,0.0,0.0,0.0,0.0,0
6612000,2.033394e-06,-2.1803867e-06,5.5828987e-12,0.9768958,1.9395243e-06,-4.495389e-06,0.21373738,0.0,0.0,0.0,0.0,0
6624000,2.033394e-06,-2.1803867e-06,5.5729865e-12,0.9768958,1.9430513e-06,-4.5039383e-06,0.21373738,0.0,0.0,0.0,0.0,0
6636000,2.033394e-06,-2.1803867e-06,5.5630747e-12,0.9768958,1.9465651e-06,-4.5124902e-06,0.21373738,0.0,0.0,0.0,0.0,0
6648000,2.033394e-06,-2.1803867e-06,5.5531625e-12,0.9768958,1.9500667e-06,-4.521045e-06,0.21373738,0.0,0.0,0.0,0.0,0
6660000,2.033394e-06,-2.1803867e-06,5.5432503e-12,0.9768958,1.9239596e-06,-4.536078e-06,0.21373738,0.0,0.0,0.0,0.0,0
6672000,2.033394e-06,-2.1803867e-06,5.5333385e-12,0.9768958,1.9280758e-06,-4.5444986e-06,0.21373738,0.0,0.0,0.0,0.0,0
6684000,2.033394e-06,-2.1803867e-06,5.5234263e-12,0.9768958,1.9321492e-06,-4.552928e-06,0.21373738,0.0,0.0,0.0,0.0,0
6696000,2.033394e-06,-2.1803867e-06,5.513514e-12,0.9768958,1.936181e-06,-4.561367e-06,0.21373738,0.0,0.0,0.0,0.0,0
6708000,2.033394e-06,-2.1803867e-06,5.5036023e-12,0.9768958,1.9401723e-06,-4.569815e-06,0.21373738,0.0,0.0,0.0,0.0,0
6716000,2.033394e-06,-2.1803867e-06,5.4969944e-12,0.9768958,1.9526262e-06,-4.5733036e-06,0.21373738,0.0,0.0,0.0,0.0,0
6728000,2.033394e-06,-2.1803867e-06,5.487082e-12,0.9768958,1.956547e-06,-4.581767e-06,0.21373738,0.0,0.0,0.0,0.0,0
6744000,2.0333937e-06,-2.1803867e-06,5.473866e-12,0.9768958,1.9519198e-06,-4.5952074e-06,0.21373738,0.0,0.0,0.0,0.0,0
6752000,2.033394e-06,-2.1803867e-06,5.467258e-12,0.9768958,1.9642844e-06,-4.598716e-06,0.21373738,0.0,0.0,0.0,0.0,0
6768000,2.0333937e-06,-2.1803867e-06,5.454042e-12,0.9768958,1.9595777e-06,-4.6121736e-06,0.21373738,0.0,0.0,0.0,0.0,0
6780000,2.0333937e-06,-2.1803867e-06,5.44413e-12,0.9768958,1.9633596e-06,-4.6206674e-06,0.21373738,0.0,0.0,0.0,0.0,0
6792000,2.0333937e-06,-2.1803864e-06,5.434218e-12,0.9768958,1.9671122e-06,-4.629167e-06,0.21373738,0.0,0.0,0.0,0.0,0
6804000,2.0333937e-06,-2.1803864e-06,5.424306e-12,0.9768958,1.9708373e-06,-4.637673e-06,0.21373738,0.0,0.0,0.0,0.0,0
6816000,2.0333937e-06,-2.1803864e-06,5.4143938e-12,0.9768958,1.9745362e-06,-4.6461846e-06,0.21373738,0.0,0.0,0.0,0.0,0
6828000,2.0333937e-06,-2.1803864e-06,5.404482e-12,0.9768958,1.9782108e-06,-4.6547016e-06,0.21373738,0.0,0.0,0.0,0.0,0
6840000,2.0333937e-06,-2.1803864e-06,5.3945698e-12,0.9768958,1.9818622e-06,-4.6632235e-06,0.21373738,0.0,0.0,0.0,0.0,0
6852000,2.0333937e-06,-2.1803864e-06,5.3846576e-12,0.9768958,1.9854922e-06,-4.6717505e-06,0.21373738,0.0,0.0,0.0,0.0,0
6864000,2.0333937e-06,-2.1803864e-06,5.374746e-12,0.9768958,1.9891017e-06,-4.6802816e-06,0.21373738,0.0,0.0,0.0,0.0,0
6876000,2.0333937e-06,-2.1803864e-06,5.3648336e-12,0.9768958,1.9926927e-06,-4.6888167e-06,0.21373738,0.0,0.0,0.0,0.0,0
6888000,2.0333937e-06,-2.1803864e-06,5.354922e-12,0.9768958,1.9962658e-06,-4.697356e-06,0.21373738,0.0,0.0,0.0,0.0,0
6900000,2.0333937e-06,-2.1803864e-06,5.3450096e-12,0.9768958,1.9998226e-06,-4.705899e-06,0.21373738,0.0,0.0,0.0,0.0,0
6912000,2.0333937e-06,-2.1803864e-06,5.3350974e-12,0.9768958,2.0033642e-06,-4.714445e-06,0.21373738,0.0,0.0,0.0,0.0,0
6924000,2.0333937e-06,-2.1803864e-06,5.3251856e-12,0.9768958,2.0068915e-06,-4.722994e-06,0.21373738,0.0,0.0,0.0,0.0,0
6936000,2.0333937e-06,-2.1803864e-06,5.3152734e-12,0.9768958,2.0104055e-06,-4.731546e-06,0.21373738,0.0,0.0,0.0,0.0,0
6948000,2.0333937e-06,-2.1803864e-06,5.3053616e-12,0.9768958,2.0139073e-06,-4.740101e-06,0.21373738,0.0,0.0,0.0,0.0,0
6960000,2.0333937e-06,-2.1803864e-06,5.2954494e-12,0.9768958,2.0173977e-06,-4.7486583e-06,0.21373738,0.0,0.0,0.0,0.0,0
6972000,2.0333937e-06,-2.1803864e-06,5.285537e-12,0.9768958,2.0208777e-06,-4.757218e-06,0.21373738,0.0,0.0,0.0,0.0,0
6984000,2.0333937e-06,-2.1803864e-06,5.2756254e-12,0.9768958,2.024988e-06,-4.7656395e-06,0.21373738,0.0,0.0,0.0,0.0,0
6996000,2.0333937e-06,-2.1803864e-06,5.265713e-12,0.9768958,2.0290568e-06,-4.77407e-06,0.21373738,0.0,0.0,0.0,0.0,0
7004000,2.0333937e-06,-2.1803864e-06,5.2591052e-12,0.9768958,2.0417663e-06,-4.7775034e-06,0.21373738,0.0,0.0,0.0,0.0,0
7020000,2.0333937e-06,-2.1803864e-06,5.2458892e-12,0.9768958,2.037075e-06,-4.790958e-06,0.21373738,0.0,0.0,0.0,0.0,0
7032000,2.0333937e-06,-2.1803864e-06,5.235977e-12,0.9768958,2.0410268e-06,-4.799414e-06,0.21373738,0.0,0.0,0.0,0.0,0
7040000,2.0333937e-06,-2.1803864e-06,5.229369e-12,0.9768958,2.053687e-06,-4.8028583e-06,0.21373738,0.0,0.0,0.0,0.0,0
7056000,2.0333937e-06,-2.1803864e-06,5.216153e-12,0.9768958,2.048822e-06,-4.8163506e-06,0.21373738,0.0,0.0,0.0,0.0,0
7068000,2.0333937e-06,-2.1803864e-06,5.206241e-12,0.9768958,2.0526682e-06,-4.82483e-06,0.21373738,0.0,0.0,0.0,0.0,0
7080000,2.0333937e-06,-2.1803864e-06,5.196329e-12,0.9768958,2.0564826e-06,-4.8333163e-06,0.21373738,0.0,0.0,0.0,0.0,0
7092000,2.0333937e-06,-2.1803864e-06,5.186417e-12,0.9768958,2.0602663e-06,-4.8418096e-06,0.21373738,0.0,0.0,0.0,0.0,0
7104000,2.0333937e-06,-2.1803864e-06,5.1765046e-12,0.9768958,2.064021e-06,-4.850309e-06,0.21373738,0.0,0.0,0.0,0.0,0
7116000,2.0333937e-06,-2.1803864e-06,5.166593e-12,0.9768958,2.0677483e-06,-4.8588145e-06,0.21373738,0.0,0.0,0.0,0.0,0
7128000,2.0333937e-06,-2.1803864e-06,5.1566806e-12,0.9768958,2.0714497e-06,-4.8673255e-06,0.21373738,0.0,0.0,0.0,0.0,0
7140000,2.0333937e-06,-2.1803864e-06,5.146769e-12,0.9768958,2.0751268e-06,-4.875842e-06,0.21373738,0.0,0.0,0.0,0.0,0
7152000,2.0333937e-06,-2.1803864e-06,5.1368567e-12,0.9768958,2.0787807e-06,-4.8843635e-06,0.21373738,0.0,0.0,0.0,0.0,0
7164000,2.0333937e-06,-2.1803864e-06,5.1269444e-12,0.9768958,2.0824132e-06,-4.8928896e-06,0.21373738,0.0,0.0,0.0,0.0,0
7176000,2.0333937e-06,-2.1803864e-06,5.1170327e-12,0.9768958,2.0860255e-06,-4.90142e-06,0.21373738,0.0,0.0,0.0,0.0,0
7188000,2.0333937e-06,-2.1803864e-06,5.1071205e-12,0.9768958,2.0896186e-06,-4.909955e-06,0.21373738,0.0,0.0,0.0,0.0,0
7200000,2.0333937e-06,-2.1803862e-06,5.0972087e-12,0.9768958,2.0931943e-06,-4.9184937e-06,0.21373738,0.0,0.0,0.0,0.0,0
7212000,2.0333937e-06,-2.1803862e-06,5.0872965e-12,0.9768958,2.0967536e-06,-4.9270357e-06,0.21373738,0.0,0.0,0.0,0.0,0
7224000,2.0333937e-06,-2.1803862e-06,5.0773843e-12,0.9768958,2.1002973e-06,-4.9355813e-06,0.21373738,0.0,0.0,0.0,0.0,0
7236000,2.0333937e-06,-2.1803862e-06,5.0674725e-12,0.9768958,2.1038268e-06,-4.94413e-06,0.21373738,0.0,0.0,0.0,0.0,0
7248000,2.0333937e-06,-2.1803862e-06,5.0575603e-12,0.9768958,2.1073429e-06,-4.952682e-06,0.21373738,0.0,0.0,0.0,0.0,0
7260000,2.0333937e-06,-2.1803862e-06,5.0476485e-12,0.9768958,2.1108467e-06,-4.9612363e-06,0.21373738,0.0,0.0,0.0,0.0,0
7272000,2.0333937e-06,-2.1803862e-06,5.0377363e-12,0.9768958,2.114339e-06,-4.969793e-06,0.21373738,0.0,0.0,0.0,0.0,0
7284000,2.0333937e-06,-2.1803862e-06,5.027824e-12,0.9768958,2.1184755e-06,-4.978209e-06,0.21373738,0.0,0.0,0.0,0.0,0
7292000,2.0333937e-06,-2.1803862e-06,5.021216e-12,0.9768958,2.101355e-06,-4.9881687e-06,0.21373738,0.0,0.0,0.0,0.0,0
7308000,2.0333937e-06,-2.1803862e-06,5.008e-12,0.9768958,2.1266276e-06,-4.9950672e-06,0.21373738,0.0,0.0,0.0,0.0,0
7320000,2.0333937e-06,-2.1803862e-06,4.9980883e-12,0.9768958,2.1306441e-06,-5.003509e-06,0.21373738,0.0,0.0,0.0,0.0,0
7332000,2.0333937e-06,-2.1803862e-06,4.988176e-12,0.9768958,2.1346225e-06,-5.0119597e-06,0.21373738,0.0,0.0,0.0,0.0,0
7344000,2.0333937e-06,-2.1803862e-06,4.978264e-12,0.9768958,2.1385636e-06,-5.0204185e-06,0.21373738,0.0,0.0,0.0,0.0,0
7356000,2.0333937e-06,-2.1803862e-06,4.968352e-12,0.9768958,2.142469e-06,-5.028885e-06,0.21373738,0.0,0.0,0.0,0.0,0
7368000,2.0333937e-06,-2.1803862e-06,4.95844e-12,0.9768958,2.14634e-06,-5.037359e-06,0.21373738,0.0,0.0,0.0,0.0,0
7380000,2.0333937e-06,-2.1803862e-06,4.948528e-12,0.9768958,2.150178e-06,-5.04584e-06,0.21373738,0.0,0.0,0.0,0.0,0
7392000,2.0333937e-06,-2.1803862e-06,4.938616e-12,0.9768958,2.1539845e-06,-5.0543285e-06,0.21373738,0.0,0.0,0.0,0.0,0
7404000,2.0333937e-06,-2.1803862e-06,4.9287037e-12,0.9768958,2.157761e-06,-5.062823e-06,0.21373738,0.0,0.0,0.0,0.0,0
7416000,2.0333937e-06,-2.1803862e-06,4.918792e-12,0.9768958,2.1615092e-06,-5.071324e-06,0.21373738,0.0,0.0,0.0,0.0,0
7428000,2.0333937e-06,-2.1803862e-06,4.9088797e-12,0.9768958,2.1652302e-06,-5.0798308e-06,0.21373738,0.0,0.0,0.0,0.0,0
7440000,2.0333937e-06,-2.1803862e-06,4.898968e-12,0.9768958,2.168926e-06,-5.088343e-06,0.21373738,0.0,0.0,0.0,0.0,0
7452000,2.0333937e-06,-2.1803862e-06,4.8890557e-12,0.9768958,2.1725978e-06,-5.0968606e-06,0.21373738,0.0,0.0,0.0,0.0,0
7464000,2.0333937e-06,-2.1803862e-06,4.8791435e-12,0.9768958,2.1762469e-06,-5.1053835e-06,0.21373738,0.0,0.0,0.0,0.0,0
7476000,2.0333937e-06,-2.1803862e-06,4.8692318e-12,0.9768958,2.1798749e-06,-5.1139104e-06,0.21373738,0.0,0.0,0.0,0.0,0
7488000,2.0333937e-06,-2.1803862e-06,4.8593195e-12,0.9768958,2.1834828e-06,-5.122442e-06,0.21373738,0.0,0.0,0.0,0.0,0
7500000,2.0333937e-06,-2.1803862e-06,4.8494078e-12,0.9768958,2.1870724e-06,-5.1309776e-06,0.21373738,0.0,0.0,0.0,0.0,0
7512000,2.0333937e-06,-2.1803862e-06,4.8394956e-12,0.9768958,2.1906446e-06,-5.139517e-06,0.21373738,0.0,0.0,0.0,0.0,0
7524000,2.0333937e-06,-2.1803862e-06,4.8295833e-12,0.9768958,2.1942005e-06,-5.1480597e-06,0.21373738,0.0,0.0,0.0,0.0,0
7536000,2.0333937e-06,-2.1803862e-06,4.8196716e-12,0.9768958,2.1977412e-06,-5.156606e-06,0.21373738,0.0,0.0,0.0,0.0,0
7548000,2.0333937e-06,-2.1803862e-06,4.8097594e-12,0.9768958,2.201268e-06,-5.1651555e-06,0.21373738,0.0,0.0,0.0,0.0,0
7560000,2.0333937e-06,-2.1803862e-06,4.7998476e-12,0.9768958,2.2047816e-06,-5.173708e-06,0.21373738,0.0,0.0,0.0,0.0,0
7572000,2.0333937e-06,-2.1803862e-06,4.7899354e-12,0.9768958,2.208283e-06,-5.1822626e-06,0.21373738,0.0,0.0,0.0,0.0,0
7584000,2.0333935e-06,-2.1803862e-06,4.7800236e-12,0.9768958,2.1821756e-06,-5.1972956e-06,0.21373738,0.0,0.0,0.0,0.0,0
7596000,2.0333935e-06,-2.180386e-06,4.7701114e-12,0.9768958,2.1862916e-06,-5.205716e-06,0.21373738,0.0,0.0,0.0,0.0,0
7608000,2.0333935e-06,-2.180386e-06,4.760199e-12,0.9768958,2.1903647e-06,-5.214146e-06,0.21373738,0.0,0.0,0.0,0.0,0
7620000,2.0333935e-06,-2.180386e-06,4.7502874e-12,0.9768958,2.1943963e-06,-5.2225846e-06,0.21373738,0.0,0.0,0.0,0.0,0
7632000,2.0333935e-06,-2.180386e-06,4.740375e-12,0.9768958,2.1983876e-06,-5.2310324e-06,0.21373738,0.0,0.0,0.0,0.0,0
7644000,2.0333935e-06,-2.180386e-06,4.7304634e-12,0.9768958,2.20234e-06,-5.2394885e-06,0.21373738,0.0,0.0,0.0,0.0,0
7656000,2.0333935e-06,-2.180386e-06,4.720551e-12,0.9768958,2.2062552e-06,-5.2479527e-06,0.21373738,0.0,0.0,0.0,0.0,0
7668000,2.0333935e-06,-2.180386e-06,4.710639e-12,0.9768958,2.2101347e-06,-5.256425e-06,0.21373738,0.0,0.0,0.0,0.0,0
7680000,2.0333935e-06,-2.180386e-06,4.7007272e-12,0.9768958,2.2139798e-06,-5.2649048e-06,0.21373738,0.0,0.0,0.0,0.0,0
7692000,2.0333935e-06,-2.180386e-06,4.690815e-12,0.9768958,2.2177924e-06,-5.2733917e-06,0.21373738,0.0,0.0,0.0,0.0,0
7704000,2.0333935e-06,-2.180386e-06,4.6809032e-12,0.9768958,2.221574e-06,-5.281885e-06,0.21373738,0.0,0.0,0.0,0.0,0
7716000,2.0333935e-06,-2.180386e-06,4.670991e-12,0.9768958,2.2253266e-06,-5.290385e-06,0.21373738,0.0,0.0,0.0,0.0,0
7728000,2.0333935e-06,-2.180386e-06,4.6610792e-12,0.9768958,2.2290515e-06,-5.2988908e-06,0.21373738,0.0,0.0,0.0,0.0,0
7740000,2.0333935e-06,-2.180386e-06,4.651167e-12,0.9768958,2.2327504e-06,-5.3074027e-06,0.21373738,0.0,0.0,0.0,0.0,0
7752000,2.0333935e-06,-2.180386e-06,4.641255e-12,0.9768958,2.2364247e-06,-5.3159197e-06,0.21373738,0.0,0.0,0.0,0.0,0
7764000,2.0333935e-06,-2.180386e-06,4.631343e-12,0.9768958,2.2400761e-06,-5.3244416e-06,0.21373738,0.0,0.0,0.0,0.0,0
7776000,2.0333935e-06,-2.180386e-06,4.621431e-12,0.9768958,2.243706e-06,-5.3329686e-06,0.21373738,0.0,0.0,0.0,0.0,0
7788000,2.0333935e-06,-2.180386e-06,4.611519e-12,0.9768958,2.2473157e-06,-5.3414997e-06,0.21373738,0.0,0.0,0.0,0.0,0
7800000,2.0333935e-06,-2.180386e-06,4.601607e-12,0.9768958,2.2509064e-06,-5.350035e-06,0.21373738,0.0,0.0,0.0,0.0,0
7812000,2.0333935e-06,-2.180386e-06,4.5916946e-12,0.9768958,2.2544796e-06,-5.358574e-06,0.21373738,0.0,0.0,0.0,0.0,0
7824000,2.0333935e-06,-2.180386e-06,4.581783e-12,0.9768958,2.2580364e-06,-5.367117e-06,0.21373738,0.0,0.0,0.0,0.0,0
7836000,2.0333935e-06,-2.180386e-06,4.5718707e-12,0.9768958,2.2615777e-06,-5.375663e-06,0.21373738,0.0,0.0,0.0,0.0,0
7848000,2.0333935e-06,-2.180386e-06,4.561959e-12,0.9768958,2.265105e-06,-5.3842123e-06,0.21373738,0.0,0.0,0.0,0.0,0
7860000,2.0333935e-06,-2.180386e-06,4.5520467e-12,0.9768958,2.268619e-06,-5.3927643e-06,0.21373738,0.0,0.0,0.0,0.0,0
7872000,2.0333935e-06,-2.180386e-06,4.542135e-12,0.9768958,2.2721208e-06,-5.401319e-06,0.21373738,0.0,0.0,0.0,0.0,0
7884000,2.0333935e-06,-2.180386e-06,4.5322227e-12,0.9768958,2.2756112e-06,-5.4098764e-06,0.21373738,0.0,0.0,0.0,0.0,0
7896000,2.0333935e-06,-2.180386e-06,4.5223105e-12,0.9768958,2.2790912e-06,-5.418436e-06,0.21373738,0.0,0.0,0.0,0.0,0
7908000,2.0333935e-06,-2.180386e-06,4.5123987e-12,0.9768958,2.2832012e-06,-5.4268576e-06,0.21373738,0.0,0.0,0.0,0.0,0
7920000,2.0333935e-06,-2.180386e-06,4.5024865e-12,0.9768958,2.2872703e-06,-5.4352886e-06,0.21373738,0.0,0.0,0.0,0.0,0
7932000,2.0333935e-06,-2.180386e-06,4.4925743e-12,0.9768958,2.2912989e-06,-5.443728e-06,0.21373738,0.0,0.0,0.0,0.0,0
7944000,2.0333935e-06,-2.180386e-06,4.4826625e-12,0.9768958,2.2952884e-06,-5.452176e-06,0.21373738,0.0,0.0,0.0,0.0,0
7956000,2.0333935e-06,-2.180386e-06,4.4727503e-12,0.9768958,2.2992401e-06,-5.460632e-06,0.21373738,0.0,0.0,0.0,0.0,0
7968000,2.0333935e-06,-2.180386e-06,4.4628385e-12,0.9768958,2.3031553e-06,-5.469097e-06,0.21373738,0.0,0.0,0.0,0.0,0
7980000,2.0333935e-06,-2.180386e-06,4.4529263e-12,0.9768958,2.3070352e-06,-5.4775687e-06,0.21373738,0.0,0.0,0.0,0.0,0
7992000,2.0333935e-06,-2.180386e-06,4.443014e-12,0.9768958,2.3108814e-06,-5.486048e-06,0.21373738,0.0,0.0,0.0,0.0,0
8003999,2.0333935e-06,-2.1803858e-06,4.4331023e-12,0.9768958,2.3146958e-06,-5.4945344e-06,0.21373738,0.0,0.0,0.0,0.0,0
8016000,2.0333935e-06,-2.1803858e-06,4.42319e-12,0.9768958,2.3184796e-06,-5.5030278e-06,0.21373738,0.0,0.0,0.0,0.0,0
8028000,2.0333935e-06,-2.1803858e-06,4.4132783e-12,0.9768958,2.3222342e-06,-5.511527e-06,0.21373738,0.0,0.0,0.0,0.0,0
8040000,2.0333935e-06,-2.1803858e-06,4.403366e-12,0.9768958,2.3259615e-06,-5.5200326e-06,0.21373738,0.0,0.0,0.0,0.0,0
8051999,2.0333935e-06,-2.1803858e-06,4.3934544e-12,0.9768958,2.329663e-06,-5.5285436e-06,0.21373738,0.0,0.0,0.0,0.0,0
