timestamp,states[0],states[1],states[2],states[3],states[4],states[5],states[6],states[7],states[8],states[9],states[10],states[11],states[12],states[13],states[14],states[15],states[16],states[17],states[18],states[19],states[20],states[21],states[22],states[23],vibe[0],vibe[1],vibe[2],covariances[0],covariances[1],covariances[2],covariances[3],covariances[4],covariances[5],covariances[6],covariances[7],covariances[8],covariances[9],covariances[10],covariances[11],covariances[12],covariances[13],covariances[14],covariances[15],covariances[16],covariances[17],covariances[18],covariances[19],covariances[20],covariances[21],covariances[22],covariances[23],control_mode_flags,pos_horiz_accuracy,pos_vert_accuracy,mag_test_ratio,vel_test_ratio,pos_test_ratio,hgt_test_ratio,tas_test_ratio,hagl_test_ratio,beta_test_ratio,time_slip,gps_check_fail_flags,filter_fault_flags,innovation_check_flags,solution_status_flags,n_states,pre_flt_fail,health_flags,timeout_flags
3180000,0.97903335,-0.00818398,-0.015299834,0.2029597,0.01916775,-0.00079451373,-0.10924315,0.0025880986,-0.0002115582,-0.03278225,-3.7013392e-09,-1.2895221e-08,1.7985587e-07,1.1614346e-06,-6.959367e-07,-3.6319007e-06,0.20321652,0.00909893,0.43535018,0.0,0.0,0.0,0.0,0.0,5.9454935e-10,2.5351073e-05,0.00029488825,2.1089205e-05,4.3756932e-05,4.367783e-05,0.00048636936,0.11933659,0.119337864,0.4488926,0.027610676,0.027610706,0.19060084,6.399102e-09,6.399116e-09,6.3754566e-09,2.5478505e-06,2.5478503e-06,2.55133e-06,0.0,0.0,0.0,0.0,0.0,0.0,0.0,0.0,531,0.23499231,0.43657857,0.007831856,0.0,4.85553e-05,0.011427284,0.0,0.0,0.0,0.0,0,0,0,165,24,0,0,0
3380000,0.9790716,-0.008240929,-0.015889654,0.20272765,0.02728559,4.2746353e-05,-0.11554094,0.0043412913,-9.1552625e-05,-0.038147468,-2.087327e-08,-5.332786e-08,2.8776898e-07,3.8276353e-06,-1.9398249e-06,-1.0705908e-05,0.20321652,0.00909893,0.43535018,0.0,0.0,0.0,0.0,0.0,5.6475624e-10,2.4722216e-05,0.00029752098,1.7727018e-05,5.3323878e-05,5.3251824e-05,0.0004088287,0.07252106,0.07252272,0.37708765,0.021833552,0.021833606,0.18759097,6.3944943e-09,6.394521e-09,6.355521e-09,2.5251097e-06,2.5251074e-06,2.5384982e-06,0.0,0.0,0.0,0.0,0.0,0.0,0.0,0.0,531,0.20896688,0.43311775,0.00047339188,0.0,8.6256005e-05,0.008899885,0.0,0.0,0.0,0.0,0,0,0,165,24,0,0,0
3580000,0.97898394,-0.008381588,-0.016520802,0.20309404,0.035388503,0.0007912087,-0.1170915,0.0070068464,8.911397e-06,-0.03558309,-7.228092e-08,-1.5585508e-07,5.0690502e-08,9.4343795e-06,-4.2781585e-06,-2.3620261e-05,0.20321652,0.00909893,0.43535018,0.0,0.0,0.0,0.0,0.0,5.7219995e-10,2.3655459e-05,0.00029596873,1.5646761e-05,6.466749e-05,6.4598986e-05,0.00036053636,0.058124382,0.058126733,0.31681493,0.019837292,0.019837394,0.19248462,6.3822565e-09,6.382298e-09,6.3310504e-09,2.4842159e-06,2.4842088e-06,2.5203292e-06,0.0,0.0,0.0,0.0,0.0,0.0,0.0,0.0,531,0.19918504,0.4387307,0.015064891,0.0,0.00013409813,0.0014720147,0.0,0.0,0.0,0.0,0,0,0,165,24,0,0,0
3780000,0.97906864,-0.008356969,-0.017239371,0.20262675,0.04466555,0.00039341953,-0.119107895,0.009625896,0.00013298313,-0.03912982,-1.7268505e-07,-4.1460504e-07,4.0496766e-07,2.1851163e-05,-9.401597e-06,-3.623074e-05,0.20321652,0.00909893,0.43535018,0.0,0.0,0.0,0.0,0.0,6.336176e-10,2.4763529e-05,0.00028522089,1.3874086e-05,7.738255e-05,7.731528e-05,0.0003197696,0.052480306,0.052483615,0.25773388,0.01748951,0.017489662,0.18559743,6.349472e-09,6.349533e-09,6.2947088e-09,2.405523e-06,2.4055046e-06,2.4921317e-06,0.0,0.0,0.0,0.0,0.0,0.0,0.0,0.0,531,0.1870272,0.4308102,0.009141799,0.0,0.00019211846,0.017243251,0.0,0.0,0.0,0.0,0,0,0,165,24,0,0,0
3980000,0.97909164,-0.008318002,-0.017806062,0.2024686,0.051971097,0.00060202635,-0.13040426,0.01250796,0.00012661947,-0.048309147,-3.880957e-07,-9.41479e-07,6.605433e-07,4.373444e-05,-1.849744e-05,-4.794838e-05,0.20321652,0.00909893,0.43535018,0.0,0.0,0.0,0.0,0.0,6.7354755e-10,2.5629033e-05,0.00027901083,1.27387175e-05,9.088221e-05,9.081621e-05,0.00029322624,0.052357856,0.052361965,0.21168168,0.016166978,0.016167216,0.1766189,6.2802115e-09,6.280289e-09,6.2538064e-09,2.2833267e-06,2.283287e-06,2.455166e-06,0.0,0.0,0.0,0.0,0.0,0.0,0.0,0.0,531,0.17981711,0.42026052,0.01598062,0.0,0.00025866192,0.0035355925,0.0,0.0,0.0,0.0,0,0,0,165,24,0,0,0
4183999,0.97912157,-0.008432548,-0.018277302,0.20227677,0.05924236,0.0022563238,-0.13449894,0.01605148,0.0002256127,-0.0527165,-7.133266e-07,-1.7257935e-06,8.871242e-07,7.2009396e-05,-3.0208066e-05,-6.883991e-05,0.20321652,0.00909893,0.43535018,0.0,0.0,0.0,0.0,0.0,6.374454e-10,2.4540055e-05,0.00026811165,1.1711868e-05,0.00010480809,0.000104745806,0.00026941474,0.056186594,0.05619162,0.1828923,0.016728591,0.016728962,0.17543417,6.1726704e-09,6.172765e-09,6.1975545e-09,2.139195e-06,2.139125e-06,2.4143976e-06,0.0,0.0,0.0,0.0,0.0,0.0,0.0,0.0,531,0.18291406,0.41884863,0.010072745,0.0,0.00030767807,0.019372279,0.0,0.0,0.0,0.0,0,0,0,165,24,0,0,0
4384000,0.9791218,-0.008336178,-0.018682905,0.2022423,0.06553509,0.0029990089,-0.14297053,0.018194875,0.0005030644,-0.06049027,-1.243395e-06,-3.0215042e-06,8.30673e-07,0.00011285942,-4.6638575e-05,-8.872201e-05,0.20321652,0.00909893,0.43535018,0.0,0.0,0.0,0.0,0.0,6.4154015e-10,2.3999144e-05,0.00027882188,1.0915667e-05,0.00011762815,0.00011756813,0.00025109854,0.057137504,0.057143174,0.15787107,0.01636214,0.01636259,0.16507775,5.99091e-09,5.991011e-09,6.129917e-09,1.954495e-06,1.9543809e-06,2.3591804e-06,0.0,0.0,0.0,0.0,0.0,0.0,0.0,0.0,531,0.18089978,0.4062976,0.009203007,0.0,0.00036533817,0.008431772,0.0,0.0,0.0,0.0,0,0,0,165,24,0,0,0
4584000,0.9790413,-0.008315063,-0.018965093,0.20260644,0.06915813,0.0011754121,-0.13663676,0.019799087,0.00061101804,-0.049354926,-1.9310999e-06,-4.729959e-06,4.5607882e-07,0.00015873084,-6.430198e-05,-0.0001312453,0.20321652,0.00909893,0.43535018,0.0,0.0,0.0,0.0,0.0,6.599432e-10,2.4673293e-05,0.00028871596,1.03237235e-05,0.0001291527,0.00012909593,0.00023688149,0.056467604,0.056473143,0.14067525,0.01615232,0.016152821,0.15584144,5.750526e-09,5.75062e-09,6.050451e-09,1.773607e-06,1.773443e-06,2.293696e-06,0.0,0.0,0.0,0.0,0.0,0.0,0.0,0.0,531,0.17973632,0.39476758,0.034839824,0.0,0.00040942177,0.0092922775,0.0,0.0,0.0,0.0,0,0,0,165,24,0,0,0
4784000,0.9790187,-0.0081983255,-0.019113146,0.20270628,0.068228275,0.0005580545,-0.14584354,0.022066547,0.0003917239,-0.060061768,-2.6596044e-06,-6.519957e-06,3.6570054e-07,0.0002002769,-8.0874684e-05,-0.0001535518,0.20321652,0.00909893,0.43535018,0.0,0.0,0.0,0.0,0.0,6.496353e-10,2.5108659e-05,0.00028784943,9.959385e-06,0.00014042758,0.00014037272,0.00022823588,0.056580722,0.056585446,0.13229327,0.017028004,0.017028572,0.15370615,5.499556e-09,5.4996296e-09,5.9695706e-09,1.6349511e-06,1.6347456e-06,2.2260938e-06,0.0,0.0,0.0,0.0,0.0,0.0,0.0,0.0,531,0.18454424,0.39205375,0.0006104482,0.0,0.0004454934,0.0048760083,0.0,0.0,0.0,0.0,0,0,0,165,24,0,0,0
4984000,0.9789378,-0.0080435965,-0.01905108,0.20310856,0.06837434,0.0035625768,-0.15675326,0.021985756,0.00055536773,-0.07390861,-3.5788146e-06,-8.703834e-06,-6.1285095e-07,0.00024275325,-9.791024e-05,-0.00017555941,0.20321652,0.00909893,0.43535018,0.0,0.0,0.0,0.0,0.0,5.922082e-10,2.478045e-05,0.00030344838,9.579759e-06,0.00014938929,0.0001493383,0.00021948031,0.05274121,0.05274552,0.12418042,0.016603604,0.016604114,0.1465258,5.1919713e-09,5.192015e-09,5.8668297e-09,1.5152984e-06,1.5150551e-06,2.138495e-06,0.0,0.0,0.0,0.0,0.0,0.0,0.0,0.0,531,0.18222985,0.3827869,0.014369496,0.0,0.0004550829,0.0032619266,0.0,0.0,0.0,0.0,0,0,0,165,24,0,0,0
5184000,0.97899795,-0.007968507,-0.019045351,0.20282227,0.067608796,0.0066495305,-0.16416255,0.023210078,0.0008976196,-0.0838183,-4.375094e-06,-1.0740279e-05,-2.0113346e-07,0.00027447945,-0.000110149675,-0.00020964051,0.20321652,0.00909893,0.43535018,0.0,0.0,0.0,0.0,0.0,6.6210964e-10,2.5063933e-05,0.00028951082,9.371312e-06,0.00015864627,0.00015859731,0.00021482504,0.05062086,0.05062467,0.121367455,0.017139463,0.017139984,0.14571959,4.907825e-09,4.9078417e-09,5.765194e-09,1.4426379e-06,1.4423733e-06,2.0499606e-06,0.0,0.0,0.0,0.0,0.0,0.0,0.0,0.0,531,0.18514709,0.38173234,0.008221442,0.0,0.00045796743,0.00787597,0.0,0.0,0.0,0.0,0,0,0,165,24,0,0,0
5384000,0.9789528,-0.0078074466,-0.019014267,0.20304874,0.062598415,0.008735844,-0.17336117,0.022233136,0.0016738344,-0.095912546,-5.229938e-06,-1.305753e-05,-4.2516285e-07,0.00030217099,-0.000119887976,-0.00024517084,0.20321652,0.00909893,0.43535018,0.0,0.0,0.0,0.0,0.0,5.6262317e-10,2.3489629e-05,0.0002875269,9.156462e-06,0.00016559448,0.00016554711,0.00020948121,0.046001013,0.04600403,0.1173063,0.016402252,0.016402707,0.1405272,4.587527e-09,4.587515e-09,5.639898e-09,1.393588e-06,1.3933151e-06,1.9392626e-06,0.0,0.0,0.0,0.0,0.0,0.0,0.0,0.0,531,0.1811214,0.37486959,0.019657096,0.0,0.000459992,0.010920518,0.0,0.0,0.0,0.0,0,0,0,165,24,0,0,0
5584000,0.97885805,-0.0077931425,-0.018917639,0.20351486,0.06514343,0.009444482,-0.17023799,0.023081556,0.0024566976,-0.09645136,-5.919997e-06,-1.5085957e-05,-1.4924631e-06,0.0003186762,-0.00012447554,-0.0003009685,0.20321652,0.00909893,0.43535018,0.0,0.0,0.0,0.0,0.0,5.27353e-10,2.2733962e-05,0.0002825149,9.076006e-06,0.00017329423,0.00017324893,0.00020737997,0.043915812,0.043918863,0.11673187,0.016741095,0.016741548,0.14123634,4.307938e-09,4.307908e-09,5.5195417e-09,1.3713924e-06,1.3711254e-06,1.8325244e-06,0.0,0.0,0.0,0.0,0.0,0.0,0.0,0.0,531,0.18298262,0.37581423,0.01138478,0.0,0.0004558055,0.006258166,0.0,0.0,0.0,0.0,0,0,0,165,24,0,0,0
5784000,0.97890514,-0.007941763,-0.01870972,0.20330179,0.064279586,0.0086190775,-0.17277172,0.022562675,0.0027518328,-0.10262515,-6.610916e-06,-1.7404098e-05,-1.0170803e-06,0.00033029332,-0.000127411,-0.00034997312,0.20321652,0.00909893,0.43535018,0.0,0.0,0.0,0.0,0.0,5.664591e-10,2.3334038e-05,0.00028098965,8.938156e-06,0.00017825229,0.00017821084,0.00020422558,0.040166937,0.04016971,0.11382214,0.01593137,0.01593177,0.13758047,3.995385e-09,3.995337e-09,5.374475e-09,1.361481e-06,1.3612326e-06,1.703977e-06,0.0,0.0,0.0,0.0,0.0,0.0,0.0,0.0,531,0.17850249,0.37091842,0.0063468637,0.0,0.00045541985,0.012309647,0.0,0.0,0.0,0.0,0,0,0,165,24,0,0,0
5984000,0.97891563,-0.007850287,-0.018567301,0.20326783,0.062283315,0.009859189,-0.1688115,0.022209926,0.0029498958,-0.10346819,-7.2878925e-06,-1.9752082e-05,-8.354218e-07,0.00033402687,-0.00012771331,-0.00041017155,0.20321652,0.00909893,0.43535018,0.0,0.0,0.0,0.0,0.0,6.077123e-10,2.4580466e-05,0.0002653763,8.838836e-06,0.00018178743,0.00018174695,0.00020182917,0.03701869,0.037021354,0.11080361,0.0151610775,0.015161447,0.13445213,3.6849237e-09,3.6848584e-09,5.2203535e-09,1.359572e-06,1.3593503e-06,1.5693114e-06,0.0,0.0,0.0,0.0,0.0,0.0,0.0,0.0,531,0.17413364,0.36667717,0.0037576712,0.0,0.0004583002,0.005901059,0.0,0.0,0.0,0.0,0,0,0,165,24,0,0,0
6184000,0.97891784,-0.0077452776,-0.018411648,0.20327587,0.060977604,0.009202564,-0.17140254,0.023222622,0.0032332067,-0.11684141,-7.870199e-06,-2.1850248e-05,-7.637753e-07,0.00033189275,-0.00012661889,-0.00044766688,0.20321652,0.00909893,0.43535018,0.0,0.0,0.0,0.0,0.0,6.3932765e-10,2.4763049e-05,0.00028646176,8.846242e-06,0.00018576354,0.00018572314,0.0002019037,0.036050353,0.036052924,0.10992633,0.015413966,0.0154143665,0.13635072,3.41316e-09,3.4130838e-09,5.0770956e-09,1.3592551e-06,1.3590618e-06,1.4478258e-06,0.0,0.0,0.0,0.0,0.0,0.0,0.0,0.0,531,0.17558,0.36925697,0.009033495,0.0,0.00046908148,0.0047068414,0.0,0.0,0.0,0.0,0,0,0,165,24,0,0,0
6384000,0.9788717,-0.007542995,-0.018215086,0.20352265,0.05532769,0.007964316,-0.16329904,0.02197687,0.0031145813,-0.11789756,-8.51249e-06,-2.4166697e-05,-1.1155591e-06,0.00032315037,-0.00012338752,-0.0005069384,0.20321652,0.00909893,0.43535018,0.0,0.0,0.0,0.0,0.0,5.9710986e-10,2.4861938e-05,0.00029609323,8.796661e-06,0.0001860972,0.0001860567,0.0002004917,0.033866,0.033868145,0.10613338,0.014752439,0.014752794,0.13374497,3.1101264e-09,3.110032e-09,4.9098223e-09,1.3561487e-06,1.3559884e-06,1.3115095e-06,0.0,0.0,0.0,0.0,0.0,0.0,0.0,0.0,531,0.17177087,0.3657116,0.015415487,0.0,0.000453079,0.010861102,0.0,0.0,0.0,0.0,0,0,0,165,24,0,0,0
6584000,0.97885484,-0.0073115164,-0.017867425,0.20364347,0.05308675,0.009589323,-0.15829003,0.022094626,0.0032767663,-0.12030911,-9.06033e-06,-2.6160487e-05,-1.4515389e-06,0.00031098654,-0.000119348464,-0.0005599252,0.20321652,0.00909893,0.43535018,0.0,0.0,0.0,0.0,0.0,5.97466e-10,2.525842e-05,0.00029292787,8.828627e-06,0.00018659237,0.00018655209,0.00020125537,0.033395406,0.03339764,0.104139976,0.015017519,0.015017891,0.13567583,2.8431615e-09,2.843046e-09,4.7567434e-09,1.3483519e-06,1.3482195e-06,1.1928473e-06,0.0,0.0,0.0,0.0,0.0,0.0,0.0,0.0,531,0.17330727,0.368342,0.0115632545,0.0,0.00043777152,0.013605366,0.0,0.0,0.0,0.0,0,0,0,165,24,0,0,0
6784000,0.97885644,-0.0071261004,-0.01749692,0.20367457,0.04950726,0.011864006,-0.14531107,0.020756148,0.0036725209,-0.11858773,-9.606645e-06,-2.8326545e-05,-1.4389153e-06,0.0002934612,-0.00011412468,-0.0006167711,0.20321652,0.00909893,0.43535018,0.0,0.0,0.0,0.0,0.0,6.102735e-10,2.4707233e-05,0.00028231676,8.787987e-06,0.00018304319,0.00018300384,0.00020033725,0.03168753,0.031689838,0.09933594,0.014431588,0.01443195,0.13297033,2.549548e-09,2.549407e-09,4.581092e-09,1.3322409e-06,1.3321361e-06,1.0650962e-06,0.0,0.0,0.0,0.0,0.0,0.0,0.0,0.0,531,0.16989273,0.36465096,0.015029311,0.0,0.0004276046,0.012545529,0.0,0.0,0.0,0.0,0,0,0,165,24,0,0,0
6984000,0.97884095,-0.0070445132,-0.017284535,0.20376979,0.047430445,0.0181407,-0.13479751,0.020625593,0.004815832,-0.11485534,-9.9985255e-06,-3.0161958e-05,-1.6337985e-06,0.00027508487,-0.00010939652,-0.0006718509,0.20321652,0.00909893,0.43535018,0.0,0.0,0.0,0.0,0.0,5.976935e-10,2.4164672e-05,0.00028944717,8.835019e-06,0.00018012969,0.00018009052,0.00020140884,0.031487912,0.03149075,0.096425444,0.014761452,0.01476187,0.13468334,2.2988917e-09,2.2987279e-09,4.423175e-09,1.3111528e-06,1.311068e-06,9.585636e-07,0.0,0.0,0.0,0.0,0.0,0.0,0.0,0.0,531,0.17182352,0.3669923,0.0031694914,0.0,0.00040912573,0.019468103,0.0,0.0,0.0,0.0,0,0,0,165,24,0,0,0
7184000,0.97883964,-0.007110693,-0.016820326,0.20381258,0.044532306,0.02180439,-0.117447026,0.019307818,0.0060800696,-0.09816984,-1.0294591e-05,-3.2154734e-05,-2.203916e-06,0.0002515552,-0.000104841485,-0.0007411044,0.20321652,0.00909893,0.43535018,0.0,0.0,0.0,0.0,0.0,5.8153415e-10,2.413387e-05,0.00028133765,8.784935e-06,0.0001731629,0.0001731277,0.00020065524,0.03001446,0.030017504,0.09098243,0.014242518,0.014242963,0.13167198,2.028438e-09,2.0282565e-09,4.2443675e-09,1.2797668e-06,1.2796968e-06,8.471558e-07,0.0,0.0,0.0,0.0,0.0,0.0,0.0,0.0,531,0.16877642,0.36286634,0.005838786,0.0,0.0003900727,0.012790106,0.0,0.0,0.0,0.0,0,0,0,165,24,0,0,0
7384000,0.9788364,-0.0070735514,-0.016502842,0.20385529,0.041614156,0.023321636,-0.103798576,0.018107155,0.0071834433,-0.08944753,-1.0412582e-05,-3.4084933e-05,-2.2059005e-06,0.00022643001,-0.000102337974,-0.0007906736,0.20321652,0.00909893,0.43535018,0.0,0.0,0.0,0.0,0.0,6.4869426e-10,2.4367835e-05,0.00029280825,8.749606e-06,0.00016477583,0.00016474273,0.00019987197,0.02853721,0.028540269,0.085426636,0.013746629,0.013747103,0.12851323,1.7743513e-09,1.7741603e-09,4.0656887e-09,1.2413324e-06,1.2412688e-06,7.4565185e-07,0.0,0.0,0.0,0.0,0.0,0.0,0.0,0.0,531,0.16581233,0.35848743,0.0009439963,0.0,0.00037247993,0.01065228,0.0,0.0,0.0,0.0,0,0,0,165,24,0,0,0
7584000,0.97880477,-0.007165966,-0.016230915,0.20402552,0.040712416,0.021618485,-0.09488515,0.01806046,0.008059582,-0.084789135,-1.0447833e-05,-3.5687575e-05,-3.43759e-06,0.00020324117,-0.000101399666,-0.00082811585,0.20321652,0.00909893,0.43535018,0.0,0.0,0.0,0.0,0.0,6.2216904e-10,2.4228219e-05,0.00028980445,8.77315e-06,0.00015790116,0.00015787115,0.00020093098,0.028233772,0.028236767,0.081786245,0.014069679,0.014070212,0.12946059,1.5667055e-09,1.5665085e-09,3.9081947e-09,1.2029855e-06,1.2029226e-06,6.6434814e-07,0.0,0.0,0.0,0.0,0.0,0.0,0.0,0.0,531,0.1677495,0.35980633,0.016346475,0.0,0.0003649313,0.0055336026,0.0,0.0,0.0,0.0,0,0,0,165,24,0,0,0
7784000,0.97880715,-0.0072457655,-0.015731566,0.20405085,0.035561386,0.020616867,-0.09034434,0.016853308,0.008093978,-0.08549244,-1.0402565e-05,-3.7393107e-05,-3.4001268e-06,0.00017734703,-0.00010150489,-0.00085393875,0.20321652,0.00909893,0.43535018,0.0,0.0,0.0,0.0,0.0,6.2246375e-10,2.5194007e-05,0.00028489996,8.730817e-06,0.0001480087,0.00014798353,0.00020001031,0.026758708,0.026761409,0.07628994,0.013601425,0.013601939,0.1260366,1.353711e-09,1.3535058e-09,3.733218e-09,1.1565344e-06,1.156469e-06,5.823545e-07,0.0,0.0,0.0,0.0,0.0,0.0,0.0,0.0,531,0.16493443,0.35501635,0.010396555,0.0,0.00034659676,0.00558913,0.0,0.0,0.0,0.0,0,0,0,165,24,0,0,0
7984000,0.97881085,-0.0073075923,-0.01544133,0.20405267,0.03295798,0.01670979,-0.08238343,0.01636578,0.008230625,-0.081142716,-1.033463e-05,-3.8767277e-05,-3.6353367e-06,0.00015461474,-0.000102010075,-0.0008843309,0.20321652,0.00909893,0.43535018,0.0,0.0,0.0,0.0,0.0,5.9104827e-10,2.4882444e-05,0.0002758522,8.756499e-06,0.00013998385,0.00013996138,0.00020084888,0.026272416,0.026274793,0.072580084,0.0138805,0.013881034,0.12646045,1.182923e-09,1.1827074e-09,3.5803198e-09,1.1135344e-06,1.1134647e-06,5.1742126e-07,0.0,0.0,0.0,0.0,0.0,0.0,0.0,0.0,531,0.16661793,0.35561278,0.0071827043,0.0,0.0003256754,0.002688688,0.0,0.0,0.0,0.0,0,0,0,165,24,0,0,0
8184000,0.9787993,-0.0073555144,-0.0149533,0.20414323,0.02577589,0.016102437,-0.07798269,0.014553469,0.007592352,-0.07517667,-1.0259368e-05,-4.0121355e-05,-4.143506e-06,0.00013075428,-0.000102835955,-0.0009140192,0.20321652,0.00909893,0.43535018,0.0,0.0,0.0,0.0,0.0,5.3240734e-10,2.3388347e-05,0.00028215753,8.694441e-06,0.00012974872,0.00012973041,0.0001996962,0.024747811,0.024749808,0.06739599,0.01339404,0.013394518,0.12279338,1.0126188e-09,1.0123877e-09,3.4121446e-09,1.0650026e-06,1.0649268e-06,4.528902e-07,0.0,0.0,0.0,0.0,0.0,0.0,0.0,0.0,531,0.1636721,0.35041887,0.0038556391,0.0,0.0002990948,0.016978716,0.0,0.0,0.0,0.0,0,0,0,165,24,0,0,0
8384000,0.97880214,-0.007294903,-0.014584136,0.20415817,0.024761358,0.013533997,-0.07517965,0.013672387,0.007286405,-0.08063423,-1.0184578e-05,-4.1151627e-05,-4.5150327e-06,0.00011190748,-0.00010406247,-0.0009262276,0.20321652,0.00909893,0.43535018,0.0,0.0,0.0,0.0,0.0,4.813221e-10,2.2332139e-05,0.00028697215,8.705877e-06,0.000121789286,0.000121772966,0.00020026996,0.024147628,0.02414943,0.06390599,0.01364283,0.013643306,0.12286824,8.8009655e-10,8.7984936e-10,3.2666065e-09,1.0228568e-06,1.0227757e-06,4.0246616e-07,0.0,0.0,0.0,0.0,0.0,0.0,0.0,0.0,531,0.16518515,0.35052565,0.0035084717,0.0,0.00027283953,0.00023141915,0.0,0.0,0.0,0.0,0,0,0,165,24,0,0,0
8584000,0.97879153,-0.0072766924,-0.014167579,0.20423909,0.022147594,0.014427503,-0.06631041,0.012243006,0.0066482066,-0.07277001,-1.01025735e-05,-4.2141757e-05,-4.5002166e-06,9.266134e-05,-0.00010501921,-0.00095253426,0.20321652,0.00909893,0.43535018,0.0,0.0,0.0,0.0,0.0,5.265562e-10,2.2807357e-05,0.00028088255,8.6468e-06,0.00011234882,0.00011233492,0.00019883821,0.02264387,0.02264558,0.059248503,0.013163789,0.013164227,0.11916514,7.509462e-10,7.506799e-10,3.1078289e-09,9.776004e-07,9.775139e-07,3.5278373e-07,0.0,0.0,0.0,0.0,0.0,0.0,0.0,0.0,531,0.1622591,0.34520304,0.0025976684,0.0,0.00024788085,0.009617458,0.0,0.0,0.0,0.0,0,0,0,165,24,0,0,0
8784000,0.978804,-0.007332742,-0.013999589,0.20418897,0.021358067,0.01567657,-0.054679956,0.011046362,0.006406043,-0.059450485,-1.0012199e-05,-4.2981475e-05,-4.337027e-06,7.547645e-05,-0.00010607283,-0.0009819726,0.20321652,0.00909893,0.43535018,0.0,0.0,0.0,0.0,0.0,5.4671057e-10,2.3490256e-05,0.0002832894,8.578042e-06,0.0001036371,0.00010362432,0.00019730267,0.021238575,0.021240247,0.0549604,0.012724994,0.0127254,0.1156329,6.410952e-10,6.408131e-10,2.9548661e-09,9.353591e-07,9.352681e-07,3.0980428e-07,0.0,0.0,0.0,0.0,0.0,0.0,0.0,0.0,531,0.1595318,0.34004837,0.01616662,0.0,0.00022671721,0.009554268,0.0,0.0,0.0,0.0,0,0,0,165,24,0,0,0
8984000,0.9788273,-0.0073922863,-0.013744662,0.20409237,0.020643506,0.01587181,-0.053072758,0.010645934,0.0068105697,-0.0640311,-9.911917e-06,-4.364653e-05,-4.0304176e-06,6.185136e-05,-0.000107816886,-0.0009887753,0.20321652,0.00909893,0.43535018,0.0,0.0,0.0,0.0,0.0,5.9149236e-10,2.4218107e-05,0.00028892254,8.581616e-06,9.695927e-05,9.694808e-05,0.00019743838,0.020606244,0.020607831,0.05203867,0.012924858,0.012925284,0.11541669,5.5668187e-10,5.563905e-10,2.8237153e-09,9.001392e-07,9.000444e-07,2.7629815e-07,0.0,0.0,0.0,0.0,0.0,0.0,0.0,0.0,531,0.1607798,0.33973032,0.012850492,0.0,0.00021166744,0.0020696528,0.0,0.0,0.0,0.0,0,0,0,165,24,0,0,0
9184000,0.9788514,-0.007541301,-0.013550134,0.20398438,0.018334558,0.016173473,-0.053230867,0.009828318,0.0069327718,-0.06538312,-9.787462e-06,-4.4310174e-05,-3.8510843e-06,4.762399e-05,-0.00011015383,-0.0009982728,0.20321652,0.00909893,0.43535018,0.0,0.0,0.0,0.0,0.0,6.470633e-10,2.398221e-05,0.0003027875,8.496728e-06,8.941153e-05,8.9401976e-05,0.00019564242,0.019251026,0.01925242,0.048259333,0.012453825,0.012454223,0.111867286,4.754633e-10,4.7516774e-10,2.6818803e-09,8.636495e-07,8.6355067e-07,2.4334804e-07,0.0,0.0,0.0,0.0,0.0,0.0,0.0,0.0,531,0.15782283,0.33446568,0.0053830855,0.0,0.00020162592,0.0045703384,0.0,0.0,0.0,0.0,0,0,0,165,24,0,0,0
9384000,0.9788183,-0.0075369384,-0.013424383,0.20415185,0.015279124,0.01676263,-0.047620513,0.009333901,0.0073924535,-0.058808085,-9.664973e-06,-4.482662e-05,-3.7492384e-06,3.593435e-05,-0.00011242053,-0.001015093,0.20321652,0.00909893,0.43535018,0.0,0.0,0.0,0.0,0.0,5.8385824e-10,2.3107936e-05,0.00030203513,8.505418e-06,8.381423e-05,8.3805084e-05,0.00019548922,0.018654121,0.018655343,0.04570819,0.012627479,0.0126278745,0.11151937,4.1427542e-10,4.1398052e-10,2.561065e-09,8.3420093e-07,8.3409856e-07,2.1781076e-07,0.0,0.0,0.0,0.0,0.0,0.0,0.0,0.0,531,0.15891932,0.33394516,0.006140149,0.0,0.0001862702,0.022178203,0.0,0.0,0.0,0.0,0,0,0,165,24,0,0,0
9584000,0.9788366,-0.0074812677,-0.013202019,0.20408057,0.015237447,0.018946428,-0.033588216,0.008582164,0.0075631747,-0.03917841,-9.509745e-06,-4.5340515e-05,-3.5393607e-06,2.3771781e-05,-0.00011524662,-0.0010415477,0.20321652,0.00909893,0.43535018,0.0,0.0,0.0,0.0,0.0,6.1554944e-10,2.4477016e-05,0.00029992423,8.414709e-06,7.758264e-05,7.757425e-05,0.0001934634,0.01740534,0.017406564,0.042439967,0.012158421,0.012158782,0.10806533,3.5552786e-10,3.552375e-10,2.4308955e-09,8.040516e-07,8.0394597e-07,1.9264186e-07,0.0,0.0,0.0,0.0,0.0,0.0,0.0,0.0,531,0.15593974,0.3287329,0.0036432035,0.0,0.0001733221,0.014423817,0.0,0.0,0.0,0.0,0,0,0,165,24,0,0,0
9784000,0.9788583,-0.007729924,-0.012930244,0.20398463,0.014548763,0.019004388,-0.027526088,0.007962021,0.007969027,-0.032691665,-9.338523e-06,-4.5802262e-05,-3.39186e-06,1.2791698e-05,-0.00011891251,-0.0010529626,0.20321652,0.00909893,0.43535018,0.0,0.0,0.0,0.0,0.0,6.3038635e-10,2.5361738e-05,0.0002923473,8.31705e-06,7.200881e-05,7.200342e-05,0.00019135312,0.016241696,0.01624284,0.039440665,0.011702949,0.011703286,0.10473324,3.0605887e-10,3.0577718e-10,2.3068594e-09,7.7698866e-07,7.768802e-07,1.7077822e-07,0.0,0.0,0.0,0.0,0.0,0.0,0.0,0.0,531,0.15299097,0.32362515,0.0037905073,0.0,0.00016325724,0.005574361,0.0,0.0,0.0,0.0,0,0,0,165,24,0,0,0
9984000,0.97889495,-0.0076948325,-0.012848415,0.20381479,0.0098166205,0.01897609,-0.02496352,0.007415709,0.008355438,-0.03342485,-9.168451e-06,-4.617763e-05,-2.746069e-06,4.0191403e-06,-0.00012250403,-0.0010569458,0.20321652,0.00909893,0.43535018,0.0,0.0,0.0,0.0,0.0,6.1529043e-10,2.491588e-05,0.00029043126,8.298735e-06,6.7930276e-05,6.7924855e-05,0.00019085318,0.015717426,0.01571835,0.03741353,0.011831283,0.011831614,0.104263164,2.6895863e-10,2.6868666e-10,2.201824e-09,7.5551304e-07,7.554024e-07,1.538063e-07,0.0,0.0,0.0,0.0,0.0,0.0,0.0,0.0,531,0.15382749,0.32289806,0.011498764,0.0,0.00016807178,9.9397635e-05,0.0,0.0,0.0,0.0,0,0,0,165,24,0,0,0
10184000,0.97893417,-0.007868633,-0.0127994595,0.20362268,0.007806037,0.015553938,-0.026431808,0.0063834274,0.008270913,-0.036206234,-8.983697e-06,-4.653192e-05,-2.490976e-06,-4.6252985e-06,-0.0001268543,-0.0010586755,0.20321652,0.00909893,0.43535018,0.0,0.0,0.0,0.0,0.0,5.8001454e-10,2.444821e-05,0.0002897435,8.190129e-06,6.348433e-05,6.347993e-05,0.00018858825,0.014717291,0.014718005,0.034855004,0.011402016,0.01140231,0.10110838,2.334936e-10,2.3323354e-10,2.0892825e-09,7.338774e-07,7.33765e-07,1.3705792e-07,0.0,0.0,0.0,0.0,0.0,0.0,0.0,0.0,531,0.151011,0.31797543,0.0016324392,0.0,0.00016931444,0.0053118155,0.0,0.0,0.0,0.0,0,0,0,165,24,0,0,0
10384000,0.97899157,-0.008042085,-0.012635424,0.20334986,0.0070484933,0.014135051,-0.020839237,0.0057194754,0.008172909,-0.027729962,-8.820431e-06,-4.6801975e-05,-2.0215518e-06,-1.1394172e-05,-0.00013044108,-0.0010692171,0.20321652,0.00909893,0.43535018,0.0,0.0,0.0,0.0,0.0,5.7235744e-10,2.4055731e-05,0.0002920782,8.149695e-06,6.0203085e-05,6.0200367e-05,0.00018789865,0.014251518,0.014252141,0.03310955,0.0115051875,0.011505462,0.10057084,2.0664678e-10,2.0639736e-10,1.9941204e-09,7.166416e-07,7.16528e-07,1.2397275e-07,0.0,0.0,0.0,0.0,0.0,0.0,0.0,0.0,531,0.15169261,0.31712908,0.009830742,0.0,0.00016261738,0.0006871355,0.0,0.0,0.0,0.0,0,0,0,165,24,0,0,0
10584000,0.97908103,-0.00808086,-0.012574173,0.20292127,0.0052473866,0.013547008,-0.02105076,0.0046660956,0.0076756426,-0.032410983,-8.633856e-06,-4.7068505e-05,-8.72069e-07,-1.7634124e-05,-0.00013448033,-0.001068737,0.20321652,0.00909893,0.43535018,0.0,0.0,0.0,0.0,0.0,5.5934546e-10,2.4117946e-05,0.0002955103,8.043268e-06,5.664519e-05,5.6642697e-05,0.00018550034,0.013370069,0.013370566,0.030919949,0.011090512,0.011090742,0.09756838,1.8094704e-10,1.8070925e-10,1.89243e-09,6.993462e-07,6.992324e-07,1.1103465e-07,0.0,0.0,0.0,0.0,0.0,0.0,0.0,0.0,531,0.14893372,0.31235936,0.0056629917,0.0,0.00015703712,0.0007837202,0.0,0.0,0.0,0.0,0,0,0,165,24,0,0,0
10784000,0.97916234,-0.008106121,-0.012373448,0.20253979,0.009160239,0.010606604,-0.018798955,0.0045553213,0.0073447265,-0.03402729,-8.485922e-06,-4.72662e-05,-2.9063044e-08,-2.2406908e-05,-0.00013775523,-0.0010703974,0.20321652,0.00909893,0.43535018,0.0,0.0,0.0,0.0,0.0,6.13013e-10,2.4525698e-05,0.00029703302,7.997822e-06,5.4058415e-05,5.405687e-05,0.00018465662,0.012983269,0.012983811,0.029438863,0.011196367,0.01119659,0.09705056,1.6156274e-10,1.6133507e-10,1.8067137e-09,6.856945e-07,6.855805e-07,1.0092741e-07,0.0,0.0,0.0,0.0,0.0,0.0,0.0,0.0,531,0.14964277,0.3115294,0.0050110607,0.0,0.0001467836,0.0019899444,0.0,0.0,0.0,0.0,0,0,0,165,24,0,0,0
10984000,0.97920984,-0.008124726,-0.012406134,0.20230716,0.005844961,0.0058603594,-0.013873361,0.00429134,0.0063514393,-0.029662717,-8.357632e-06,-4.745292e-05,4.0249282e-07,-2.7271915e-05,-0.00014078652,-0.0010757518,0.20321652,0.00909893,0.43535018,0.0,0.0,0.0,0.0,0.0,5.7772104e-10,2.3410526e-05,0.00028467336,7.881923e-06,5.1229843e-05,5.1227824e-05,0.00018218039,0.0122246165,0.012224851,0.027570404,0.010806871,0.010807061,0.09422723,1.4283796e-10,1.4262129e-10,1.7152054e-09,6.719404e-07,6.718271e-07,9.087584e-08,0.0,0.0,0.0,0.0,0.0,0.0,0.0,0.0,531,0.14701678,0.30696455,0.0077034486,0.0,0.0001288159,0.00801617,0.0,0.0,0.0,0.0,0,0,0,165,24,0,0,0
11184000,0.97954243,-0.008300934,-0.012345559,0.20068732,0.00060766377,-0.010044365,-4.6120695e-06,3.0663905e-06,-0.0003223969,-0.021065645,-8.293943e-06,-4.7561745e-05,1.12363296e-07,-3.0498895e-05,-0.00014262526,-0.0010829757,0.20579772,0.009214502,0.43480214,0.0,0.0,0.0,0.0,0.0,5.658968e-10,2.3650175e-05,0.00029017578,6.757739e-05,5.054487e-05,5.0401508e-05,0.0016158285,0.05006169,0.050061706,0.056281384,0.5000512,0.5000512,0.089072645,1.3026016e-10,1.3004235e-10,1.6762234e-09,6.6231655e-07,6.6220207e-07,8.210665e-08,0.0,0.0,0.0,0.0,0.0,0.0,0.0,0.0,535,1.0000511,0.2984504,0.014991629,0.0,0.0,0.025592165,0.0,0.0,0.0,0.0,0,0,0,831,24,0,0,0
11384000,0.9794516,-0.008315695,-0.01226495,0.20113467,0.00038697923,-0.011439211,-0.0011994094,-0.0002776529,-0.0014630452,-0.02025163,-8.28884e-06,-4.7559457e-05,1.1200274e-07,-3.0131927e-05,-0.00014347593,-0.0010839337,0.20579772,0.009214502,0.43480214,0.0,0.0,0.0,0.0,0.0,6.1498895e-10,2.4908086e-05,0.0002800594,4.2312695e-05,5.045338e-05,5.0354793e-05,0.0010110228,0.042943757,0.042943753,0.05124185,0.33451608,0.33451608,0.07806571,1.3033102e-10,1.3011306e-10,1.6762359e-09,6.614236e-07,6.613068e-07,7.6251624e-08,0.0,0.0,0.0,0.0,0.0,0.0,0.0,0.0,535,0.8179439,0.2794024,0.005374933,0.010611638,0.00037604384,0.0123988725,0.0,0.0,0.0,0.0,0,0,0,831,24,0,0,0
11584000,0.9792244,-0.0082782535,-0.012400911,0.20223096,0.0015628276,-0.011779183,0.0014321662,0.00042289382,-0.0023157997,-0.015537113,-8.284122e-06,-4.7566413e-05,7.3500715e-08,-3.1535e-05,-0.00014441942,-0.0010867849,0.20579772,0.009214502,0.43480214,0.0,0.0,0.0,0.0,0.0,5.9802724e-10,2.5158235e-05,0.0002858789,2.978582e-05,5.0153896e-05,5.0072802e-05,0.0007118343,0.03929067,0.039290622,0.046647143,0.25295487,0.25295487,0.0713885,1.3033377e-10,1.3011531e-10,1.6760244e-09,6.5842454e-07,6.5830665e-07,7.148564e-08,0.0,0.0,0.0,0.0,0.0,0.0,0.0,0.0,535,0.7112733,0.26718625,0.010536002,0.0053103687,0.00061100157,0.0009799064,0.0,0.0,0.0,0.0,0,0,0,831,24,0,0,0
11784000,0.97929966,-0.008359369,-0.012226602,0.20187367,-0.00084948837,-0.011079232,0.0020092502,-0.002473817,-0.003058489,-0.016035087,-8.271346e-06,-4.756284e-05,9.4309435e-08,-3.0810777e-05,-0.00014662316,-0.0010859795,0.20579772,0.009214502,0.43480214,0.0,0.0,0.0,0.0,0.0,5.6641175e-10,2.5243622e-05,0.00028569487,2.3582512e-05,4.9525563e-05,4.945845e-05,0.0005641266,0.03779928,0.037799206,0.042409956,0.20505542,0.20505542,0.06928702,1.3025839e-10,1.3003898e-10,1.6755752e-09,6.527121e-07,6.5259434e-07,6.8340405e-08,0.0,0.0,0.0,0.0,0.0,0.0,0.0,0.0,535,0.640399,0.26322427,0.0020143567,0.0050691334,0.0020859316,0.0043658,0.0,0.0,0.0,0.0,0,0,0,831,24,0,0,0
11984000,0.97934043,-0.008316579,-0.012112616,0.2016842,-0.0007646582,-0.010502259,0.004806987,-0.0022261306,-0.004265216,-0.005491296,-8.271303e-06,-4.7566282e-05,9.929344e-08,-3.1509648e-05,-0.00014654238,-0.0010910991,0.20579772,0.009214502,0.43480214,0.0,0.0,0.0,0.0,0.0,5.43514e-10,2.460647e-05,0.00027661686,1.9115756e-05,4.8538343e-05,4.8479586e-05,0.0004578188,0.03763953,0.03763948,0.03824863,0.17407031,0.17407031,0.06777936,1.3011327e-10,1.2989253e-10,1.6746647e-09,6.441691e-07,6.440522e-07,6.568103e-08,0.0,0.0,0.0,0.0,0.0,0.0,0.0,0.0,535,0.5900344,0.26034468,0.0035935072,0.0012075618,0.00088321685,0.008895827,0.0,0.0,0.0,0.0,0,0,0,831,24,0,0,0
12184000,0.9793845,-0.008216621,-0.012173578,0.2014704,-0.0001651634,-0.012869014,0.007684462,-0.0020048965,-0.0046354574,0.002911455,-8.257374e-06,-4.7572852e-05,1.18406305e-07,-3.275034e-05,-0.00014909866,-0.0010939337,0.20579772,0.009214502,0.43480214,0.0,0.0,0.0,0.0,0.0,6.384409e-10,2.5906356e-05,0.0002938576,1.6398248e-05,4.7232483e-05,4.717702e-05,0.00039277022,0.038216505,0.038216628,0.034507472,0.15282094,0.15282094,0.06838626,1.2992007e-10,1.2969759e-10,1.6734494e-09,6.331079e-07,6.3299234e-07,6.390143e-08,0.0,0.0,0.0,0.0,0.0,0.0,0.0,0.0,535,0.5528489,0.26150766,0.0031688123,0.0053923954,0.0011719345,0.020987753,0.0,0.0,0.0,0.0,0,0,0,831,24,0,0,0
12384000,0.97946715,-0.008125955,-0.012341703,0.20106192,0.0021610572,-0.011126313,0.011022083,-0.0007490801,-0.0051104566,0.0081234295,-8.24534e-06,-4.758892e-05,1.9524059e-07,-3.56785e-05,-0.00015110824,-0.0010948655,0.20579772,0.009214502,0.43480214,0.0,0.0,0.0,0.0,0.0,6.047014e-10,2.4835303e-05,0.00028350536,1.4156566e-05,4.568563e-05,4.5632947e-05,0.00033908605,0.03908366,0.039084014,0.030814035,0.13770266,0.13770269,0.068224594,1.297066e-10,1.2948223e-10,1.6715033e-09,6.2016255e-07,6.2004773e-07,6.239518e-08,0.0,0.0,0.0,0.0,0.0,0.0,0.0,0.0,535,0.52479076,0.26119837,0.008549165,0.0056553367,0.0012923046,0.0065478426,0.0,0.0,0.0,0.0,0,0,0,831,24,0,0,0
12584000,0.97937757,-0.008218084,-0.012364635,0.20149277,0.0047340337,-0.0036858728,0.010629363,-0.00039938538,-0.0052526076,0.007919241,-8.241377e-06,-4.7585392e-05,6.4188285e-08,-3.554081e-05,-0.00015265091,-0.0010941646,0.20579772,0.009214502,0.43480214,0.0,0.0,0.0,0.0,0.0,6.497223e-10,2.5121093e-05,0.00029135268,1.2474004e-05,4.400416e-05,4.3957047e-05,0.00029889398,0.039936464,0.03993715,0.02740449,0.12668963,0.12668966,0.0681262,1.2950091e-10,1.2927467e-10,1.6688695e-09,6.061309e-07,6.060168e-07,6.128297e-08,0.0,0.0,0.0,0.0,0.0,0.0,0.0,0.0,535,0.50336796,0.26100996,0.018156983,0.0020727331,0.0012112973,0.0043176142,0.0,0.0,0.0,0.0,0,0,0,831,24,0,0,0
12784000,0.9793696,-0.00823596,-0.012397178,0.20152897,0.002920995,-0.0019319678,0.012955852,-8.9069545e-05,-0.0048063695,0.013995165,-8.2380875e-06,-4.758256e-05,3.1671053e-08,-3.5090485e-05,-0.00015355634,-0.0010957973,0.20579772,0.009214502,0.43480214,0.0,0.0,0.0,0.0,0.0,6.6356e-10,2.5666859e-05,0.00029569634,1.1312576e-05,4.2299678e-05,4.225526e-05,0.00027117066,0.04057675,0.04057746,0.02455184,0.118542224,0.1185423,0.06911827,1.2932626e-10,1.2909793e-10,1.6659035e-09,5.9181605e-07,5.9170213e-07,6.053994e-08,0.0,0.0,0.0,0.0,0.0,0.0,0.0,0.0,535,0.48691326,0.26290354,0.0024053205,0.01137,0.0010639853,0.012673661,0.0,0.0,0.0,0.0,0,0,0,831,24,0,0,0
12984000,0.97940105,-0.008143224,-0.012344641,0.20138222,0.0017965987,-0.0033340228,0.009362369,9.9346085e-05,-0.00552168,0.008900203,-8.242827e-06,-4.757892e-05,4.167991e-08,-3.4094817e-05,-0.00015231222,-0.0010940363,0.20579772,0.009214502,0.43480214,0.0,0.0,0.0,0.0,0.0,6.307656e-10,2.6178139e-05,0.0002788096,1.02503745e-05,4.066038e-05,4.062005e-05,0.00024593578,0.04091333,0.040914193,0.021793298,0.112451226,0.11245129,0.0687217,1.2919668e-10,1.2896716e-10,1.6617511e-09,5.779067e-07,5.777922e-07,5.99096e-08,0.0,0.0,0.0,0.0,0.0,0.0,0.0,0.0,535,0.47423887,0.26214823,0.0022284137,0.0028908805,0.0009542825,0.0026381742,0.0,0.0,0.0,0.0,0,0,0,831,24,0,0,0
13184000,0.9794134,-0.0081533315,-0.012337602,0.20132245,0.004381355,0.0012983109,0.012740321,0.00026596707,-0.003839737,0.01480466,-8.233809e-06,-4.758606e-05,7.8394514e-08,-3.592719e-05,-0.0001544433,-0.0010949639,0.20579772,0.009214502,0.43480214,0.0,0.0,0.0,0.0,0.0,5.818641e-10,2.408888e-05,0.00027322123,9.505578e-06,3.9159153e-05,3.912151e-05,0.00022795745,0.040909816,0.04091091,0.01957176,0.107863076,0.10786319,0.06928062,1.2911955e-10,1.2888841e-10,1.6572858e-09,5.6490313e-07,5.647872e-07,5.948064e-08,0.0,0.0,0.0,0.0,0.0,0.0,0.0,0.0,535,0.4644634,0.2632121,0.01041444,0.006115197,0.0022341462,0.0057364744,0.0,0.0,0.0,0.0,0,0,0,831,24,0,0,0
13384000,0.97945464,-0.008236236,-0.012296277,0.201121,0.005298521,0.005136986,0.011544567,0.0002853933,-0.0020177849,0.014652611,-8.226083e-06,-4.7585345e-05,1.3249183e-07,-3.5323585e-05,-0.00015642555,-0.0010945403,0.20579772,0.009214502,0.43480214,0.0,0.0,0.0,0.0,0.0,6.0653227e-10,2.3949277e-05,0.00027526706,8.791843e-06,3.783612e-05,3.7801343e-05,0.00021096054,0.040600177,0.040601544,0.017450545,0.10438649,0.10438664,0.06841849,1.2909306e-10,1.2886067e-10,1.6513093e-09,5.531227e-07,5.530048e-07,5.910497e-08,0.0,0.0,0.0,0.0,0.0,0.0,0.0,0.0,535,0.456917,0.2615693,0.0037736644,0.0028456834,0.0006636649,0.0019272726,0.0,0.0,0.0,0.0,0,0,0,831,24,0,0,0
13584000,0.97942454,-0.008247892,-0.012332331,0.20126475,0.007559444,0.005047658,0.00992056,0.0003847786,-0.001560207,0.011894172,-8.228461e-06,-4.7579193e-05,7.457293e-08,-3.3494896e-05,-0.00015605029,-0.0010937983,0.20579772,0.009214502,0.43480214,0.0,0.0,0.0,0.0,0.0,6.3365063e-10,2.4919163e-05,0.000286856,8.288878e-06,3.671353e-05,3.6680372e-05,0.00019870518,0.04002471,0.04002639,0.015809923,0.10173922,0.101739414,0.06853753,1.2911153e-10,1.2887824e-10,1.6451277e-09,5.4271356e-07,5.425939e-07,5.8832967e-08,0.0,0.0,0.0,0.0,0.0,0.0,0.0,0.0,535,0.45108607,0.26179674,0.0025298998,0.0029783526,0.0002584036,0.0008986702,0.0,0.0,0.0,0.0,0,0,0,831,24,0,0,0
13784000,0.979397,-0.008297603,-0.012359633,0.20139527,0.007449691,0.0012320955,0.008721985,0.0021887093,-0.002599876,0.012308141,-8.23711e-06,-4.7574307e-05,-9.378956e-08,-3.2947442e-05,-0.00015370983,-0.0010935495,0.20579772,0.009214502,0.43480214,0.0,0.0,0.0,0.0,0.0,5.999163e-10,2.3864812e-05,0.0002808374,7.785721e-06,3.579377e-05,3.5762372e-05,0.00018676232,0.03924448,0.039246198,0.0142554855,0.09971402,0.09971426,0.06730544,1.2916422e-10,1.2893053e-10,1.6370868e-09,5.337032e-07,5.335814e-07,5.8575186e-08,0.0,0.0,0.0,0.0,0.0,0.0,0.0,0.0,535,0.44657394,0.2594329,0.0024477798,0.0052809236,0.0003281311,0.007420067,0.0,0.0,0.0,0.0,0,0,0,831,24,0,0,0
13984000,0.9793682,-0.008323618,-0.01240026,0.20153138,0.010628775,-0.002943261,0.013444794,0.005014512,-0.005933836,0.014674041,-8.244628e-06,-4.757122e-05,-2.1777369e-07,-3.2932476e-05,-0.00015017527,-0.0010935356,0.20579772,0.009214502,0.43480214,0.0,0.0,0.0,0.0,0.0,6.0398603e-10,2.5071708e-05,0.0002840722,7.369914e-06,3.5071655e-05,3.5041696e-05,0.00017672207,0.038303055,0.038304858,0.012955273,0.098157875,0.09815817,0.06595659,1.2923967e-10,1.2900603e-10,1.6278567e-09,5.26027e-07,5.2590303e-07,5.834412e-08,0.0,0.0,0.0,0.0,0.0,0.0,0.0,0.0,535,0.44307566,0.25682014,0.012102686,0.0075094304,0.00094877963,0.015519856,0.0,0.0,0.0,0.0,0,0,0,831,24,0,0,0
14184000,0.979362,-0.008247306,-0.012325044,0.20156932,0.012744744,-0.0040738517,0.012437977,0.0048851287,-0.005429861,0.014210603,-8.244267e-06,-4.756942e-05,-2.5513842e-07,-3.115783e-05,-0.00015186908,-0.0010931997,0.20579772,0.009214502,0.43480214,0.0,0.0,0.0,0.0,0.0,5.514657e-10,2.3877028e-05,0.0002682572,7.0748547e-06,3.453149e-05,3.450302e-05,0.00016956471,0.03727188,0.037273966,0.01201718,0.09695531,0.096955635,0.06561607,1.2932616e-10,1.2909286e-10,1.6186492e-09,5.1958665e-07,5.194605e-07,5.813992e-08,0.0,0.0,0.0,0.0,0.0,0.0,0.0,0.0,535,0.4403532,0.25615636,0.014340277,0.00554269,0.0013824895,0.0025394554,0.0,0.0,0.0,0.0,0,0,0,831,24,0,0,0
14384000,0.979426,-0.008345245,-0.012185829,0.20126258,0.011864906,-0.004490832,0.010750905,0.0048914854,-0.0070774024,0.013287837,-8.240695e-06,-4.757376e-05,-1.0586048e-07,-2.9036513e-05,-0.00015198931,-0.0010927981,0.20579772,0.009214502,0.43480214,0.0,0.0,0.0,0.0,0.0,5.366259e-10,2.4347075e-05,0.00028254854,6.763352e-06,3.4155917e-05,3.4129553e-05,0.00016227212,0.036184926,0.036187008,0.011138896,0.0960205,0.09602092,0.06412917,1.2940947e-10,1.2917703e-10,1.6070814e-09,5.1425263e-07,5.141243e-07,5.791171e-08,0.0,0.0,0.0,0.0,0.0,0.0,0.0,0.0,535,0.43822533,0.25323737,0.0019216761,0.005322723,0.001376467,0.0046437182,0.0,0.0,0.0,0.0,0,0,0,831,24,0,0,0
14584000,0.9794811,-0.008344556,-0.012048438,0.2010027,0.0152508,-0.003980714,0.011675812,0.0047427355,-0.0066655823,0.019871106,-8.237546e-06,-4.7581238e-05,9.353372e-08,-2.7477621e-05,-0.00015321266,-0.0010932705,0.20579772,0.009214502,0.43480214,0.0,0.0,0.0,0.0,0.0,5.4550525e-10,2.4159652e-05,0.00030139418,6.5507147e-06,3.392672e-05,3.3902073e-05,0.00015720498,0.035074238,0.035076614,0.010549455,0.09528783,0.09528831,0.06363716,1.2947836e-10,1.292471e-10,1.595711e-09,5.0989235e-07,5.097619e-07,5.768313e-08,0.0,0.0,0.0,0.0,0.0,0.0,0.0,0.0,535,0.43655026,0.25226405,0.013656725,0.0057537626,0.0014736637,0.002767264,0.0,0.0,0.0,0.0,0,0,0,831,24,0,0,0
14784000,0.97945416,-0.008372958,-0.012066521,0.2011317,0.015400218,-0.002724602,0.007483111,0.007823709,-0.0061495528,0.014718231,-8.238359e-06,-4.7577145e-05,3.7499653e-08,-2.8035509e-05,-0.0001535204,-0.0010922417,0.20579772,0.009214502,0.43480214,0.0,0.0,0.0,0.0,0.0,6.022289e-10,2.3970333e-05,0.0002988714,6.3365387e-06,3.3825672e-05,3.3802004e-05,0.00015183723,0.03396959,0.03397178,0.010000713,0.09470774,0.094708286,0.062127396,1.2951862e-10,1.2928904e-10,1.5816732e-09,5.063754e-07,5.0624277e-07,5.741125e-08,0.0,0.0,0.0,0.0,0.0,0.0,0.0,0.0,535,0.4352195,0.24925368,0.0041468195,0.0023782433,0.0013696539,0.0026010224,0.0,0.0,0.0,0.0,0,0,0,831,24,0,0,0
14984000,0.97944444,-0.008284554,-0.012187588,0.20117556,0.017125415,0.00063704804,0.0075055882,0.012170352,-0.004235619,0.011894368,-8.243551e-06,-4.7563033e-05,-1.2835847e-07,-2.9511033e-05,-0.00015410445,-0.0010914247,0.20579772,0.009214502,0.43480214,0.0,0.0,0.0,0.0,0.0,5.5499316e-10,2.4758141e-05,0.00029431633,6.187044e-06,3.3836353e-05,3.381278e-05,0.00014828885,0.03288289,0.032884948,0.0096846735,0.09424202,0.094242625,0.06161136,1.2951999e-10,1.2929233e-10,1.5681169e-09,5.03576e-07,5.0344147e-07,5.712184e-08,0.0,0.0,0.0,0.0,0.0,0.0,0.0,0.0,535,0.43414816,0.24821636,0.0041882475,0.0056182817,0.0019774693,0.009494034,0.0,0.0,0.0,0.0,0,0,0,831,24,0,0,0
15184000,0.9794438,-0.008232559,-0.01200338,0.2011917,0.017068282,-0.0026138811,0.008062877,0.0116633475,-0.005271567,0.007963733,-8.243689e-06,-4.75755e-05,-1.8237478e-07,-2.7656297e-05,-0.00015424985,-0.0010908057,0.20579772,0.009214502,0.43480214,0.0,0.0,0.0,0.0,0.0,5.50031e-10,2.4061435e-05,0.0002965317,6.025179e-06,3.394167e-05,3.3919383e-05,0.00014434912,0.031834695,0.03183686,0.009389368,0.093861,0.093861654,0.060180567,1.2946867e-10,1.2924338e-10,1.5515922e-09,5.0138067e-07,5.012441e-07,5.677061e-08,0.0,0.0,0.0,0.0,0.0,0.0,0.0,0.0,535,0.4332697,0.24531728,0.004776232,0.006933974,0.0028948204,0.007493319,0.0,0.0,0.0,0.0,0,0,0,831,24,0,0,0
15384000,0.97947216,-0.008170897,-0.01191293,0.20106125,0.019998673,-4.2554533e-05,0.007962125,0.015384038,-0.0055817324,0.004804896,-8.238859e-06,-4.757993e-05,1.7020891e-08,-2.766507e-05,-0.00015424615,-0.0010900457,0.20579772,0.009214502,0.43480214,0.0,0.0,0.0,0.0,0.0,5.1368754e-10,2.4139317e-05,0.000287459,5.8897886e-06,3.5022873e-05,3.5000714e-05,0.00014099485,0.036627397,0.03663028,0.009348469,0.10922254,0.10922395,0.059401758,1.2956071e-10,1.2933672e-10,1.5337566e-09,5.013821e-07,5.01245e-07,5.6570116e-08,0.0,0.0,0.0,0.0,0.0,0.0,0.0,0.0,535,0.4673826,0.24372476,0.015980616,0.006933974,0.0028948204,0.0066577713,0.0,0.0,0.0,0.0,0,0,0,831,24,0,0,0
15584000,0.9794018,-0.008183041,-0.0117647685,0.20141184,0.01748724,-0.00344352,0.010306619,0.015733749,-0.0054005748,0.0045665847,-8.252784e-06,-4.758165e-05,-4.3505102e-07,-2.6551752e-05,-0.00015479833,-0.0010893862,0.20579772,0.009214502,0.43480214,0.0,0.0,0.0,0.0,0.0,5.388426e-10,2.4752346e-05,0.0002791482,5.815353e-06,3.511772e-05,3.5096902e-05,0.00013903451,0.03481486,0.034817487,0.009314016,0.10765463,0.10765604,0.058970813,1.293837e-10,1.2916299e-10,1.5168501e-09,4.996248e-07,4.9948574e-07,5.6138205e-08,0.0,0.0,0.0,0.0,0.0,0.0,0.0,0.0,535,0.4640158,0.24283907,0.026191356,0.0073991683,0.0032070752,0.010411662,0.0,0.0,0.0,0.0,0,0,0,831,24,0,0,0
15784000,0.97938234,-0.008161095,-0.011628303,0.20151569,0.019165648,-0.003605268,0.007513578,0.016256262,-0.006749653,0.008162022,-8.251112e-06,-4.758999e-05,-5.576549e-07,-2.5723068e-05,-0.00015480415,-0.0010895695,0.20579772,0.009214502,0.43480214,0.0,0.0,0.0,0.0,0.0,5.115505e-10,2.3882567e-05,0.00028215887,5.7189345e-06,3.5314937e-05,3.529511e-05,0.00013658717,0.033264387,0.033266943,0.009273307,0.10630147,0.106302865,0.05775248,1.2912918e-10,1.2891199e-10,1.4966334e-09,4.9834586e-07,4.982046e-07,5.5615715e-08,0.0,0.0,0.0,0.0,0.0,0.0,0.0,0.0,535,0.4610904,0.24031745,0.005320765,0.0029572365,0.0032186247,0.010930966,0.0,0.0,0.0,0.0,0,0,0,831,24,0,0,0
15984000,0.9793561,-0.00832222,-0.0114190085,0.20164791,0.01510629,-0.004421463,0.011446297,0.01321217,-0.00781699,0.011076521,-8.265282e-06,-4.7622656e-05,-7.7120006e-07,-2.4117555e-05,-0.00015537546,-0.0010899794,0.20579772,0.009214502,0.43480214,0.0,0.0,0.0,0.0,0.0,5.530031e-10,2.4232218e-05,0.00028162426,5.672357e-06,3.5589295e-05,3.5570898e-05,0.00013536078,0.031909198,0.031911477,0.009369018,0.10512157,0.10512297,0.057464037,1.2878741e-10,1.2857393e-10,1.4776437e-09,4.97436e-07,4.972928e-07,5.5055747e-08,0.0,0.0,0.0,0.0,0.0,0.0,0.0,0.0,535,0.45852432,0.23971657,0.014114976,0.011621192,0.003357998,0.0019482694,0.0,0.0,0.0,0.0,0,0,0,831,24,0,0,0
16183999,0.97936493,-0.008396546,-0.011360005,0.20160553,0.015102421,0.001740922,0.012469171,0.0123021575,-0.0021315687,0.012497596,-8.317924e-06,-4.7625013e-05,-8.285625e-07,-2.3839186e-05,-0.00015687475,-0.0010903105,0.20579772,0.009214502,0.43480214,0.0,0.0,0.0,0.0,0.0,5.650489e-10,2.4149609e-05,0.0002842715,5.598832e-06,3.5923695e-05,3.590604e-05,0.00013359624,0.030737085,0.030739244,0.009440396,0.104083985,0.10408539,0.056450162,1.2834578e-10,1.2813663e-10,1.4551818e-09,4.9680165e-07,4.966565e-07,5.438645e-08,0.0,0.0,0.0,0.0,0.0,0.0,0.0,0.0,535,0.45625582,0.23759243,0.0020564646,0.012541849,0.0027257921,0.0020180782,0.0,0.0,0.0,0.0,0,0,0,831,24,0,0,0
16384000,0.97941154,-0.008401331,-0.011302684,0.20138238,0.015501008,-0.0034893127,0.01582072,0.011546854,-0.0037560535,0.016736513,-8.303338e-06,-4.7664482e-05,-4.5036288e-07,-2.3163118e-05,-0.0001568437,-0.0010901393,0.20579772,0.009214502,0.43480214,0.0,0.0,0.0,0.0,0.0,5.6125693e-10,2.3940998e-05,0.00029137122,5.574025e-06,3.6301553e-05,3.6284167e-05,0.00013291376,0.029715428,0.02971759,0.0096195005,0.103164025,0.10316546,0.056320056,1.2779539e-10,1.2759072e-10,1.4342196e-09,4.9637026e-07,4.9622344e-07,5.367715e-08,0.0,0.0,0.0,0.0,0.0,0.0,0.0,0.0,535,0.45423508,0.23731847,0.018876228,0.008443455,0.0025604758,0.0043969667,0.0,0.0,0.0,0.0,0,0,0,831,24,0,0,0
16592000,0.9794077,-0.00840421,-0.011296593,0.20140101,0.014330046,-0.0023291754,0.0206263,0.011081375,-0.0035596385,0.022009844,-8.316918e-06,-4.7686826e-05,-4.4539055e-07,-2.2807957e-05,-0.00015708082,-0.0010903646,0.20579772,0.009214502,0.43480214,0.0,0.0,0.0,0.0,0.0,5.462356e-10,2.3651839e-05,0.000281908,5.5364885e-06,3.676066e-05,3.6743295e-05,0.00013188084,0.028979149,0.028981166,0.009794218,0.10294303,0.10294452,0.055769894,1.2712834e-10,1.269285e-10,1.4096587e-09,4.9607814e-07,4.9592984e-07,5.2841294e-08,0.0,0.0,0.0,0.0,0.0,0.0,0.0,0.0,535,0.45374835,0.23615651,0.001308975,0.005860836,0.002404984,0.0005212481,0.0,0.0,0.0,0.0,0,0,0,831,24,0,0,0
16784000,0.9794075,-0.00854892,-0.011373745,0.2013916,0.0135093015,-0.0034440537,0.023110218,0.010474845,-0.0033177366,0.021571504,-8.331231e-06,-4.770898e-05,-3.832596e-07,-2.2637363e-05,-0.00015727775,-0.0010887701,0.20579772,0.009214502,0.43480214,0.0,0.0,0.0,0.0,0.0,5.436373e-10,2.3080662e-05,0.0002969448,5.520006e-06,3.7139e-05,3.712152e-05,0.0001313593,0.028062113,0.028064026,0.00998333,0.10160526,0.101606704,0.055558164,1.263247e-10,1.261297e-10,1.3870184e-09,4.9587294e-07,4.957235e-07,5.1976762e-08,0.0,0.0,0.0,0.0,0.0,0.0,0.0,0.0,535,0.45079038,0.23570779,0.016967954,0.005521197,0.0022740331,0.0004727888,0.0,0.0,0.0,0.0,0,0,0,831,24,0,0,0
16984000,0.9793925,-0.008722606,-0.011363791,0.20145752,0.015841268,-0.007142152,0.022960316,0.013038822,-0.007967861,0.02026536,-8.277123e-06,-4.7722955e-05,-3.2671696e-07,-2.2587083e-05,-0.00015746985,-0.0010868703,0.20579772,0.009214502,0.43480214,0.0,0.0,0.0,0.0,0.0,5.6400246e-10,2.4017925e-05,0.00029585446,5.490816e-06,3.7575064e-05,3.7557824e-05,0.00013044223,0.027408099,0.02740999,0.01015005,0.10093963,0.10094108,0.054943196,1.2538365e-10,1.251941e-10,1.3607129e-09,4.9570883e-07,4.955585e-07,5.0971764e-08,0.0,0.0,0.0,0.0,0.0,0.0,0.0,0.0,535,0.44931138,0.23439965,0.016920425,0.0106239375,0.0021856548,0.010146871,0.0,0.0,0.0,0.0,0,0,0,831,24,0,0,0
17184000,0.9794052,-0.00868436,-0.011365811,0.20139751,0.016632276,-0.009347418,0.02270943,0.012646533,-0.007705263,0.019181432,-8.300266e-06,-4.775091e-05,-2.040313e-07,-2.2643071e-05,-0.00015753119,-0.0010847533,0.20579772,0.009214502,0.43480214,0.0,0.0,0.0,0.0,0.0,5.845885e-10,2.3872195e-05,0.00029848758,5.4950974e-06,3.800969e-05,3.799213e-05,0.00013045198,0.026850864,0.026852801,0.010390518,0.10033677,0.10033821,0.055167697,1.2429544e-10,1.2411135e-10,1.3366134e-09,4.9554467e-07,4.953941e-07,5.0000036e-08,0.0,0.0,0.0,0.0,0.0,0.0,0.0,0.0,535,0.44796762,0.23487805,0.00010921185,0.0060427343,0.002703874,0.009413495,0.0,0.0,0.0,0.0,0,0,0,831,24,0,0,0
17384000,0.9794097,-0.00875492,-0.011373963,0.20137209,0.01435547,-0.0056590093,0.022098513,0.012023427,-0.0072542336,0.021092687,-8.333147e-06,-4.777754e-05,-1.6088829e-07,-2.2792694e-05,-0.00015742793,-0.0010829172,0.20579772,0.009214502,0.43480214,0.0,0.0,0.0,0.0,0.0,5.976292e-10,2.4753012e-05,0.00030474056,5.470532e-06,3.84336e-05,3.8415947e-05,0.00012978735,0.026382672,0.026384365,0.010554188,0.099789344,0.0997908,0.0547201,1.2304949e-10,1.2287119e-10,1.3088386e-09,4.953447e-07,4.9519406e-07,5e-08,0.0,0.0,0.0,0.0,0.0,0.0,0.0,0.0,535,0.44674394,0.23392327,0.010097601,0.013787477,0.0026283942,0.0006637478,0.0,0.0,0.0,0.0,0,0,0,831,24,0,0,0
17584000,0.979414,-0.008526121,-0.011305302,0.20136482,0.011041713,-0.0066447617,0.019048475,0.009916456,-0.006907118,0.025216794,-8.375211e-06,-4.7820653e-05,-3.6217654e-07,-2.3236724e-05,-0.00015716608,-0.0010825354,0.20579772,0.009214502,0.43480214,0.0,0.0,0.0,0.0,0.0,5.7876326e-10,2.5086638e-05,0.00030316616,5.4769876e-06,3.8838545e-05,3.8820417e-05,0.00013000343,0.025999187,0.026000662,0.010785715,0.099291965,0.09929341,0.055106375,1.2164293e-10,1.2147063e-10,1.283646e-09,4.950762e-07,4.949259e-07,5.000007e-08,0.0,0.0,0.0,0.0,0.0,0.0,0.0,0.0,535,0.44562918,0.23474747,0.010140719,0.009379019,0.0024852322,0.0045554107,0.0,0.0,0.0,0.0,0,0,0,831,24,0,0,0
17784000,0.97939295,-0.008493271,-0.011200789,0.20147465,0.011629791,-0.004780947,0.015766723,0.011036507,-0.0065900437,0.020681225,-8.3919285e-06,-4.7813606e-05,-4.952228e-07,-2.318803e-05,-0.00015718407,-0.0010794486,0.20579772,0.009214502,0.43480214,0.0,0.0,0.0,0.0,0.0,5.865434e-10,2.4767141e-05,0.0002952694,5.4617913e-06,3.921642e-05,3.9198578e-05,0.00012950368,0.025681568,0.025682908,0.010928771,0.09884003,0.09884142,0.054808114,1.2006862e-10,1.1990277e-10,1.2548265e-09,4.9471095e-07,4.945611e-07,5e-08,0.0,0.0,0.0,0.0,0.0,0.0,0.0,0.0,535,0.4446138,0.23411132,0.010065403,0.004758965,0.002037593,0.013711239,0.0,0.0,0.0,0.0,0,0,0,831,24,0,0,0
17984000,0.97940135,-0.008639524,-0.011168098,0.2014292,0.012766048,-0.007423784,0.01853954,0.0106471535,-0.0064108106,0.023742763,-8.417355e-06,-4.7839912e-05,-4.064837e-07,-2.3497996e-05,-0.00015685093,-0.0010790653,0.20579772,0.009214502,0.43480214,0.0,0.0,0.0,0.0,0.0,5.7390276e-10,2.3840154e-05,0.0002903186,5.479529e-06,3.956197e-05,3.954435e-05,0.00012984432,0.025420085,0.025421476,0.011138071,0.09842962,0.09843097,0.055334616,1.1832947e-10,1.1817014e-10,1.2288969e-09,4.942261e-07,4.9407714e-07,5.000007e-08,0.0,0.0,0.0,0.0,0.0,0.0,0.0,0.0,535,0.44368973,0.23523311,0.007910687,0.0046955175,0.0022664235,0.01810901,0.0,0.0,0.0,0.0,0,0,0,831,24,0,0,0
18184000,0.97939265,-0.008634607,-0.011094391,0.20147555,0.017700264,-0.01102462,0.021487199,0.010497216,-0.0063366476,0.025088975,-8.455103e-06,-4.7872265e-05,-3.9386032e-07,-2.4018453e-05,-0.00015631474,-0.0010775818,0.20579772,0.009214502,0.43480214,0.0,0.0,0.0,0.0,0.0,5.984092e-10,2.3194798e-05,0.0002897938,5.4688103e-06,3.9869934e-05,3.9852468e-05,0.00012944313,0.025213074,0.02521487,0.011248473,0.098057896,0.09805919,0.05514652,1.1642463e-10,1.16272304e-10,1.1993982e-09,4.9360443e-07,4.9345664e-07,5.0000036e-08,0.0,0.0,0.0,0.0,0.0,0.0,0.0,0.0,535,0.4428511,0.23483296,0.004742198,0.0060974127,0.0022265404,0.005309891,0.0,0.0,0.0,0.0,0,0,0,831,24,0,0,0
18384000,0.9794414,-0.008522213,-0.011112521,0.20124242,0.019151451,-0.011146581,0.022667062,0.013265658,-0.007031762,0.02682636,-8.476729e-06,-4.7869755e-05,-6.877997e-08,-2.3759598e-05,-0.00015577966,-0.0010766339,0.20579772,0.009214502,0.43480214,0.0,0.0,0.0,0.0,0.0,5.6547306e-10,2.2720398e-05,0.00029886264,5.45214e-06,4.0134022e-05,4.011621e-05,0.00012907726,0.025058959,0.025060665,0.011337748,0.09772233,0.097723626,0.05499283,1.1435651e-10,1.1421127e-10,1.1696661e-09,4.9282664e-07,4.9268033e-07,5e-08,0.0,0.0,0.0,0.0,0.0,0.0,0.0,0.0,535,0.4420927,0.2345055,0.0009777131,0.0042261435,0.0022570554,0.0024851798,0.0,0.0,0.0,0.0,0,0,0,831,24,0,0,0
18584000,0.9794236,-0.008684577,-0.011053712,0.20132557,0.02093701,-0.015779076,0.022731625,0.013575153,-0.010705708,0.0271034,-8.469134e-06,-4.7910104e-05,-7.3890085e-08,-2.4454244e-05,-0.0001560589,-0.0010745752,0.20579772,0.009214502,0.43480214,0.0,0.0,0.0,0.0,0.0,6.0258915e-10,2.381599e-05,0.00028894696,5.47715e-06,4.0350547e-05,4.0333052e-05,0.0001294983,0.024948299,0.024950117,0.011494863,0.097421214,0.09742249,0.055641856,1.12135e-10,1.1199669e-10,1.1431579e-09,4.91884e-07,4.917396e-07,5.0000036e-08,0.0,0.0,0.0,0.0,0.0,0.0,0.0,0.0,535,0.44141105,0.23588526,0.016252046,0.0058598383,0.0049079414,0.008085567,0.0,0.0,0.0,0.0,0,0,0,831,24,0,0,0
18784000,0.97937113,-0.008717542,-0.011086155,0.2015773,0.022173079,-0.01777337,0.02376177,0.016297838,-0.009212407,0.02844079,-8.55837e-06,-4.7878395e-05,-4.3566408e-07,-2.3919294e-05,-0.00015452549,-0.0010728211,0.20579772,0.009214502,0.43480214,0.0,0.0,0.0,0.0,0.0,5.900243e-10,2.3381674e-05,0.00028057382,5.4696434e-06,4.051615e-05,4.049863e-05,0.00012914912,0.024872575,0.02487434,0.011544654,0.0971531,0.09715435,0.055537533,1.0976414e-10,1.0963289e-10,1.113276e-09,4.907684e-07,4.906262e-07,5e-08,0.0,0.0,0.0,0.0,0.0,0.0,0.0,0.0,535,0.44080317,0.23566402,0.009820196,0.010454612,0.0028859144,0.0054852013,0.0,0.0,0.0,0.0,0,0,0,831,24,0,0,0
18984000,0.9793944,-0.008718101,-0.010968647,0.20147097,0.014281014,-0.019294282,0.024646115,0.012866832,-0.009382085,0.029754922,-8.667957e-06,-4.7966292e-05,-4.448342e-07,-2.5864798e-05,-0.00015218987,-0.0010710991,0.20579772,0.009214502,0.43480214,0.0,0.0,0.0,0.0,0.0,5.63446e-10,2.2732112e-05,0.00027965996,5.484373e-06,4.0627576e-05,4.0610226e-05,0.00012958284,0.024826966,0.024828246,0.011664072,0.09691588,0.096917085,0.05622061,1.0725752e-10,1.0713264e-10,1.086741e-09,4.8947453e-07,4.893349e-07,5.000007e-08,0.0,0.0,0.0,0.0,0.0,0.0,0.0,0.0,535,0.44026464,0.23710886,0.008322526,0.01508809,0.0033911234,0.0020092013,0.0,0.0,0.0,0.0,0,0,0,831,24,0,0,0
19184000,0.979437,-0.008753453,-0.010862561,0.20126754,0.012995375,-0.01721148,0.024498938,0.012841925,-0.008161084,0.03158528,-8.760107e-06,-4.7951773e-05,-3.2469467e-07,-2.5353873e-05,-0.00015008663,-0.0010698366,0.20579772,0.009214502,0.43480214,0.0,0.0,0.0,0.0,0.0,5.9153654e-10,2.3243967e-05,0.00027016705,5.4639213e-06,4.0682517e-05,4.0665636e-05,0.00012923287,0.024807712,0.02480882,0.011673998,0.09670811,0.09670928,0.056121606,1.0462313e-10,1.0450493e-10,1.0569886e-09,4.8800075e-07,4.8786393e-07,5e-08,0.0,0.0,0.0,0.0,0.0,0.0,0.0,0.0,535,0.43979245,0.23689999,0.00505993,0.011206537,0.0047686673,0.005815095,0.0,0.0,0.0,0.0,0,0,0,831,24,0,0,0
19384000,0.9794756,-0.008643633,-0.010901083,0.2010826,0.0162596,-0.016012803,0.023491375,0.012600266,-0.004327187,0.038424753,-8.919654e-06,-4.7943642e-05,-1.8604622e-07,-2.49816e-05,-0.00014614295,-0.0010706333,0.20579772,0.009214502,0.43480214,0.0,0.0,0.0,0.0,0.0,5.9757443e-10,2.361789e-05,0.00027850404,5.477164e-06,4.0681454e-05,4.0664137e-05,0.00012964352,0.024812203,0.024813555,0.011761434,0.09652829,0.09652945,0.056820624,1.0187903e-10,1.0176754e-10,1.0307232e-09,4.863513e-07,4.8621763e-07,5.000007e-08,0.0,0.0,0.0,0.0,0.0,0.0,0.0,0.0,535,0.43938336,0.23837078,0.004503853,0.01829763,0.0026406306,0.0057453415,0.0,0.0,0.0,0.0,0,0,0,831,24,0,0,0
19584000,0.97948205,-0.008735146,-0.010853967,0.20104958,0.015357345,-0.015981788,0.02159518,0.013871894,-0.0048490833,0.03502312,-8.975908e-06,-4.7945497e-05,-9.843842e-08,-2.49937e-05,-0.00014477824,-0.0010673023,0.20579772,0.009214502,0.43480214,0.0,0.0,0.0,0.0,0.0,6.3211125e-10,2.3947763e-05,0.00028154516,5.4632233e-06,4.062253e-05,4.0605493e-05,0.00012924816,0.024823036,0.02482421,0.011737479,0.09637486,0.09637598,0.056704435,9.9036494e-11,9.893182e-11,1.0013849e-09,4.8453e-07,4.843998e-07,5.0000036e-08,0.0,0.0,0.0,0.0,0.0,0.0,0.0,0.0,535,0.439034,0.23812693,0.026702981,0.0061500715,0.0026219292,0.0033846989,0.0,0.0,0.0,0.0,0,0,0,831,24,0,0,0
19784000,0.9794952,-0.008770893,-0.010861338,0.20098305,0.017743738,-0.015429635,0.021005241,0.016259726,-0.0053578,0.033099268,-9.017945e-06,-4.792113e-05,6.349142e-08,-2.4253843e-05,-0.00014367784,-0.0010647622,0.20579772,0.009214502,0.43480214,0.0,0.0,0.0,0.0,0.0,6.135222e-10,2.4728759e-05,0.00027495713,5.4481143e-06,4.0508698e-05,4.049169e-05,0.00012882777,0.024840236,0.024841402,0.011697769,0.09624555,0.09624661,0.05656742,9.6116476e-11,9.601868e-11,9.723525e-10,4.8255123e-07,4.8242464e-07,5e-08,0.0,0.0,0.0,0.0,0.0,0.0,0.0,0.0,535,0.43873927,0.23783906,0.0053249598,0.005988855,0.0028511721,0.006578352,0.0,0.0,0.0,0.0,0,0,0,831,24,0,0,0
19984000,0.9794816,-0.008741068,-0.010823049,0.20105329,0.01846195,-0.017083151,0.01918272,0.016021276,-0.0057772375,0.03026434,-9.093517e-06,-4.795601e-05,1.4846106e-07,-2.5132875e-05,-0.0001417054,-0.0010617182,0.20579772,0.009214502,0.43480214,0.0,0.0,0.0,0.0,0.0,5.9822963e-10,2.4704907e-05,0.00027109485,5.469767e-06,4.034125e-05,4.0324125e-05,0.00012914842,0.024862535,0.024863753,0.011744484,0.096138895,0.09613993,0.05723192,9.313756e-11,9.304629e-11,9.468859e-10,4.8042546e-07,4.803028e-07,5.0000036e-08,0.0,0.0,0.0,0.0,0.0,0.0,0.0,0.0,535,0.4384961,0.23923194,0.0047375434,0.0065007345,0.0033340403,0.005747849,0.0,0.0,0.0,0.0,0,0,0,831,24,0,0,0
20184000,0.9794657,-0.008563495,-0.010647091,0.20114733,0.018392328,-0.01593607,0.015467001,0.016984193,-0.0061377664,0.028162984,-9.1636375e-06,-4.7964633e-05,1.4114383e-07,-2.5374697e-05,-0.00013989813,-0.0010586604,0.20579772,0.009214502,0.43480214,0.0,0.0,0.0,0.0,0.0,6.025002e-10,2.4710627e-05,0.00027962422,5.4559764e-06,4.012211e-05,4.010537e-05,0.00012866665,0.024888588,0.024889696,0.011682792,0.0960527,0.09605367,0.057058994,9.011439e-11,9.0029845e-11,9.186186e-10,4.7816724e-07,4.7804855e-07,5e-08,0.0,0.0,0.0,0.0,0.0,0.0,0.0,0.0,535,0.4382994,0.23887025,0.0013571008,0.012855002,0.0033126671,0.0031420202,0.0,0.0,0.0,0.0,0,0,0,831,24,0,0,0
20392000,0.979459,-0.008563583,-0.010635791,0.20118092,0.014359503,-0.017412756,0.016968712,0.016382731,-0.0067338613,0.03004479,-9.24833e-06,-4.7997542e-05,7.9917676e-08,-2.6286292e-05,-0.00013764847,-0.0010575608,0.20579772,0.009214502,0.43480214,0.0,0.0,0.0,0.0,0.0,6.080247e-10,2.4158713e-05,0.00027074717,5.4471225e-06,3.990241e-05,3.9885617e-05,0.00012841175,0.025042139,0.025042908,0.011653645,0.09651942,0.096520334,0.05717471,8.7071184e-11,8.699312e-11,8.9081725e-10,4.757926e-07,4.7567826e-07,5e-08,0.0,0.0,0.0,0.0,0.0,0.0,0.0,0.0,535,0.43936288,0.23911233,0.003579834,0.0071670525,0.0034734595,0.017146027,0.0,0.0,0.0,0.0,0,0,0,831,24,0,0,0
20584000,0.9794518,-0.0085127,-0.010630717,0.20121811,0.011344365,-0.019671528,0.019282835,0.015450744,-0.007011917,0.031143941,-9.330221e-06,-4.802271e-05,1.2668364e-07,-2.6928808e-05,-0.0001353491,-0.0010566189,0.20579772,0.009214502,0.43480214,0.0,0.0,0.0,0.0,0.0,6.0238947e-10,2.3784942e-05,0.0002805962,5.450465e-06,3.954523e-05,3.9528266e-05,0.00012837537,0.024905803,0.024906354,0.011632391,0.095933035,0.09593386,0.05746039,8.401499e-11,8.3942915e-11,8.6653285e-10,4.7331955e-07,4.732097e-07,5e-08,0.0,0.0,0.0,0.0,0.0,0.0,0.0,0.0,535,0.43802616,0.23970897,0.013657076,0.0073712002,0.0033030058,0.017560484,0.0,0.0,0.0,0.0,0,0,0,831,24,0,0,0
20784000,0.9794446,-0.00840252,-0.010611073,0.20125881,0.008817037,-0.01700813,0.019128527,0.01454815,-0.005663141,0.027543277,-9.454829e-06,-4.801271e-05,-4.4994334e-08,-2.6764668e-05,-0.00013196695,-0.0010533537,0.20579772,0.009214502,0.43480214,0.0,0.0,0.0,0.0,0.0,5.852119e-10,2.360126e-05,0.00029035017,5.4573493e-06,3.90179e-05,3.9000803e-05,0.00012856517,0.024567014,0.024567364,0.011637088,0.095087156,0.09508789,0.058033183,8.058413e-11,8.0518134e-11,8.426989e-10,4.7043184e-07,4.7032728e-07,5.000007e-08,0.0,0.0,0.0,0.0,0.0,0.0,0.0,0.0,535,0.43609065,0.24090077,0.00710525,0.011980371,0.003295592,0.011579833,0.0,0.0,0.0,0.0,0,0,0,831,24,0,0,0
20984000,0.9794177,-0.008546891,-0.010504959,0.20138961,0.006466477,-0.017311312,0.01747951,0.014999807,-0.0072173295,0.023002775,-9.487437e-06,-4.799792e-05,-1.915508e-07,-2.6461023e-05,-0.00013123124,-0.0010497279,0.20579772,0.009214502,0.43480214,0.0,0.0,0.0,0.0,0.0,6.170456e-10,2.3593255e-05,0.00029213243,5.435714e-06,3.849461e-05,3.847821e-05,0.00012794793,0.024278916,0.024279019,0.011538532,0.09434322,0.0943439,0.057743058,7.728004e-11,7.722011e-11,8.1640267e-10,4.6755937e-07,4.6745987e-07,5.0000036e-08,0.0,0.0,0.0,0.0,0.0,0.0,0.0,0.0,535,0.4343813,0.24029785,0.0026051584,0.0047732014,0.0030464907,0.002623783,0.0,0.0,0.0,0.0,0,0,0,831,24,0,0,0
