timestamp,roll,pitch,yaw,thrust_body[0],thrust_body[1],thrust_body[2]
3256000,0.13598028,0.16819778,0.0008895993,0.0,0.0,-0.08
3292000,0.13704637,0.16976473,0.0009049773,0.0,0.0,-0.08
3328000,0.13758314,0.17087337,0.0009146333,0.0,0.0,-0.08
3360000,0.13789088,0.1714962,0.0009198189,0.0,0.0,-0.08
3388000,0.13824804,0.17303643,0.0009307265,0.0,0.0,-0.08
3420000,0.13875388,0.17421934,0.00094020367,0.0,0.0,-0.08
3452000,0.13900146,0.17604573,0.0009518266,0.0,0.0,-0.08
3480000,0.13854398,0.17779964,0.0009582639,0.0,0.0,-0.08
3516000,0.13887285,0.17970452,0.0009704232,0.0,0.0,-0.08
3544000,0.13920794,0.18026513,0.0009763241,0.0,0.0,-0.08
3576000,0.1398195,0.18116805,0.0009852648,0.0,0.0,-0.08
3612000,0.14018272,0.18296243,0.0009976029,0.0,0.0,-0.08
3644000,0.14066389,0.18387094,0.001006186,0.0,0.0,-0.08
3672000,0.1410839,0.18522575,0.0010163784,0.0,0.0,-0.08
3712000,0.1412445,0.18630543,0.001023531,0.0,0.0,-0.08
3740000,0.14076418,0.18772694,0.0010283589,0.0,0.0,-0.08
3772000,0.1411542,0.18892154,0.0010372996,0.0,0.0,-0.08
3808000,0.14146946,0.19028723,0.0010471344,0.0,0.0,-0.08
3836000,0.14183527,0.19115305,0.0010546446,0.0,0.0,-0.08
3868000,0.14183652,0.19248247,0.0010617971,0.0,0.0,-0.08
3904000,0.1430862,0.1932278,0.0010752082,0.0,0.0,-0.08
3932000,0.14356276,0.19400036,0.0010832548,0.0,0.0,-0.08
3964000,0.14384714,0.19512217,0.0010918379,0.0,0.0,-0.08
3992000,0.14431603,0.19611672,0.0011011362,0.0,0.0,-0.08
4031999,0.14438048,0.19720182,0.0011073947,0.0,0.0,-0.08
4055999,0.14439079,0.19795635,0.0011120439,0.0,0.0,-0.08
4087999,0.14409623,0.19932742,0.0011174083,0.0,0.0,-0.08
4124000,0.14418155,0.20039001,0.0011238456,0.0,0.0,-0.08
4151999,0.14399754,0.20173123,0.0011301041,0.0,0.0,-0.08
4188000,0.1444928,0.20253745,0.0011385083,0.0,0.0,-0.08
4220000,0.14499736,0.20335834,0.0011469126,0.0,0.0,-0.08
4252000,0.14546016,0.20460534,0.0011578202,0.0,0.0,-0.08
4280000,0.14550588,0.20503461,0.0011605024,0.0,0.0,-0.08
4316000,0.14529358,0.20553312,0.0011615753,0.0,0.0,-0.08
4348000,0.14550897,0.20650342,0.0011689067,0.0,0.0,-0.08
4384000,0.14586443,0.20753735,0.0011774898,0.0,0.0,-0.08
4412000,0.146026,0.20832625,0.0011833906,0.0,0.0,-0.08
4440000,0.1460104,0.20949358,0.0011898279,0.0,0.0,-0.08
4476000,0.14668933,0.21013637,0.0011991262,0.0,0.0,-0.08
4508000,0.1467677,0.2103546,0.0012009144,0.0,0.0,-0.08
4540000,0.14711612,0.21076128,0.0012059212,0.0,0.0,-0.08
4572000,0.14705354,0.21065724,0.0012048483,0.0,0.0,-0.08
4604000,0.14617324,0.21098235,0.0011998415,0.0,0.0,-0.08
4636000,0.14573938,0.21171305,0.0012001991,0.0,0.0,-0.08
4672000,0.1448697,0.2118853,0.0011941195,0.0,0.0,-0.08
4700000,0.14474326,0.21229064,0.0011953712,0.0,0.0,-0.08
4728000,0.14411668,0.21287665,0.0011937618,0.0,0.0,-0.08
4768000,0.14432043,0.21266636,0.0011937618,0.0,0.0,-0.08
4792000,0.14448172,0.21272068,0.0011957288,0.0,0.0,-0.08
4828000,0.14397332,0.21252193,0.0011901855,0.0,0.0,-0.08
4864000,0.14367117,0.21216941,0.001185894,0.0,0.0,-0.08
4892000,0.143413,0.21249747,0.0011855364,0.0,0.0,-0.08
4920000,0.14339226,0.21239184,0.0011846423,0.0,0.0,-0.08
4956000,0.14361955,0.21236706,0.0011864305,0.0,0.0,-0.08
4988000,0.14356755,0.21293923,0.0011892915,0.0,0.0,-0.08
5020000,0.14357683,0.21324882,0.0011910796,0.0,0.0,-0.08
5052000,0.14380938,0.21342254,0.0011941195,0.0,0.0,-0.08
5080000,0.14302939,0.2136837,0.001188755,0.0,0.0,-0.08
5116000,0.14255728,0.21360204,0.0011846423,0.0,0.0,-0.08
5144000,0.14236084,0.2133965,0.0011816025,0.0,0.0,-0.08
5180000,0.1421401,0.21382886,0.0011823177,0.0,0.0,-0.08
5212000,0.14183915,0.21400326,0.0011812449,0.0,0.0,-0.08
5244000,0.14152169,0.21395749,0.0011778474,0.0,0.0,-0.08
5280000,0.14205955,0.21393687,0.0011823177,0.0,0.0,-0.08
5308000,0.14190933,0.2135562,0.0011789203,0.0,0.0,-0.08
5340000,0.14161077,0.21321294,0.0011744499,0.0,0.0,-0.08
5372000,0.14099103,0.21255907,0.0011658669,0.0,0.0,-0.08
5404000,0.1411266,0.21279189,0.0011683702,0.0,0.0,-0.08
5440000,0.14142983,0.21238807,0.0011685491,0.0,0.0,-0.08
5468000,0.14149775,0.21223116,0.0011681914,0.0,0.0,-0.08
5504000,0.14160451,0.21111296,0.001162827,0.0,0.0,-0.08
5532000,0.14173186,0.21126375,0.0011649728,0.0,0.0,-0.08
5564000,0.14167354,0.21100938,0.001162827,0.0,0.0,-0.08
5592000,0.14189328,0.21110225,0.0011651516,0.0,0.0,-0.08
5628000,0.14185292,0.21081108,0.0011637211,0.0,0.0,-0.08
5660000,0.14104423,0.21146873,0.0011601448,0.0,0.0,-0.08
5692000,0.14073384,0.21115103,0.0011562109,0.0,0.0,-0.08
5724000,0.14042115,0.21056873,0.0011501312,0.0,0.0,-0.08
5756000,0.14067006,0.21021134,0.0011504889,0.0,0.0,-0.08
5792000,0.14091402,0.20985165,0.0011504889,0.0,0.0,-0.08
5820000,0.1407483,0.20984295,0.0011488795,0.0,0.0,-0.08
5852000,0.1403151,0.20960665,0.0011442304,0.0,0.0,-0.08
5884000,0.14043246,0.20934245,0.0011435151,0.0,0.0,-0.08
5916000,0.13992804,0.2093603,0.0011395812,0.0,0.0,-0.08
5948000,0.14013323,0.2085017,0.0011365414,0.0,0.0,-0.08
5984000,0.13964844,0.20810665,0.0011308193,0.0,0.0,-0.08
6012000,0.1390404,0.208444,0.0011274219,0.0,0.0,-0.08
6048000,0.13837764,0.20778614,0.0011184812,0.0,0.0,-0.08
6080000,0.1374698,0.20807064,0.0011129379,0.0,0.0,-0.08
6112000,0.13746956,0.20797646,0.0011122227,0.0,0.0,-0.08
6144000,0.13718322,0.20783734,0.0011091828,0.0,0.0,-0.08
6168000,0.1368112,0.20748411,0.001104176,0.0,0.0,-0.08
6200000,0.1365213,0.20737639,0.001101315,0.0,0.0,-0.08
6236000,0.13585651,0.20691252,0.001093626,0.0,0.0,-0.08
6268000,0.1358294,0.20594066,0.001087904,0.0,0.0,-0.08
6300000,0.13544741,0.20540655,0.0010823607,0.0,0.0,-0.08
6328000,0.13470456,0.20510991,0.0010746717,0.0,0.0,-0.08
6368000,0.13363,0.20433891,0.001061976,0.0,0.0,-0.08
6396000,0.13324025,0.20344293,0.0010544658,0.0,0.0,-0.08
6432000,0.13251232,0.20316789,0.0010473132,0.0,0.0,-0.08
6460000,0.13190795,0.20294523,0.0010412335,0.0,0.0,-0.08
6488000,0.13161919,0.20220211,0.0010351539,0.0,0.0,-0.08
6524000,0.13105105,0.20191649,0.0010294318,0.0,0.0,-0.08
6556000,0.13033488,0.20104332,0.0010192394,0.0,0.0,-0.08
6588000,0.12996523,0.20019954,0.0010120869,0.0,0.0,-0.08
6620000,0.12949786,0.19965905,0.0010056496,0.0,0.0,-0.08
6652000,0.12878682,0.19888781,0.0009967089,0.0,0.0,-0.08
6684000,0.1282529,0.1982167,0.0009891987,0.0,0.0,-0.08
6716000,0.12873675,0.19842097,0.000993669,0.0,0.0,-0.08
6748000,0.12850043,0.19822207,0.000990808,0.0,0.0,-0.08
6780000,0.12827528,0.19728813,0.0009843707,0.0,0.0,-0.08
6816000,0.12763138,0.19679844,0.0009770393,0.0,0.0,-0.08
6848000,0.12737057,0.19614087,0.00097203255,0.0,0.0,-0.08
6880000,0.12797531,0.19535767,0.0009723902,0.0,0.0,-0.08
6912000,0.1273768,0.1946602,0.00096452236,0.0,0.0,-0.08
6940000,0.12678322,0.19361746,0.0009550452,0.0,0.0,-0.08
6968000,0.12667018,0.19326536,0.0009521842,0.0,0.0,-0.08
7004000,0.12633227,0.1917049,0.0009419918,0.0,0.0,-0.08
7040000,0.12640512,0.19115008,0.00093984604,0.0,0.0,-0.08
7068000,0.1251022,0.19082403,0.00092858076,0.0,0.0,-0.08
7104000,0.12422165,0.18952408,0.000915885,0.0,0.0,-0.08
7132000,0.12368211,0.18868431,0.00090765953,0.0,0.0,-0.08
7164000,0.124318264,0.18840896,0.000911057,0.0,0.0,-0.08
7196000,0.124581434,0.1880874,0.0009114146,0.0,0.0,-0.08
7232000,0.1245636,0.18798566,0.0009108782,0.0,0.0,-0.08
7264000,0.12394637,0.18777817,0.00090515614,0.0,0.0,-0.08
7292000,0.124340385,0.18738997,0.000906229,0.0,0.0,-0.08
7324000,0.12474403,0.18633713,0.0009044409,0.0,0.0,-0.08
7356000,0.124284916,0.18548305,0.00089639425,0.0,0.0,-0.08
7392000,0.124052614,0.18451948,0.0008903146,0.0,0.0,-0.08
7420000,0.124277994,0.18397807,0.0008892417,0.0,0.0,-0.08
7452000,0.124179706,0.18291745,0.00088351965,0.0,0.0,-0.08
7484000,0.124131694,0.18162915,0.00087690353,0.0,0.0,-0.08
7520000,0.12437477,0.18118067,0.0008767247,0.0,0.0,-0.08
7548000,0.12422156,0.18027525,0.00087082386,0.0,0.0,-0.08
7580000,0.12418241,0.1797707,0.0008688569,0.0,0.0,-0.08
7612000,0.12332549,0.17870824,0.000857234,0.0,0.0,-0.08
7640000,0.1229777,0.17750973,0.00084900856,0.0,0.0,-0.08
7680000,0.12296267,0.17659722,0.000844717,0.0,0.0,-0.08
7704000,0.122888416,0.17592447,0.00084096193,0.0,0.0,-0.08
7744000,0.122673176,0.1754509,0.00083720684,0.0,0.0,-0.08
7772000,0.12296737,0.17484424,0.00083631277,0.0,0.0,-0.08
7808000,0.12307568,0.17385581,0.00083220005,0.0,0.0,-0.08
7840000,0.12306851,0.17271021,0.00082683563,0.0,0.0,-0.08
7868000,0.1229918,0.17182055,0.00082182884,0.0,0.0,-0.08
7900000,0.12289627,0.17081642,0.0008164644,0.0,0.0,-0.08
7936000,0.1228701,0.16943873,0.0008098483,0.0,0.0,-0.08
7964000,0.12250961,0.16902688,0.0008057356,0.0,0.0,-0.08
7996000,0.12252465,0.16794333,0.00080019236,0.0,0.0,-0.08
8028000,0.12262151,0.16688125,0.0007959008,0.0,0.0,-0.08
8060000,0.12281813,0.1658366,0.0007921457,0.0,0.0,-0.08
8088000,0.12303004,0.1651686,0.0007901788,0.0,0.0,-0.08
8124000,0.12264472,0.16391562,0.00078231096,0.0,0.0,-0.08
8156000,0.12173401,0.16263118,0.0007699728,0.0,0.0,-0.08
8184000,0.12119186,0.16208515,0.0007638931,0.0,0.0,-0.08
8220000,0.1208206,0.16164714,0.0007597804,0.0,0.0,-0.08
8248000,0.12078602,0.16053043,0.0007542372,0.0,0.0,-0.08
8284000,0.12063582,0.15945426,0.0007481575,0.0,0.0,-0.08
8320000,0.12070171,0.15819487,0.00074243546,0.0,0.0,-0.08
8348000,0.12061328,0.15766156,0.00073957443,0.0,0.0,-0.08
8380000,0.12015489,0.15671203,0.0007326007,0.0,0.0,-0.08
8416000,0.11957908,0.15597442,0.0007252693,0.0,0.0,-0.08
8444000,0.119779386,0.15597676,0.0007266998,0.0,0.0,-0.08
8472000,0.11969928,0.15598416,0.00072580576,0.0,0.0,-0.08
8512000,0.119674064,0.15495753,0.0007211566,0.0,0.0,-0.08
8540000,0.11974796,0.15441911,0.00071918964,0.0,0.0,-0.08
8572000,0.11978649,0.15357798,0.00071543455,0.0,0.0,-0.08
8604000,0.12018886,0.15271296,0.00071400404,0.0,0.0,-0.08
8636000,0.12016387,0.15253326,0.00071293116,0.0,0.0,-0.08
8672000,0.11980263,0.15131654,0.00070506334,0.0,0.0,-0.08
8704000,0.11914165,0.15123127,0.000700593,0.0,0.0,-0.08
8736000,0.11975196,0.15078586,0.0007022023,0.0,0.0,-0.08
8760000,0.119806916,0.15022343,0.00070005655,0.0,0.0,-0.08
8796000,0.11924066,0.14985745,0.0006952286,0.0,0.0,-0.08
8828000,0.11997072,0.14862213,0.00069361925,0.0,0.0,-0.08
8856000,0.11988625,0.14793664,0.00068968534,0.0,0.0,-0.08
8896000,0.12010816,0.14724332,0.0006875396,0.0,0.0,-0.08
8920000,0.12034553,0.14621183,0.00068449974,0.0,0.0,-0.08
8956000,0.120849185,0.14627013,0.0006875396,0.0,0.0,-0.08
8984000,0.120701976,0.1466985,0.00068861246,0.0,0.0,-0.08
9020000,0.12090591,0.14579885,0.0006855726,0.0,0.0,-0.08
9052000,0.12048331,0.14544366,0.0006816387,0.0,0.0,-0.08
9080000,0.120028384,0.1456401,0.0006800294,0.0,0.0,-0.08
9112000,0.11973852,0.14519483,0.0006759167,0.0,0.0,-0.08
9144000,0.12007035,0.14475188,0.0006759167,0.0,0.0,-0.08
9180000,0.120644934,0.14492083,0.0006798506,0.0,0.0,-0.08
9216000,0.12045432,0.14405125,0.0006748438,0.0,0.0,-0.08
9244000,0.12036267,0.14289413,0.00066912174,0.0,0.0,-0.08
9280000,0.12040612,0.14265208,0.00066804886,0.0,0.0,-0.08
9308000,0.120146915,0.14207985,0.0006637573,0.0,0.0,-0.08
9340000,0.12015802,0.14153403,0.00066143274,0.0,0.0,-0.08
9372000,0.119458705,0.14114095,0.0006557107,0.0,0.0,-0.08
9408000,0.11914674,0.1411065,0.00065392256,0.0,0.0,-0.08
9436000,0.11934773,0.14025241,0.00065106153,0.0,0.0,-0.08
9468000,0.11991462,0.13971268,0.00065141916,0.0,0.0,-0.08
9500000,0.120612085,0.138553,0.00064980984,0.0,0.0,-0.08
9536000,0.12075631,0.13761629,0.0006465912,0.0,0.0,-0.08
9568000,0.120678775,0.13755837,0.0006455183,0.0,0.0,-0.08
9596000,0.12086226,0.13747934,0.00064623356,0.0,0.0,-0.08
9628000,0.12100273,0.13706443,0.00064498186,0.0,0.0,-0.08
9660000,0.121080905,0.13673097,0.00064373016,0.0,0.0,-0.08
9692000,0.120843865,0.13631842,0.0006406903,0.0,0.0,-0.08
9724000,0.120522484,0.13581768,0.0006367564,0.0,0.0,-0.08
9756000,0.12034476,0.13573922,0.0006353259,0.0,0.0,-0.08
9788000,0.12026017,0.13576177,0.0006349683,0.0,0.0,-0.08
9820000,0.120382614,0.13569498,0.0006353259,0.0,0.0,-0.08
9852000,0.12048523,0.1356279,0.0006355047,0.0,0.0,-0.08
9884000,0.12095283,0.13560742,0.0006378293,0.0,0.0,-0.08
9916000,0.12101734,0.13555133,0.0006380081,0.0,0.0,-0.08
9952000,0.12139466,0.13526759,0.00063854456,0.0,0.0,-0.08
9984000,0.12215532,0.13536048,0.0006430149,0.0,0.0,-0.08
10012000,0.1222225,0.13450973,0.0006389022,0.0,0.0,-0.08
10044000,0.12231928,0.1342509,0.00063854456,0.0,0.0,-0.08
10080000,0.12211983,0.13398995,0.00063622,0.0,0.0,-0.08
10104000,0.122582436,0.13286836,0.00063353777,0.0,0.0,-0.08
10140000,0.12282197,0.13191426,0.0006297827,0.0,0.0,-0.08
10172000,0.12314958,0.13204995,0.0006322861,0.0,0.0,-0.08
10204000,0.123936184,0.13189793,0.00063586235,0.0,0.0,-0.08
10236000,0.123981744,0.13140598,0.00063353777,0.0,0.0,-0.08
10272000,0.12379794,0.13087346,0.0006301403,0.0,0.0,-0.08
10300000,0.12359809,0.13036352,0.0006263852,0.0,0.0,-0.08
10332000,0.1240875,0.13050732,0.0006299615,0.0,0.0,-0.08
10364000,0.12448519,0.13015403,0.0006299615,0.0,0.0,-0.08
10396000,0.12449395,0.13044375,0.00063174963,0.0,0.0,-0.08
10428000,0.124081194,0.13069817,0.00063067675,0.0,0.0,-0.08
10464000,0.12411596,0.13036862,0.0006288886,0.0,0.0,-0.08
10492000,0.12504289,0.13037959,0.0006340742,0.0,0.0,-0.08
10528000,0.12431759,0.1292882,0.0006251335,0.0,0.0,-0.08
10560000,0.12394905,0.12866971,0.00062030554,0.0,0.0,-0.08
10588000,0.12412143,0.12789518,0.0006172657,0.0,0.0,-0.08
10624000,0.12398416,0.12779194,0.0006161928,0.0,0.0,-0.08
10652000,0.12367476,0.12781881,0.0006149411,0.0,0.0,-0.08
10684000,0.123845056,0.12800156,0.00061655045,0.0,0.0,-0.08
10716000,0.12389309,0.12785703,0.0006161928,0.0,0.0,-0.08
10748000,0.12464586,0.12781884,0.0006199479,0.0,0.0,-0.08
10780000,0.12457848,0.12798986,0.00062048435,0.0,0.0,-0.08
10812000,0.12440175,0.1281093,0.0006199479,0.0,0.0,-0.08
10844000,0.12456592,0.12745556,0.0006172657,0.0,0.0,-0.08
10880000,0.12550373,0.12742239,0.0006220937,0.0,0.0,-0.08
10908000,0.12614301,0.12754107,0.00062584877,0.0,0.0,-0.08
10940000,0.12590472,0.1274967,0.0006245971,0.0,0.0,-0.08
10968000,0.12620026,0.1272915,0.00062441826,0.0,0.0,-0.08
11008000,0.12671632,0.1262848,0.0006222725,0.0,0.0,-0.08
11040000,0.12667751,0.12601016,0.000620842,0.0,0.0,-0.08
11064000,0.1270526,0.12556891,0.00062066317,0.0,0.0,-0.08
11096000,0.12671098,0.12508032,0.00061637163,0.0,0.0,-0.08
11132000,0.12741202,0.12377152,0.0006136894,0.0,0.0,-0.08
11164000,0.12733154,0.12371753,0.00061261654,0.0,0.0,-0.08
11200000,0.12737307,0.12381651,0.0006133318,0.0,0.0,-0.08
11228000,0.12762591,0.12389408,0.00061511993,0.0,0.0,-0.08
11260000,0.12785059,0.12413096,0.0006172657,0.0,0.0,-0.08
11292000,0.12826923,0.123887196,0.00061780214,0.0,0.0,-0.08
11324000,0.12819836,0.12474184,0.00062191486,0.0,0.0,-0.08
11356000,0.12866002,0.12473365,0.00062423944,0.0,0.0,-0.08
11388000,0.12813568,0.12508896,0.0006233454,0.0,0.0,-0.08
11420000,0.1279285,0.12495959,0.00062191486,0.0,0.0,-0.08
11456000,0.12774949,0.124995634,0.0006211996,0.0,0.0,-0.08
11484000,0.12783909,0.124863245,0.0006210208,0.0,0.0,-0.08
11512000,0.12850672,0.12485453,0.0006238818,0.0,0.0,-0.08
11548000,0.12869862,0.12456621,0.000623703,0.0,0.0,-0.08
11580000,0.12847213,0.12418979,0.00062066317,0.0,0.0,-0.08
11612000,0.12844175,0.12349656,0.00061672926,0.0,0.0,-0.08
11644000,0.12875634,0.12342663,0.0006183386,0.0,0.0,-0.08
11676000,0.12836811,0.12292586,0.0006136894,0.0,0.0,-0.08
11712000,0.12822384,0.12283893,0.00061261654,0.0,0.0,-0.08
11740000,0.12826736,0.12311927,0.00061422586,0.0,0.0,-0.08
11776000,0.12748194,0.12299535,0.00060993433,0.0,0.0,-0.08
11804000,0.1275438,0.12222936,0.00060617924,0.0,0.0,-0.08
11836000,0.12721471,0.12202033,0.00060385466,0.0,0.0,-0.08
11868000,0.12687078,0.121999815,0.0006020665,0.0,0.0,-0.08
11900000,0.12674774,0.12219709,0.00060224533,0.0,0.0,-0.08
11932000,0.12680775,0.12185313,0.000600636,0.0,0.0,-0.08
11968000,0.12635544,0.12249504,0.0006020665,0.0,0.0,-0.08
12000000,0.1263414,0.12279241,0.0006033182,0.0,0.0,-0.08
12028000,0.12636702,0.12314375,0.00060510635,0.0,0.0,-0.08
12064000,0.12620279,0.123350486,0.000605464,0.0,0.0,-0.08
12096000,0.12645215,0.1241148,0.0006104708,0.0,0.0,-0.08
12124000,0.12642534,0.12435213,0.00061154366,0.0,0.0,-0.08
12156000,0.12650007,0.12446314,0.0006122589,0.0,0.0,-0.08
12188000,0.12624528,0.12454042,0.00049209595,0.0,0.0,-0.08
12224000,0.12605152,0.12470208,0.0010750294,0.0,0.0,-0.08
12252000,0.1260503,0.1250045,0.0013411045,0.0,0.0,-0.08
12284000,0.12620844,0.12570089,0.0013452172,0.0,0.0,-0.08
12316000,0.12706102,0.12527855,0.0014419556,0.0,0.0,-0.08
12348000,0.12713219,0.12506726,0.0015478134,0.0,0.0,-0.08
12380000,0.12761357,0.12492185,0.0017983317,0.0,0.0,-0.08
12412000,0.12722829,0.12519687,0.0024200678,0.0,0.0,-0.08
12444000,0.12718959,0.124866426,0.0028916001,0.0,0.0,-0.08
12476000,0.12732723,0.12501805,0.0031474829,0.0,0.0,-0.08
12508000,0.12761234,0.1254141,0.0033518672,0.0,0.0,-0.08
12544000,0.1278013,0.12553978,0.0035748482,0.0,0.0,-0.08
12568000,0.1276426,0.12559941,0.0037558079,0.0,0.0,-0.08
12604000,0.12748258,0.12579209,0.0033495426,0.0,0.0,-0.08
12636000,0.12710118,0.12553664,0.0035228133,0.0,0.0,-0.08
12668000,0.12673074,0.12588602,0.0033473969,0.0,0.0,-0.08
12696000,0.12642479,0.12609306,0.0032513738,0.0,0.0,-0.08
12732000,0.12591155,0.1256835,0.0030140877,0.0,0.0,-0.08
12764000,0.12567116,0.12572826,0.0030124784,0.0,0.0,-0.08
12796000,0.12574333,0.1257709,0.0030307174,0.0,0.0,-0.08
12828000,0.1259326,0.12557071,0.0028386712,0.0,0.0,-0.08
12856000,0.12629783,0.1254272,0.0026239157,0.0,0.0,-0.08
12896000,0.12660217,0.12532537,0.0025173426,0.0,0.0,-0.08
12924000,0.1258887,0.12517235,0.0024181008,0.0,0.0,-0.08
12956000,0.12565622,0.12589198,0.0021602511,0.0,0.0,-0.08
12988000,0.12548614,0.12530266,0.0021797419,0.0,0.0,-0.08
13020000,0.12594154,0.12514031,0.0020404458,0.0,0.0,-0.08
13056000,0.12601663,0.12474406,0.0019322634,0.0,0.0,-0.08
13088000,0.12630585,0.12527305,0.0019267201,0.0,0.0,-0.08
13116000,0.12618394,0.1251734,0.0021212697,0.0,0.0,-0.08
13148000,0.12691672,0.1250594,0.0022915006,0.0,0.0,-0.08
13180000,0.12696883,0.12497089,0.00225842,0.0,0.0,-0.08
13212000,0.12705597,0.12440722,0.0023043752,0.0,0.0,-0.08
13240000,0.12739618,0.12477152,0.0025445223,0.0,0.0,-0.08
13276000,0.12783042,0.12458807,0.0025978088,0.0,0.0,-0.08
13312000,0.1277897,0.12486616,0.0027156472,0.0,0.0,-0.08
13340000,0.1277551,0.12547947,0.0027866364,0.0,0.0,-0.08
13368000,0.12792033,0.12560537,0.0027506948,0.0,0.0,-0.08
13404000,0.12739238,0.12524748,0.0028443933,0.0,0.0,-0.08
13436000,0.12676261,0.12542951,0.0028604865,0.0,0.0,-0.08
13468000,0.12648962,0.12568212,0.0032383204,0.0,0.0,-0.08
13500000,0.12613726,0.1259217,0.0034162402,0.0,0.0,-0.08
13532000,0.12611851,0.12592459,0.00330019,0.0,0.0,-0.08
13564000,0.1264253,0.12581092,0.0032923222,0.0,0.0,-0.08
13600000,0.12718818,0.12580357,0.0037311316,0.0,0.0,-0.08
13628000,0.12714303,0.12563288,0.003650844,0.0,0.0,-0.08
13660000,0.12673753,0.12588874,0.0038453937,0.0,0.0,-0.08
13692000,0.12707758,0.12567492,0.0038799047,0.0,0.0,-0.08
13724000,0.1277514,0.12593354,0.0037221909,0.0,0.0,-0.08
13760000,0.12708713,0.12597239,0.0034766793,0.0,0.0,-0.08
13788000,0.1273224,0.12576053,0.0031471252,0.0,0.0,-0.08
13820000,0.12698567,0.12569652,0.0029227138,0.0,0.0,-0.08
13852000,0.12741792,0.12563801,0.0026527047,0.0,0.0,-0.08
13884000,0.12716782,0.12517105,0.0024366975,0.0,0.0,-0.08
13916000,0.12694372,0.12520128,0.002208352,0.0,0.0,-0.08
13952000,0.12705182,0.12505442,0.0022022724,0.0,0.0,-0.08
13980000,0.1271219,0.12502915,0.0020513535,0.0,0.0,-0.08
14012000,0.1264648,0.12514433,0.0020395517,0.0,0.0,-0.08
14044000,0.1274258,0.12518138,0.0020304322,0.0,0.0,-0.08
14072000,0.12777898,0.12448311,0.0019812584,0.0,0.0,-0.08
14112000,0.12753859,0.12375638,0.0021148324,0.0,0.0,-0.08
14140000,0.128155,0.123509645,0.0020660162,0.0,0.0,-0.08
14172000,0.12790218,0.12360826,0.0019283295,0.0,0.0,-0.08
14204000,0.12760712,0.12322876,0.0019927025,0.0,0.0,-0.08
14236000,0.12803836,0.12364114,0.0020372272,0.0,0.0,-0.08
14272000,0.12777478,0.123025656,0.0023068786,0.0,0.0,-0.08
14304000,0.12804772,0.12336756,0.0023211837,0.0,0.0,-0.08
14332000,0.12783556,0.1230397,0.0023911,0.0,0.0,-0.08
14364000,0.12793043,0.12216553,0.0022589564,0.0,0.0,-0.08
14396000,0.12786943,0.12207349,0.0023254752,0.0,0.0,-0.08
14424000,0.12777808,0.12205471,0.0025185943,0.0,0.0,-0.08
14464000,0.12761796,0.122548096,0.0023510456,0.0,0.0,-0.08
14492000,0.1276967,0.12239742,0.0023896694,0.0,0.0,-0.08
14524000,0.12710279,0.12211445,0.0026316047,0.0,0.0,-0.08
14556000,0.12720925,0.121849135,0.0025758147,0.0,0.0,-0.08
14592000,0.12752226,0.12152975,0.0028953552,0.0,0.0,-0.08
14620000,0.12796494,0.12174235,0.0028710365,0.0,0.0,-0.08
14652000,0.12729368,0.12174204,0.0031523108,0.0,0.0,-0.08
14684000,0.12734178,0.122582376,0.003452003,0.0,0.0,-0.08
14720000,0.12715499,0.12242752,0.0036967993,0.0,0.0,-0.08
14744000,0.12699905,0.12238788,0.0036896467,0.0,0.0,-0.08
14780000,0.12744279,0.12258516,0.00395447,0.0,0.0,-0.08
14812000,0.12721062,0.122595616,0.0040808916,0.0,0.0,-0.08
14848000,0.12730986,0.12260337,0.003953576,0.0,0.0,-0.08
14880000,0.1270909,0.12258998,0.0037533045,0.0,0.0,-0.08
14912000,0.12708725,0.12203394,0.0037111044,0.0,0.0,-0.08
14944000,0.12705383,0.12183437,0.00373739,0.0,0.0,-0.08
14972000,0.12637532,0.12139237,0.0036234856,0.0,0.0,-0.08
15000000,0.1258755,0.12100512,0.0038639903,0.0,0.0,-0.08
15036000,0.12586266,0.12168902,0.0038750768,0.0,0.0,-0.08
15064000,0.12554856,0.12137394,0.00393641,0.0,0.0,-0.08
15100000,0.12595576,0.12121856,0.0037819147,0.0,0.0,-0.08
15132000,0.12548181,0.120982334,0.0037525892,0.0,0.0,-0.08
15164000,0.12481412,0.12104986,0.0035170913,0.0,0.0,-0.08
15192000,0.12509297,0.12090328,0.0033929944,0.0,0.0,-0.08
15228000,0.12485656,0.12044502,0.0031721592,0.0,0.0,-0.08
15260000,0.12522884,0.119880795,0.0030936599,0.0,0.0,-0.08
15292000,0.12491796,0.11912761,0.0030485988,0.0,0.0,-0.08
15324000,0.12491724,0.119061515,0.0029640198,0.0,0.0,-0.08
15360000,0.124665566,0.11864121,0.0030400157,0.0,0.0,-0.08
15392000,0.124921,0.11831622,0.0029679537,0.0,0.0,-0.08
15416000,0.12484947,0.118885316,0.002842784,0.0,0.0,-0.08
15456000,0.12516423,0.118187964,0.002982974,0.0,0.0,-0.08
15488000,0.12510683,0.11783509,0.002906084,0.0,0.0,-0.08
15520000,0.12464586,0.11767234,0.0027165413,0.0,0.0,-0.08
15552000,0.124889314,0.11731987,0.0026190877,0.0,0.0,-0.08
15576000,0.12438953,0.117332175,0.0026471615,0.0,0.0,-0.08
15612000,0.12412217,0.11734396,0.0027521253,0.0,0.0,-0.08
15640000,0.12427889,0.116947174,0.0025128722,0.0,0.0,-0.08
15676000,0.124897495,0.11647537,0.0023839474,0.0,0.0,-0.08
15708000,0.12522146,0.11643257,0.002041161,0.0,0.0,-0.08
15744000,0.12548666,0.11619184,0.0017511249,0.0,0.0,-0.08
15772000,0.125496,0.11570005,0.0016692281,0.0,0.0,-0.08
15804000,0.1256762,0.115187615,0.0019242167,0.0,0.0,-0.08
15836000,0.12566054,0.11467557,0.0016109347,0.0,0.0,-0.08
15864000,0.12594943,0.11412245,0.0015120506,0.0,0.0,-0.08
15904000,0.12659797,0.114069045,0.0015007854,0.0,0.0,-0.08
15932000,0.12604563,0.11396934,0.0016601086,0.0,0.0,-0.08
15968000,0.12666835,0.11366047,0.001353085,0.0,0.0,-0.08
15996000,0.12679519,0.11413306,0.0013727546,0.0,0.0,-0.08
16028000,0.12723339,0.11369367,0.001470387,0.0,0.0,-0.08
16060000,0.12755448,0.114000455,0.0015581846,0.0,0.0,-0.08
16087999,0.12732814,0.113792785,0.0013414621,0.0,0.0,-0.08
16124000,0.12722075,0.11321832,0.0012928247,0.0,0.0,-0.08
16151999,0.12701124,0.11326681,0.0011698008,0.0,0.0,-0.08
16188000,0.12621307,0.11294116,0.0010768175,0.0,0.0,-0.08
16224000,0.12661096,0.112939864,0.0009409189,0.0,0.0,-0.08
16256000,0.12692487,0.11271906,0.0009575486,0.0,0.0,-0.08
16288000,0.12675366,0.11213151,0.00081574917,0.0,0.0,-0.08
16320000,0.12677628,0.112482525,0.0008239746,0.0,0.0,-0.08
16352000,0.12671123,0.112620115,0.0008917451,0.0,0.0,-0.08
16380000,0.12631868,0.11308892,0.0009300113,0.0,0.0,-0.08
16412000,0.126101,0.11284167,0.0010489225,0.0,0.0,-0.08
16448000,0.12686063,0.11323117,0.0010821819,0.0,0.0,-0.08
16480000,0.12705886,0.113558404,0.0011447668,0.0,0.0,-0.08
16508000,0.12735674,0.113182716,0.0014296174,0.0,0.0,-0.08
16544000,0.12757897,0.1136441,0.0016642213,0.0,0.0,-0.08
16575999,0.12799463,0.11313806,0.0015889406,0.0,0.0,-0.08
16604000,0.12811843,0.11347425,0.0016765594,0.0,0.0,-0.08
16636000,0.12870762,0.113363504,0.0016533136,0.0,0.0,-0.08
16671999,0.1286479,0.11336495,0.0014285445,0.0,0.0,-0.08
16703999,0.12922558,0.11333117,0.0013210773,0.0,0.0,-0.08
16732000,0.12928177,0.112920195,0.0011966228,0.0,0.0,-0.08
16764000,0.12960045,0.11308732,0.0012533069,0.0,0.0,-0.08
16800000,0.12961017,0.11305723,0.0014691353,0.0,0.0,-0.08
16828000,0.1296658,0.112735145,0.0013706088,0.0,0.0,-0.08
16860000,0.12967724,0.11278628,0.0012808442,0.0,0.0,-0.08
16896000,0.1298106,0.112656645,0.0011216998,0.0,0.0,-0.08
16924000,0.12957291,0.11238702,0.001208961,0.0,0.0,-0.08
16956000,0.12962417,0.11210384,0.0013001561,0.0,0.0,-0.08
16984000,0.12950593,0.112732686,0.0013922453,0.0,0.0,-0.08
17024000,0.12966411,0.11321151,0.0014369488,0.0,0.0,-0.08
17056000,0.12975834,0.11305913,0.001748085,0.0,0.0,-0.08
17084000,0.13036695,0.112439364,0.001585722,0.0,0.0,-0.08
17112000,0.13065185,0.11234658,0.0016502738,0.0,0.0,-0.08
17148000,0.13145132,0.11273828,0.0016332865,0.0,0.0,-0.08
17180000,0.1310262,0.11282843,0.0015419126,0.0,0.0,-0.08
17212000,0.1311614,0.11289464,0.0017482638,0.0,0.0,-0.08
17248000,0.13019502,0.112486556,0.00196141,0.0,0.0,-0.08
17276000,0.1295123,0.11270904,0.0019819736,0.0,0.0,-0.08
17304000,0.12882054,0.11262066,0.0022158623,0.0,0.0,-0.08
17340000,0.12893079,0.11300091,0.0025606155,0.0,0.0,-0.08
17376000,0.12839407,0.11332664,0.0029007196,0.0,0.0,-0.08
17404000,0.12837043,0.11275336,0.002846539,0.0,0.0,-0.08
17436000,0.12823948,0.11267591,0.0029327273,0.0,0.0,-0.08
17472000,0.12817824,0.112722784,0.0030171275,0.0,0.0,-0.08
17500000,0.12787476,0.1126832,0.0030033588,0.0,0.0,-0.08
17532000,0.12816809,0.11199821,0.0030353665,0.0,0.0,-0.08
17564000,0.1281146,0.11169011,0.002778411,0.0,0.0,-0.08
17596000,0.12780713,0.11125899,0.002515912,0.0,0.0,-0.08
17628000,0.12743463,0.11106025,0.0023431778,0.0,0.0,-0.08
17660000,0.12717608,0.110895514,0.002076745,0.0,0.0,-0.08
17692000,0.12743269,0.110549256,0.0020350814,0.0,0.0,-0.08
17728000,0.12740248,0.10969859,0.0020020008,0.0,0.0,-0.08
17756000,0.1279335,0.11013159,0.0018732548,0.0,0.0,-0.08
17788000,0.12844518,0.11029275,0.0017582774,0.0,0.0,-0.08
17820000,0.1289956,0.11056459,0.0017391443,0.0,0.0,-0.08
17852000,0.12889855,0.11060605,0.0015819669,0.0,0.0,-0.08
17884000,0.12857342,0.110676035,0.0015624762,0.0,0.0,-0.08
17916000,0.12845927,0.110295326,0.001719296,0.0,0.0,-0.08
17944000,0.12949851,0.110223874,0.0014784336,0.0,0.0,-0.08
17980000,0.12917891,0.11007495,0.0015015006,0.0,0.0,-0.08
18008000,0.1289504,0.109704606,0.001322329,0.0,0.0,-0.08
18044000,0.12826416,0.10957463,0.0015115142,0.0,0.0,-0.08
18076000,0.12785976,0.1094498,0.0015308261,0.0,0.0,-0.08
18112000,0.1278683,0.1095051,0.001780808,0.0,0.0,-0.08
18144000,0.12731996,0.11000626,0.0015690923,0.0,0.0,-0.08
18172000,0.1270818,0.11039219,0.0015560389,0.0,0.0,-0.08
18204000,0.12731493,0.11049628,0.0018889904,0.0,0.0,-0.08
18236000,0.12764028,0.110103145,0.0017155409,0.0,0.0,-0.08
18268000,0.12821402,0.11036358,0.0015467405,0.0,0.0,-0.08
18300000,0.12831295,0.11002904,0.001537621,0.0,0.0,-0.08
18332000,0.12875767,0.109653264,0.0017373562,0.0,0.0,-0.08
18364000,0.1288327,0.10957944,0.0017527342,0.0,0.0,-0.08
18396000,0.1289028,0.109337926,0.0018568039,0.0,0.0,-0.08
18428000,0.1290954,0.10937988,0.0017700791,0.0,0.0,-0.08
18464000,0.12933615,0.10880004,0.0016930103,0.0,0.0,-0.08
18492000,0.12955922,0.10835762,0.0016715527,0.0,0.0,-0.08
18524000,0.1298389,0.10877843,0.0017359257,0.0,0.0,-0.08
18556000,0.13012514,0.10862314,0.0016434789,0.0,0.0,-0.08
18588000,0.13003078,0.10906226,0.0017171502,0.0,0.0,-0.08
18620000,0.13004318,0.109152295,0.0019581914,0.0,0.0,-0.08
18652000,0.12984934,0.10901454,0.0019329786,0.0,0.0,-0.08
18684000,0.13054334,0.108649164,0.0020722747,0.0,0.0,-0.08
18720000,0.13005319,0.10851453,0.0023533702,0.0,0.0,-0.08
18744000,0.13016373,0.10851742,0.0023009777,0.0,0.0,-0.08
18780000,0.13007486,0.10879083,0.0021615028,0.0,0.0,-0.08
18812000,0.13024533,0.10859261,0.002098024,0.0,0.0,-0.08
18844000,0.13027048,0.10898021,0.0020357966,0.0,0.0,-0.08
18876000,0.12996762,0.108747415,0.0020241737,0.0,0.0,-0.08
18908000,0.13032152,0.10841447,0.0018013716,0.0,0.0,-0.08
18944000,0.13061893,0.107515834,0.002265215,0.0,0.0,-0.08
18972000,0.13071865,0.10736503,0.0024091601,0.0,0.0,-0.08
19004000,0.1306451,0.1070473,0.0024046898,0.0,0.0,-0.08
19036000,0.13028476,0.10665955,0.0028356314,0.0,0.0,-0.08
19064000,0.13103944,0.10663951,0.0028826594,0.0,0.0,-0.08
19096000,0.13059741,0.10643151,0.0032672882,0.0,0.0,-0.08
19132000,0.13043487,0.10700278,0.0031505227,0.0,0.0,-0.08
19168000,0.12995109,0.106666654,0.003383696,0.0,0.0,-0.08
19196000,0.129743,0.107284896,0.0032883883,0.0,0.0,-0.08
19232000,0.12976362,0.10709938,0.0031496286,0.0,0.0,-0.08
19264000,0.12946862,0.10682635,0.0031324625,0.0,0.0,-0.08
19292000,0.1290629,0.10693511,0.0034047961,0.0,0.0,-0.08
19328000,0.12935288,0.10642657,0.0034922361,0.0,0.0,-0.08
19356000,0.12973286,0.1063399,0.003555715,0.0,0.0,-0.08
19392000,0.12972593,0.106318094,0.0034949183,0.0,0.0,-0.08
19420000,0.13017309,0.10637851,0.0033724308,0.0,0.0,-0.08
19452000,0.13034861,0.10647804,0.0035170913,0.0,0.0,-0.08
19484000,0.13011418,0.10667072,0.003634572,0.0,0.0,-0.08
19516000,0.13074924,0.106710136,0.0036830306,0.0,0.0,-0.08
19548000,0.13015741,0.10625844,0.0035848618,0.0,0.0,-0.08
19580000,0.13029566,0.10654473,0.0035566092,0.0,0.0,-0.08
19616000,0.13032983,0.106250815,0.0035464168,0.0,0.0,-0.08
19644000,0.12972166,0.10670742,0.0033336282,0.0,0.0,-0.08
19680000,0.13003045,0.106701784,0.0034900904,0.0,0.0,-0.08
19712000,0.12955973,0.10652973,0.0032758713,0.0,0.0,-0.08
19740000,0.13011298,0.106527135,0.003296256,0.0,0.0,-0.08
19772000,0.13014972,0.10674082,0.003285706,0.0,0.0,-0.08
19804000,0.13033639,0.10639601,0.003312707,0.0,0.0,-0.08
19840000,0.12950334,0.10566217,0.0033230782,0.0,0.0,-0.08
19868000,0.12892097,0.10548071,0.003267467,0.0,0.0,-0.08
19900000,0.1284327,0.10525299,0.00308007,0.0,0.0,-0.08
19932000,0.12817939,0.10480602,0.0031741261,0.0,0.0,-0.08
19964000,0.12797187,0.105468795,0.003150165,0.0,0.0,-0.08
19996000,0.12756526,0.10481301,0.0033307672,0.0,0.0,-0.08
20032000,0.12704644,0.10475342,0.0032249093,0.0,0.0,-0.08
20060000,0.12703559,0.10426627,0.0030689836,0.0,0.0,-0.08
20092000,0.12709047,0.103963695,0.003262639,0.0,0.0,-0.08
20124000,0.12735832,0.10385038,0.0031664371,0.0,0.0,-0.08
20156000,0.12671113,0.10392712,0.0031726956,0.0,0.0,-0.08
20188000,0.12677053,0.104137905,0.0032188296,0.0,0.0,-0.08
20220000,0.1274156,0.104545504,0.0032773018,0.0,0.0,-0.08
20252000,0.12723425,0.10451336,0.0033205748,0.0,0.0,-0.08
20288000,0.12671217,0.104660004,0.002962947,0.0,0.0,-0.08
20316000,0.12612243,0.104474254,0.0029134154,0.0,0.0,-0.08
20348000,0.12649804,0.10398883,0.00287354,0.0,0.0,-0.08
20380000,0.12699445,0.104444385,0.0026650429,0.0,0.0,-0.08
20416000,0.12690896,0.10465635,0.00288105,0.0,0.0,-0.08
20444000,0.12682551,0.1050237,0.002843678,0.0,0.0,-0.08
20476000,0.12642795,0.105585575,0.0028726459,0.0,0.0,-0.08
20508000,0.12614089,0.10564172,0.0029608011,0.0,0.0,-0.08
20540000,0.12610543,0.10531656,0.0030471683,0.0,0.0,-0.08
20572000,0.12605964,0.10511289,0.0031462312,0.0,0.0,-0.08
20604000,0.12593414,0.10484444,0.0032440424,0.0,0.0,-0.08
20636000,0.12644611,0.10411256,0.003272295,0.0,0.0,-0.08
20668000,0.12673675,0.10415396,0.0035709143,0.0,0.0,-0.08
20700000,0.12734266,0.103753835,0.0032063127,0.0,0.0,-0.08
20732000,0.12726486,0.10373096,0.0031144023,0.0,0.0,-0.08
20760000,0.12786312,0.10317962,0.0031328201,0.0,0.0,-0.08
20796000,0.12740774,0.10252677,0.0027076006,0.0,0.0,-0.08
20828000,0.12733607,0.10284794,0.0027297735,0.0,0.0,-0.08
20860000,0.12687579,0.10377258,0.0023556948,0.0,0.0,-0.08
20892000,0.1265386,0.104013264,0.0023186803,0.0,0.0,-0.08
20924000,0.1266182,0.104017206,0.0023614168,0.0,0.0,-0.08
20956000,0.12658918,0.10450548,0.0023396015,0.0,0.0,-0.08
20992000,0.12642899,0.10406902,0.002319038,0.0,0.0,-0.08
21024000,0.12648667,0.103636965,0.0022126436,0.0,0.0,-0.08
21052000,0.12690197,0.10356735,0.0021697283,0.0,0.0,-0.08
21084000,0.12703207,0.10385983,0.002224803,0.0,0.0,-0.08
21116000,0.12738301,0.10443108,0.0022788048,0.0,0.0,-0.08
21148000,0.12766543,0.104101434,0.0022446513,0.0,0.0,-0.08
21184000,0.12721774,0.10455235,0.0021684766,0.0,0.0,-0.08
21212000,0.12760714,0.105205506,0.0022335649,0.0,0.0,-0.08
21244000,0.12715589,0.10527134,0.002490878,0.0,0.0,-0.08
21276000,0.12752593,0.10570076,0.00262928,0.0,0.0,-0.08
21304000,0.12786263,0.10656119,0.002461195,0.0,0.0,-0.08
21340000,0.1280547,0.10647039,0.0024733543,0.0,0.0,-0.08
21372000,0.12760457,0.1067912,0.0025185943,0.0,0.0,-0.08
21404000,0.12789959,0.106940985,0.0027823448,0.0,0.0,-0.08
21436000,0.12783356,0.107642815,0.0026646852,0.0,0.0,-0.08
21468000,0.1276846,0.10788749,0.0026280284,0.0,0.0,-0.08
21500000,0.12763444,0.107745856,0.0028506517,0.0,0.0,-0.08
21532000,0.12718861,0.10770072,0.0028452873,0.0,0.0,-0.08
21564000,0.12728478,0.107632846,0.0030178428,0.0,0.0,-0.08
21596000,0.12747236,0.10829182,0.0031562448,0.0,0.0,-0.08
21624000,0.12698117,0.10775057,0.0029890537,0.0,0.0,-0.08
21656000,0.12692226,0.108087555,0.0029727817,0.0,0.0,-0.08
21692000,0.12669063,0.10774941,0.0026500225,0.0,0.0,-0.08
21724000,0.1265715,0.10780947,0.0026965141,0.0,0.0,-0.08
21760000,0.12719168,0.10779868,0.0030362606,0.0,0.0,-0.08
21784000,0.12696032,0.10787843,0.0030736327,0.0,0.0,-0.08
21820000,0.12655994,0.107827015,0.0030632615,0.0,0.0,-0.08
21856000,0.1266933,0.107950374,0.0032064915,0.0,0.0,-0.08
21884000,0.12660341,0.10785891,0.0032533407,0.0,0.0,-0.08
21920000,0.12633999,0.10776234,0.0032749772,0.0,0.0,-0.08
21948000,0.12601234,0.10814032,0.0034487844,0.0,0.0,-0.08
21980000,0.12577263,0.10828477,0.0035837889,0.0,0.0,-0.08
22012000,0.12548119,0.10803312,0.0038952827,0.0,0.0,-0.08
22048000,0.12481436,0.108180344,0.0042148232,0.0,0.0,-0.08
22072000,0.12455776,0.1081027,0.0043559074,0.0,0.0,-0.08
22108000,0.12464116,0.10820207,0.004411876,0.0,0.0,-0.08
22136000,0.12437285,0.107978225,0.0042470098,0.0,0.0,-0.08
22172000,0.12439211,0.10803126,0.0042654276,0.0,0.0,-0.08
22200000,0.12437374,0.10814802,0.0041849613,0.0,0.0,-0.08
22236000,0.12422367,0.10813069,0.0046786666,0.0,0.0,-0.08
22264000,0.124043316,0.107769534,0.0049093366,0.0,0.0,-0.08
22300000,0.12366345,0.10724652,0.0047621727,0.0,0.0,-0.08
22332000,0.123867005,0.106928915,0.0047366023,0.0,0.0,-0.08
22368000,0.123500794,0.10655688,0.0049121976,0.0,0.0,-0.08
22396000,0.123909295,0.10696694,0.0049813986,0.0,0.0,-0.08
22428000,0.12448202,0.10759715,0.004734993,0.0,0.0,-0.08
22460000,0.124276735,0.10758311,0.0044673085,0.0,0.0,-0.08
22492000,0.12445787,0.10745951,0.004697442,0.0,0.0,-0.08
22520000,0.12459245,0.10699448,0.0047957897,0.0,0.0,-0.08
22560000,0.12444845,0.10723683,0.00469923,0.0,0.0,-0.08
22588000,0.12457976,0.10653944,0.0048671365,0.0,0.0,-0.08
22620000,0.12440253,0.10667983,0.0050611496,0.0,0.0,-0.08
22656000,0.12471813,0.106219724,0.005166471,0.0,0.0,-0.08
22684000,0.12463859,0.10632157,0.005200982,0.0,0.0,-0.08
22712000,0.124919705,0.10658574,0.005108893,0.0,0.0,-0.08
22744000,0.12474887,0.10717278,0.005064726,0.0,0.0,-0.08
22780000,0.125063,0.10743879,0.0048778653,0.0,0.0,-0.08
22812000,0.1250425,0.107000366,0.004874289,0.0,0.0,-0.08
22844000,0.12457901,0.10723387,0.00507313,0.0,0.0,-0.08
22880000,0.12443207,0.10704814,0.004809022,0.0,0.0,-0.08
22912000,0.12462073,0.10669321,0.004933119,0.0,0.0,-0.08
22940000,0.12477319,0.10649297,0.0049189925,0.0,0.0,-0.08
22968000,0.12471461,0.107359946,0.0049543977,0.0,0.0,-0.08
23004000,0.12439909,0.10765989,0.0047163963,0.0,0.0,-0.08
23040000,0.12460294,0.10793202,0.0048295856,0.0,0.0,-0.08
23072000,0.124592036,0.108217314,0.0046797395,0.0,0.0,-0.08
23100000,0.12453228,0.1081398,0.0047822,0.0,0.0,-0.08
23132000,0.12480864,0.10771173,0.0045488477,0.0,0.0,-0.08
23160000,0.12466104,0.10732877,0.004708886,0.0,0.0,-0.08
23200000,0.12442228,0.1076921,0.004748583,0.0,0.0,-0.08
23228000,0.124659434,0.1075085,0.0048574805,0.0,0.0,-0.08
23260000,0.1248539,0.106999815,0.0052419305,0.0,0.0,-0.08
23292000,0.12476579,0.10662905,0.005288422,0.0,0.0,-0.08
23324000,0.12453047,0.106839836,0.0052689314,0.0,0.0,-0.08
23352000,0.12424983,0.107169956,0.0051187277,0.0,0.0,-0.08
23392000,0.12421715,0.107318476,0.0051873922,0.0,0.0,-0.08
23420000,0.124287546,0.10759577,0.005270183,0.0,0.0,-0.08
23456000,0.12429352,0.10817338,0.00525409,0.0,0.0,-0.08
23488000,0.1240139,0.10790842,0.005378902,0.0,0.0,-0.08
23516000,0.12430383,0.10719885,0.0056376457,0.0,0.0,-0.08
23548000,0.12412423,0.10792732,0.0058658123,0.0,0.0,-0.08
23576000,0.1236478,0.10770951,0.0060147643,0.0,0.0,-0.08
23612000,0.123394415,0.10767055,0.006091118,0.0,0.0,-0.08
23644000,0.12370275,0.10725812,0.006350398,0.0,0.0,-0.08
23676000,0.123827934,0.10753858,0.006415665,0.0,0.0,-0.08
23708000,0.12364799,0.10723201,0.006364703,0.0,0.0,-0.08
23744000,0.12361619,0.10696232,0.0067217946,0.0,0.0,-0.08
23776000,0.123756245,0.10596347,0.006724119,0.0,0.0,-0.08
23804000,0.12309897,0.10530252,0.0067765117,0.0,0.0,-0.08
23836000,0.12330425,0.10531424,0.006744683,0.0,0.0,-0.08
23868000,0.122885205,0.105765134,0.0068458915,0.0,0.0,-0.08
23900000,0.12316961,0.10623415,0.006800294,0.0,0.0,-0.08
23932000,0.12253415,0.10610652,0.0066881776,0.0,0.0,-0.08
23968000,0.12319842,0.1060661,0.0065258145,0.0,0.0,-0.08
23996000,0.12358782,0.10630599,0.006211281,0.0,0.0,-0.08
24028000,0.12362367,0.10561614,0.0059847236,0.0,0.0,-0.08
24060000,0.1237759,0.105482295,0.0062415004,0.0,0.0,-0.08
24092000,0.12332894,0.105509944,0.006149411,0.0,0.0,-0.08
24124000,0.12258975,0.105863094,0.006293714,0.0,0.0,-0.08
24156000,0.12275284,0.105733916,0.0063663125,0.0,0.0,-0.08
24188000,0.122726426,0.10558044,0.006166756,0.0,0.0,-0.08
24224000,0.12200609,0.10581192,0.0061782002,0.0,0.0,-0.08
24252000,0.12184252,0.10579618,0.0060365796,0.0,0.0,-0.08
24284000,0.12194574,0.10617919,0.005899608,0.0,0.0,-0.08
24316000,0.12212573,0.10568234,0.005631745,0.0,0.0,-0.08
24348000,0.12188497,0.10554436,0.0056215525,0.0,0.0,-0.08
24380000,0.12190987,0.10521437,0.0056580305,0.0,0.0,-0.08
24412000,0.1216568,0.105304,0.0054591894,0.0,0.0,-0.08
24444000,0.12154021,0.10482052,0.00550586,0.0,0.0,-0.08
24472000,0.12190338,0.10520346,0.0054992437,0.0,0.0,-0.08
24508000,0.12207778,0.1056661,0.0055051446,0.0,0.0,-0.08
24536000,0.12183288,0.106011555,0.0054563284,0.0,0.0,-0.08
24572000,0.12173867,0.10588759,0.0053363442,0.0,0.0,-0.08
24604000,0.121835515,0.10595833,0.0050699115,0.0,0.0,-0.08
24636000,0.12186988,0.10635368,0.005125344,0.0,0.0,-0.08
24668000,0.1216972,0.10636772,0.005115509,0.0,0.0,-0.08
24704000,0.12183691,0.1061061,0.0052474737,0.0,0.0,-0.08
24736000,0.1219068,0.10604187,0.005053997,0.0,0.0,-0.08
24764000,0.12222985,0.10642194,0.004912019,0.0,0.0,-0.08
24796000,0.12255067,0.10697255,0.004798472,0.0,0.0,-0.08
24828000,0.122130096,0.10751815,0.0050604343,0.0,0.0,-0.08
24860000,0.12164676,0.10756094,0.004916668,0.0,0.0,-0.08
24896000,0.12192266,0.10763298,0.004730344,0.0,0.0,-0.08
24924000,0.12158039,0.10763535,0.0047834516,0.0,0.0,-0.08
24952000,0.12200533,0.10751936,0.0045136213,0.0,0.0,-0.08
24988000,0.1222653,0.10834061,0.0042605996,0.0,0.0,-0.08
25024000,0.12194547,0.10866067,0.0040715933,0.0,0.0,-0.08
25052000,0.12179006,0.10879111,0.003843069,0.0,0.0,-0.08
25088000,0.12210066,0.109446734,0.0036476254,0.0,0.0,-0.08
25116000,0.12208861,0.1103051,0.003306985,0.0,0.0,-0.08
25152000,0.12195774,0.11017409,0.0031346083,0.0,0.0,-0.08
25176000,0.12180445,0.11063171,0.0031240582,0.0,0.0,-0.08
25212000,0.12118676,0.11078009,0.0030106902,0.0,0.0,-0.08
25248000,0.12121591,0.110522225,0.003121376,0.0,0.0,-0.08
25280000,0.12120279,0.110572085,0.0030766726,0.0,0.0,-0.08
25308000,0.120698914,0.11064793,0.0032240152,0.0,0.0,-0.08
25344000,0.120574474,0.11062774,0.003242433,0.0,0.0,-0.08
25376000,0.12032472,0.1110533,0.003414452,0.0,0.0,-0.08
25408000,0.120325014,0.111430116,0.0037078857,0.0,0.0,-0.08
25436000,0.12066299,0.11125063,0.0034191012,0.0,0.0,-0.08
25468000,0.12107297,0.11180329,0.0033332705,0.0,0.0,-0.08
25500000,0.12181948,0.11184098,0.0031875372,0.0,0.0,-0.08
25532000,0.12144062,0.11203158,0.0033034086,0.0,0.0,-0.08
25568000,0.12150762,0.112335905,0.0032383204,0.0,0.0,-0.08
25596000,0.12167195,0.11271458,0.0032113194,0.0,0.0,-0.08
25632000,0.122143075,0.11255231,0.0032880306,0.0,0.0,-0.08
25660000,0.12197661,0.11296,0.0037579536,0.0,0.0,-0.08
25692000,0.12210363,0.11189615,0.0037924647,0.0,0.0,-0.08
25724000,0.12171404,0.11186704,0.0037638545,0.0,0.0,-0.08
25760000,0.12155239,0.11175281,0.0038788319,0.0,0.0,-0.08
25788000,0.12153797,0.11176501,0.0039936304,0.0,0.0,-0.08
25824000,0.12169625,0.112476975,0.003837347,0.0,0.0,-0.08
25852000,0.121336535,0.11232671,0.003856659,0.0,0.0,-0.08
25884000,0.12103368,0.11188363,0.003853619,0.0,0.0,-0.08
25916000,0.12115148,0.111404344,0.003745079,0.0,0.0,-0.08
25952000,0.12125346,0.11151324,0.003781736,0.0,0.0,-0.08
25980000,0.12112451,0.11186184,0.0038255453,0.0,0.0,-0.08
26016000,0.121560305,0.11157365,0.0040665865,0.0,0.0,-0.08
26044000,0.12134877,0.1117371,0.004301369,0.0,0.0,-0.08
26080000,0.121154085,0.11167911,0.0044921637,0.0,0.0,-0.08
26108000,0.12089952,0.1118564,0.0046489835,0.0,0.0,-0.08
26140000,0.121203005,0.111693025,0.00493294,0.0,0.0,-0.08
26172000,0.12129358,0.1120556,0.004810989,0.0,0.0,-0.08
26204000,0.12114419,0.112040594,0.0049681664,0.0,0.0,-0.08
26236000,0.121897794,0.11222123,0.0047979355,0.0,0.0,-0.08
26268000,0.12128974,0.11206421,0.0049958825,0.0,0.0,-0.08
26300000,0.12061642,0.11202614,0.0050756335,0.0,0.0,-0.08
26332000,0.12046453,0.1120846,0.0054734945,0.0,0.0,-0.08
26364000,0.12103169,0.11212249,0.00542593,0.0,0.0,-0.08
26396000,0.121377714,0.11156735,0.0057492256,0.0,0.0,-0.08
26432000,0.121432945,0.11061883,0.0057628155,0.0,0.0,-0.08
26464000,0.12106177,0.11068897,0.0056290627,0.0,0.0,-0.08
26492000,0.12113136,0.110950336,0.0056156516,0.0,0.0,-0.08
26524000,0.121265545,0.11124286,0.0057004094,0.0,0.0,-0.08
26556000,0.12100001,0.11105898,0.0054438114,0.0,0.0,-0.08
26588000,0.12083478,0.111422405,0.005251229,0.0,0.0,-0.08
26620000,0.1209837,0.11122234,0.005327761,0.0,0.0,-0.08
26652000,0.12171732,0.11079577,0.005370319,0.0,0.0,-0.08
26688000,0.12212598,0.11085102,0.0052292347,0.0,0.0,-0.08
26716000,0.12259461,0.11082971,0.0052860975,0.0,0.0,-0.08
26748000,0.123010956,0.111326694,0.0051854253,0.0,0.0,-0.08
26780000,0.1228692,0.110993095,0.0053869486,0.0,0.0,-0.08
26816000,0.12270125,0.111343704,0.0054649115,0.0,0.0,-0.08
26844000,0.12276623,0.111878276,0.005202234,0.0,0.0,-0.08
26876000,0.12259515,0.11193156,0.005027175,0.0,0.0,-0.08
26912000,0.121916994,0.111268446,0.0047882795,0.0,0.0,-0.08
26940000,0.12148942,0.11194806,0.00474751,0.0,0.0,-0.08
26972000,0.121134125,0.11214721,0.004952967,0.0,0.0,-0.08
27004000,0.12116562,0.11172843,0.0050151944,0.0,0.0,-0.08
27036000,0.12059214,0.112551644,0.0049813986,0.0,0.0,-0.08
27072000,0.12111263,0.11260848,0.0050486326,0.0,0.0,-0.08
27096000,0.12127239,0.11202807,0.005110681,0.0,0.0,-0.08
27132000,0.1210778,0.11281749,0.0047526956,0.0,0.0,-0.08
27164000,0.120372534,0.11243476,0.0047614574,0.0,0.0,-0.08
27196000,0.12018211,0.11246896,0.0048333406,0.0,0.0,-0.08
27228000,0.11985109,0.11254169,0.0047410727,0.0,0.0,-0.08
27260000,0.120366246,0.112997554,0.004822254,0.0,0.0,-0.08
27292000,0.120335,0.11283873,0.004742503,0.0,0.0,-0.08
27324000,0.1203057,0.11305545,0.0047199726,0.0,0.0,-0.08
27352000,0.12044625,0.11306846,0.0045452714,0.0,0.0,-0.08
27388000,0.11996267,0.11376847,0.0045112967,0.0,0.0,-0.08
27424000,0.120414004,0.11351026,0.004486263,0.0,0.0,-0.08
27452000,0.12057672,0.11407994,0.0041148663,0.0,0.0,-0.08
27484000,0.12022374,0.1142235,0.0036878586,0.0,0.0,-0.08
27516000,0.12060794,0.11444349,0.0036088228,0.0,0.0,-0.08
27548000,0.12068262,0.11366238,0.0032440424,0.0,0.0,-0.08
27580000,0.12115203,0.113869585,0.003296256,0.0,0.0,-0.08
27616000,0.12112075,0.113597095,0.0033307672,0.0,0.0,-0.08
27640000,0.12170593,0.11370069,0.0034514666,0.0,0.0,-0.08
27676000,0.122385025,0.11323377,0.0033901334,0.0,0.0,-0.08
27708000,0.121861115,0.11366007,0.0034595132,0.0,0.0,-0.08
27740000,0.12118967,0.11419445,0.0034246445,0.0,0.0,-0.08
27772000,0.121066555,0.11437799,0.003487587,0.0,0.0,-0.08
27804000,0.12129526,0.11395274,0.003495276,0.0,0.0,-0.08
27836000,0.121512175,0.11308763,0.0033245087,0.0,0.0,-0.08
27868000,0.12117529,0.113552526,0.003053248,0.0,0.0,-0.08
27900000,0.12120126,0.11344421,0.0029076934,0.0,0.0,-0.08
27928000,0.12111061,0.11346215,0.0026367903,0.0,0.0,-0.08
27964000,0.12147644,0.11379966,0.0026251674,0.0,0.0,-0.08
27996000,0.121217385,0.11404831,0.0026194453,0.0,0.0,-0.08
28028000,0.12129198,0.114926696,0.00268507,0.0,0.0,-0.08
28060000,0.121506885,0.114879265,0.0028923154,0.0,0.0,-0.08
28092000,0.122463696,0.11496719,0.0027607083,0.0,0.0,-0.08
28120000,0.12329489,0.11442733,0.002676487,0.0,0.0,-0.08
28152000,0.12277785,0.1142457,0.0025895834,0.0,0.0,-0.08
28188000,0.122587845,0.11469235,0.0026518106,0.0,0.0,-0.08
28224000,0.12237513,0.11491395,0.0023860931,0.0,0.0,-0.08
28252000,0.12203343,0.115166746,0.002179563,0.0,0.0,-0.08
28288000,0.12231117,0.11591835,0.002221942,0.0,0.0,-0.08
28312000,0.12214877,0.11590234,0.0019088387,0.0,0.0,-0.08
28348000,0.12232694,0.11573051,0.0014855862,0.0,0.0,-0.08
28380000,0.12226843,0.11628854,0.0016230941,0.0,0.0,-0.08
28412000,0.12208973,0.11612537,0.0014705658,0.0,0.0,-0.08
28444000,0.12171972,0.116103694,0.0013545156,0.0,0.0,-0.08
28476000,0.122030385,0.11571708,0.0012511611,0.0,0.0,-0.08
28508000,0.12235652,0.11591728,0.0013643503,0.0,0.0,-0.08
28540000,0.1221672,0.11665372,0.0012731552,0.0,0.0,-0.08
28572000,0.12217165,0.11757032,0.0014841557,0.0,0.0,-0.08
28600000,0.12256351,0.1173472,0.0015494227,0.0,0.0,-0.08
28640000,0.12239143,0.11731,0.0017647147,0.0,0.0,-0.08
28668000,0.12254773,0.11757721,0.0014374852,0.0,0.0,-0.08
28704000,0.12243812,0.11736138,0.0014716387,0.0,0.0,-0.08
28728000,0.122892424,0.11789169,0.0014916658,0.0,0.0,-0.08
28768000,0.122905016,0.11760613,0.0014044046,0.0,0.0,-0.08
28800000,0.12264407,0.11738779,0.0013636351,0.0,0.0,-0.08
28828000,0.12318894,0.11730206,0.0010424852,0.0,0.0,-0.08
28864000,0.12307273,0.117495306,0.0013124943,0.0,0.0,-0.08
28892000,0.12325148,0.1176606,0.0012892485,0.0,0.0,-0.08
28924000,0.123450994,0.11765557,0.0012661815,0.0,0.0,-0.08
28956000,0.123914815,0.118183866,0.0014095902,0.0,0.0,-0.08
28988000,0.12431554,0.11826399,0.0016692281,0.0,0.0,-0.08
29020000,0.1240184,0.11858643,0.0014519691,0.0,0.0,-0.08
29056000,0.12437311,0.11866619,0.0013836622,0.0,0.0,-0.08
29084000,0.124604985,0.11866343,0.0013965368,0.0,0.0,-0.08
29116000,0.123870715,0.11871399,0.0015285015,0.0,0.0,-0.08
29148000,0.123816445,0.11887872,0.0016461611,0.0,0.0,-0.08
29180000,0.12383533,0.118800044,0.0014331937,0.0,0.0,-0.08
29212000,0.123748876,0.119040266,0.0013731122,0.0,0.0,-0.08
29244000,0.12380042,0.11919462,0.0011327863,0.0,0.0,-0.08
29276000,0.12429658,0.11951461,0.0011183023,0.0,0.0,-0.08
29308000,0.124204054,0.119853735,0.0012055635,0.0,0.0,-0.08
29336000,0.12498394,0.12042146,0.0012286305,0.0,0.0,-0.08
29376000,0.124994576,0.12010532,0.0010356903,0.0,0.0,-0.08
29404000,0.12505475,0.1201734,0.0011574626,0.0,0.0,-0.08
29436000,0.1252869,0.120363034,0.0011816025,0.0,0.0,-0.08
29468000,0.12462467,0.12051652,0.0010814667,0.0,0.0,-0.08
29504000,0.12490597,0.12062111,0.0010575056,0.0,0.0,-0.08
29532000,0.12520689,0.120982245,0.0010703802,0.0,0.0,-0.08
29564000,0.12514599,0.12126542,0.0011529922,0.0,0.0,-0.08
29592000,0.12539226,0.12096451,0.0010832548,0.0,0.0,-0.08
29632000,0.12585814,0.12048629,0.00080806017,0.0,0.0,-0.08
29660000,0.1258698,0.120275274,0.0007558465,0.0,0.0,-0.08
29692000,0.12616861,0.12050779,0.00060528517,0.0,0.0,-0.08
29728000,0.12594543,0.12001676,0.00050354004,0.0,0.0,-0.08
29760000,0.12586051,0.119997635,0.00057810545,0.0,0.0,-0.08
29788000,0.12642719,0.12048152,0.00036799908,0.0,0.0,-0.08
29820000,0.1263975,0.11993845,0.00034493208,0.0,0.0,-0.08
29856000,0.12664953,0.12029415,0.00067073107,0.0,0.0,-0.08
29884000,0.12683682,0.12028022,0.00079250336,0.0,0.0,-0.08
29916000,0.12681985,0.12090819,0.0008838773,0.0,0.0,-0.08
29952000,0.12758905,0.12082492,0.00069898367,0.0,0.0,-0.08
29976000,0.12802264,0.12066344,0.00087314844,0.0,0.0,-0.08
30016000,0.12799731,0.12099344,0.0004736781,0.0,0.0,-0.08
30044000,0.128182,0.12138156,0.0006017089,0.0,0.0,-0.08
30076000,0.12799388,0.12186744,0.00048315525,0.0,0.0,-0.08
30108000,0.12772748,0.122003615,0.00064855814,0.0,0.0,-0.08
30140000,0.12744386,0.12100614,0.00089353323,0.0,0.0,-0.08
30176000,0.12830345,0.12099601,0.0008248687,0.0,0.0,-0.08
30208000,0.12823562,0.12109121,0.00086814165,0.0,0.0,-0.08
30240000,0.12843192,0.121845275,0.0007175803,0.0,0.0,-0.08
30268000,0.12846787,0.12243995,0.0001348257,0.0,0.0,-0.08
30300000,0.12848055,0.12265347,0.00039356947,0.0,0.0,-0.08
30332000,0.12845685,0.12254165,7.671118e-05,0.0,0.0,-0.08
30364000,0.12886257,0.12209202,-2.7894974e-05,0.0,0.0,-0.08
30392000,0.12887606,0.12234229,0.00031238794,0.0,0.0,-0.08
30428000,0.12865253,0.122089446,0.0004300475,0.0,0.0,-0.08
30460000,0.12817726,0.12222229,0.0008674264,0.0,0.0,-0.08
30488000,0.12880346,0.1218969,0.0008983612,0.0,0.0,-0.08
30520000,0.12847073,0.12187924,0.0009044409,0.0,0.0,-0.08
30556000,0.12842974,0.122372344,0.0008355975,0.0,0.0,-0.08
30588000,0.1288644,0.12305253,0.0008288026,0.0,0.0,-0.08
30616000,0.13004635,0.12360586,0.0006392598,0.0,0.0,-0.08
30652000,0.12980935,0.1236005,0.000692904,0.0,0.0,-0.08
30684000,0.13004304,0.12286817,0.00073474646,0.0,0.0,-0.08
30720000,0.13055183,0.12278609,0.00032883883,0.0,0.0,-0.08
30744000,0.13042481,0.12246513,0.00026267767,0.0,0.0,-0.08
30780000,0.13055128,0.12268731,0.00036531687,0.0,0.0,-0.08
30808000,0.13074657,0.122818545,0.0002360344,0.0,0.0,-0.08
30844000,0.13088275,0.122536644,0.0002875328,0.0,0.0,-0.08
30876000,0.13071276,0.12303282,0.00040626526,0.0,0.0,-0.08
30908000,0.13109498,0.123377524,0.00064998865,0.0,0.0,-0.08
30940000,0.13124526,0.1234808,0.00064247847,0.0,0.0,-0.08
30968000,0.1316907,0.12369457,0.0007866025,0.0,0.0,-0.08
31008000,0.1309109,0.12395714,0.0010898709,0.0,0.0,-0.08
31036000,0.13052537,0.12369199,0.0012400746,0.0,0.0,-0.08
31072000,0.13112476,0.12364918,0.0016433,0.0,0.0,-0.08
31104000,0.13102828,0.12378402,0.0015605092,0.0,0.0,-0.08
31132000,0.13122746,0.123799115,0.0018344522,0.0,0.0,-0.08
31164000,0.13188343,0.12422336,0.0021951199,0.0,0.0,-0.08
31196000,0.13198036,0.124083504,0.002266109,0.0,0.0,-0.08
31228000,0.13140316,0.12367198,0.0022841692,0.0,0.0,-0.08
31256000,0.13178623,0.12355768,0.0026010275,0.0,0.0,-0.08
31292000,0.1317598,0.12337567,0.002725482,0.0,0.0,-0.08
31324000,0.1317684,0.12368522,0.00321275,0.0,0.0,-0.08
31356000,0.1317382,0.124030545,0.0033302307,0.0,0.0,-0.08
31388000,0.1320705,0.12393862,0.004006684,0.0,0.0,-0.08
31416000,0.13210686,0.12360364,0.0041356087,0.0,0.0,-0.08
31448000,0.13145305,0.12354812,0.0041490197,0.0,0.0,-0.08
31484000,0.13144268,0.12357776,0.004719436,0.0,0.0,-0.08
31516000,0.13090205,0.12367252,0.005103886,0.0,0.0,-0.08
31548000,0.13164663,0.12338376,0.0048825145,0.0,0.0,-0.08
31576000,0.13194042,0.123255625,0.0049552917,0.0,0.0,-0.08
31612000,0.13199273,0.12323913,0.004622519,0.0,0.0,-0.08
31640000,0.1323945,0.12342614,0.004339993,0.0,0.0,-0.08
31676000,0.13225451,0.123909995,0.004025817,0.0,0.0,-0.08
31708000,0.13200857,0.12424007,0.0039433837,0.0,0.0,-0.08
31740000,0.13209859,0.12483803,0.0038080215,0.0,0.0,-0.08
31772000,0.13213256,0.12433704,0.0036290288,0.0,0.0,-0.08
31804000,0.13152556,0.12487036,0.0037128925,0.0,0.0,-0.08
31840000,0.13177323,0.12542291,0.0035104752,0.0,0.0,-0.08
31872000,0.13163303,0.12569839,0.003323257,0.0,0.0,-0.08
31900000,0.13173151,0.12577349,0.003298223,0.0,0.0,-0.08
31936000,0.13181363,0.12626715,0.0034570098,0.0,0.0,-0.08
31964000,0.13128906,0.12654996,0.0038255453,0.0,0.0,-0.08
31992000,0.13168083,0.12659529,0.0036540627,0.0,0.0,-0.08
32027999,0.13162655,0.12678158,0.003976643,0.0,0.0,-0.08
32060000,0.13193987,0.12658142,0.0041500926,0.0,0.0,-0.08
32091999,0.13213244,0.1258128,0.004606247,0.0,0.0,-0.08
32124000,0.13148524,0.12532115,0.0046316385,0.0,0.0,-0.08
32155999,0.13190776,0.12550889,0.0048515797,0.0,0.0,-0.08
32184000,0.13211058,0.1265192,0.005091727,0.0,0.0,-0.08
32219999,0.13149145,0.12645298,0.0051056743,0.0,0.0,-0.08
32252000,0.13227624,0.12637395,0.005053997,0.0,0.0,-0.08
32283999,0.13246483,0.12601998,0.005361378,0.0,0.0,-0.08
32312000,0.13218261,0.12594429,0.005414486,0.0,0.0,-0.08
32347999,0.13193847,0.12614642,0.005048096,0.0,0.0,-0.08
32380000,0.13199843,0.12582546,0.0049690604,0.0,0.0,-0.08
32416000,0.13155453,0.12622839,0.0047122836,0.0,0.0,-0.08
32444000,0.13181873,0.12678698,0.004348755,0.0,0.0,-0.08
32475999,0.1317274,0.12736867,0.0042865276,0.0,0.0,-0.08
32508000,0.13197409,0.12767881,0.004088044,0.0,0.0,-0.08
32536000,0.13184565,0.12774609,0.0039501786,0.0,0.0,-0.08
32572000,0.13227707,0.12785853,0.0038745403,0.0,0.0,-0.08
32603999,0.13273793,0.12789884,0.0037983656,0.0,0.0,-0.08
32640000,0.1325151,0.12859401,0.003854692,0.0,0.0,-0.08
32667999,0.13228391,0.12904435,0.004154384,0.0,0.0,-0.08
32700000,0.13217786,0.12874456,0.0040002465,0.0,0.0,-0.08
32731999,0.13242078,0.12854879,0.0037722588,0.0,0.0,-0.08
32764000,0.13296565,0.128488,0.0037093163,0.0,0.0,-0.08
32795999,0.1326139,0.12866044,0.003623128,0.0,0.0,-0.08
32832000,0.13284937,0.12870029,0.0033613443,0.0,0.0,-0.08
32856000,0.13259035,0.12856056,0.0034473538,0.0,0.0,-0.08
32896000,0.13311078,0.12846929,0.003510654,0.0,0.0,-0.08
32923999,0.1331997,0.12836958,0.003572166,0.0,0.0,-0.08
32956000,0.1335439,0.12861517,0.003475964,0.0,0.0,-0.08
32987999,0.13311031,0.12804338,0.0036401153,0.0,0.0,-0.08
33020000,0.1329782,0.12833786,0.0036478043,0.0,0.0,-0.08
33048000,0.13298796,0.12861627,0.003920138,0.0,0.0,-0.08
33088000,0.13348769,0.1290243,0.004050851,0.0,0.0,-0.08
33115999,0.13396943,0.1294918,0.00417459,0.0,0.0,-0.08
33148000,0.13351509,0.13019761,0.004138112,0.0,0.0,-0.08
33179999,0.13349012,0.13069142,0.0043934584,0.0,0.0,-0.08
33212000,0.132664,0.13034384,0.004106462,0.0,0.0,-0.08
33243999,0.13247684,0.12986901,0.0039973855,0.0,0.0,-0.08
33276000,0.1326139,0.12934104,0.0038525462,0.0,0.0,-0.08
33312000,0.13274242,0.12966318,0.0038870573,0.0,0.0,-0.08
33344000,0.13260823,0.13002163,0.0040749907,0.0,0.0,-0.08
33371999,0.13251416,0.12971333,0.0041636825,0.0,0.0,-0.08
33408000,0.13248636,0.12995368,0.0039943457,0.0,0.0,-0.08
33435999,0.1329195,0.13030392,0.0038568377,0.0,0.0,-0.08
33472000,0.13332544,0.13050643,0.0039206743,0.0,0.0,-0.08
33504000,0.13272907,0.13081692,0.004021704,0.0,0.0,-0.08
33536000,0.13320546,0.13027072,0.004224479,0.0,0.0,-0.08
33564000,0.13377836,0.13055256,0.0043262243,0.0,0.0,-0.08
33596000,0.13412666,0.13055596,0.0044807196,0.0,0.0,-0.08
33628000,0.13389099,0.13008535,0.0044819713,0.0,0.0,-0.08
33660000,0.13425478,0.13003977,0.0046125054,0.0,0.0,-0.08
33688000,0.13354571,0.1300096,0.004381299,0.0,0.0,-0.08
33724000,0.1332771,0.13016301,0.0045490265,0.0,0.0,-0.08
33756000,0.13332763,0.13013682,0.0043137074,0.0,0.0,-0.08
33788000,0.13355,0.12997624,0.0046309233,0.0,0.0,-0.08
33816000,0.13298295,0.13005742,0.004632354,0.0,0.0,-0.08
33852000,0.13332298,0.12971142,0.0047439337,0.0,0.0,-0.08
33888000,0.13363573,0.12916622,0.004500389,0.0,0.0,-0.08
33912000,0.13373254,0.12897724,0.0043194294,0.0,0.0,-0.08
33948000,0.13371915,0.12893613,0.0042983294,0.0,0.0,-0.08
33976000,0.13322319,0.12805928,0.004353583,0.0,0.0,-0.08
34012000,0.13342267,0.12827116,0.0042253733,0.0,0.0,-0.08
34048000,0.13343729,0.12831612,0.0041002035,0.0,0.0,-0.08
34076000,0.13322571,0.12840068,0.0038042665,0.0,0.0,-0.08
34108000,0.132811,0.12846172,0.0038630962,0.0,0.0,-0.08
34140000,0.13280275,0.12891218,0.00378263,0.0,0.0,-0.08
34172000,0.1324216,0.1292185,0.0038677454,0.0,0.0,-0.08
34204000,0.13229784,0.12979615,0.0038187504,0.0,0.0,-0.08
34236000,0.13227567,0.1298222,0.003971815,0.0,0.0,-0.08
34264000,0.13250798,0.12916544,0.0035449862,0.0,0.0,-0.08
34300000,0.13246346,0.12943158,0.003632605,0.0,0.0,-0.08
34336000,0.13199255,0.13018659,0.0035238862,0.0,0.0,-0.08
34364000,0.13192189,0.13030246,0.003469348,0.0,0.0,-0.08
34396000,0.13161653,0.12952922,0.0033168197,0.0,0.0,-0.08
34428000,0.13179225,0.12880608,0.0033824444,0.0,0.0,-0.08
34460000,0.13196939,0.12890147,0.0035775304,0.0,0.0,-0.08
34492000,0.13150854,0.12872677,0.0033688545,0.0,0.0,-0.08
34524000,0.13193709,0.12913015,0.0031650066,0.0,0.0,-0.08
34552000,0.13246047,0.12876205,0.0033735037,0.0,0.0,-0.08
34592000,0.13255641,0.12868977,0.0033200383,0.0,0.0,-0.08
34620000,0.13238806,0.12885737,0.0034604073,0.0,0.0,-0.08
34652000,0.13242519,0.12922212,0.0032985806,0.0,0.0,-0.08
34684000,0.1329976,0.12916681,0.0033461452,0.0,0.0,-0.08
34716000,0.1330254,0.12896655,0.0032499433,0.0,0.0,-0.08
34748000,0.13317646,0.12887257,0.0032747984,0.0,0.0,-0.08
34776000,0.13279687,0.12867258,0.0029692054,0.0,0.0,-0.08
34812000,0.13240075,0.12861805,0.002886057,0.0,0.0,-0.08
34844000,0.13262185,0.12875688,0.0027891397,0.0,0.0,-0.08
34876000,0.13241607,0.1282998,0.002667904,0.0,0.0,-0.08
34912000,0.1318263,0.12845254,0.002968669,0.0,0.0,-0.08
34944000,0.13185832,0.1287602,0.0028016567,0.0,0.0,-0.08
34972000,0.1316222,0.1281142,0.0026577115,0.0,0.0,-0.08
35004000,0.13173798,0.12834023,0.0029563308,0.0,0.0,-0.08
35036000,0.13143933,0.12838444,0.0030650496,0.0,0.0,-0.08
35072000,0.13144723,0.12807626,0.0032336712,0.0,0.0,-0.08
35096000,0.13140029,0.12781508,0.003473997,0.0,0.0,-0.08
35136000,0.13132559,0.12872416,0.003330052,0.0,0.0,-0.08
35168000,0.13161933,0.12833041,0.0033786893,0.0,0.0,-0.08
35196000,0.13140137,0.127643,0.0034418106,0.0,0.0,-0.08
35228000,0.13151744,0.12826507,0.003670156,0.0,0.0,-0.08
35260000,0.13154113,0.12849145,0.0035879016,0.0,0.0,-0.08
35292000,0.13110645,0.12853296,0.0032113194,0.0,0.0,-0.08
35324000,0.13080189,0.12851049,0.0031439066,0.0,0.0,-0.08
35356000,0.13049267,0.12888096,0.0032565594,0.0,0.0,-0.08
35388000,0.13051936,0.1289204,0.0033259392,0.0,0.0,-0.08
35424000,0.13092226,0.12898828,0.0032739043,0.0,0.0,-0.08
35452000,0.13046725,0.12861443,0.0030384064,0.0,0.0,-0.08
35484000,0.13054907,0.12905282,0.0029554367,0.0,0.0,-0.08
35516000,0.13054146,0.12932073,0.002540052,0.0,0.0,-0.08
35544000,0.12967092,0.13001424,0.0024163127,0.0,0.0,-0.08
35580000,0.1293588,0.12966259,0.002403438,0.0,0.0,-0.08
35612000,0.12949644,0.1296547,0.0025330782,0.0,0.0,-0.08
35644000,0.12915845,0.12964757,0.0026350021,0.0,0.0,-0.08
35676000,0.12895873,0.12986153,0.0026412606,0.0,0.0,-0.08
35708000,0.12898557,0.12996271,0.0026807785,0.0,0.0,-0.08
35740000,0.12917112,0.1296174,0.002512157,0.0,0.0,-0.08
35768000,0.12954956,0.12939371,0.0021800995,0.0,0.0,-0.08
35808000,0.1293191,0.12952167,0.0020914078,0.0,0.0,-0.08
35836000,0.12929864,0.12915702,0.0023245811,0.0,0.0,-0.08
35868000,0.12949854,0.12897703,0.0024223924,0.0,0.0,-0.08
35904000,0.13011298,0.12868187,0.002505362,0.0,0.0,-0.08
35932000,0.13005587,0.1286732,0.0026065707,0.0,0.0,-0.08
35968000,0.13031308,0.12875137,0.00278306,0.0,0.0,-0.08
35996000,0.13086694,0.12827054,0.0030269623,0.0,0.0,-0.08
36032000,0.13123202,0.12801103,0.0033171773,0.0,0.0,-0.08
36064000,0.13132314,0.12745479,0.0036256313,0.0,0.0,-0.08
36088000,0.13122497,0.12763743,0.0036064982,0.0,0.0,-0.08
36124000,0.13142683,0.12817666,0.003945887,0.0,0.0,-0.08
36160000,0.13105683,0.12781134,0.003948033,0.0,0.0,-0.08
36188000,0.13095407,0.1279867,0.003975928,0.0,0.0,-0.08
36216000,0.13085821,0.12785596,0.0036955476,0.0,0.0,-0.08
36252000,0.13126072,0.12791753,0.0038189292,0.0,0.0,-0.08
36284000,0.13162328,0.12793274,0.0037772655,0.0,0.0,-0.08
36316000,0.13163266,0.12789996,0.0039396286,0.0,0.0,-0.08
36348000,0.13121638,0.12820873,0.0039560795,0.0,0.0,-0.08
36380000,0.13132207,0.12806961,0.0040369034,0.0,0.0,-0.08
36412000,0.13118812,0.12839393,0.004095018,0.0,0.0,-0.08
36444000,0.13083863,0.12879539,0.00413543,0.0,0.0,-0.08
36476000,0.13085651,0.12853602,0.004232526,0.0,0.0,-0.08
