timestamp,baro_alt_meter,baro_temp_celcius,baro_pressure_pa,rho
1180000,487.685,32.0,95602.805,1.1359195
1940000,487.7167,32.0,95602.43,1.135915
1948000,487.60043,32.0,95603.78,1.135931
1960000,487.6057,32.0,95603.72,1.1359303
1968000,487.611,32.0,95603.664,1.1359297
1980000,487.63214,32.0,95603.42,1.1359268
1988000,487.61893,32.0,95603.55,1.1359283
2000000,487.6982,32.0,95602.64,1.1359175
2008000,487.57666,32.0,95604.055,1.1359344
2020000,487.7352,32.0,95602.22,1.1359125
2028000,487.6533,32.0,95603.16,1.1359236
2040000,487.6348,32.0,95603.39,1.1359265
2048000,487.5423,32.0,95604.45,1.135939
2060000,487.61365,32.0,95603.625,1.1359292
2068000,487.66385,32.0,95603.05,1.1359223
2080000,487.6163,32.0,95603.586,1.1359288
2088000,487.5238,32.0,95604.63,1.1359411
2100000,487.54758,32.0,95604.39,1.1359383
2108000,487.6348,32.0,95603.39,1.1359265
2120000,487.59515,32.0,95603.836,1.1359317
2128000,487.64536,32.0,95603.266,1.1359249
2140000,487.69028,32.0,95602.734,1.1359186
2148000,487.64536,32.0,95603.25,1.1359248
2160000,487.6559,32.0,95603.13,1.1359234
2168000,487.6427,32.0,95603.28,1.1359252
2180000,487.70877,32.0,95602.52,1.1359161
2188000,487.48947,32.0,95605.055,1.1359462
2200000,487.44455,32.0,95605.555,1.1359521
2208000,487.6533,32.0,95603.164,1.1359237
2220000,487.5238,32.0,95604.65,1.1359414
2228000,487.76163,32.0,95601.914,1.1359088
2240000,487.60043,32.0,95603.78,1.135931
2248000,487.6559,32.0,95603.14,1.1359235
2260000,487.53174,32.0,95604.56,1.1359403
2268000,487.5529,32.0,95604.305,1.1359373
2280000,487.58722,32.0,95603.914,1.1359327
2288000,487.76953,32.0,95601.83,1.1359079
2300000,487.63214,32.0,95603.42,1.1359268
2308000,487.7484,32.0,95602.07,1.1359107
2320000,487.611,32.0,95603.64,1.1359293
2328000,487.72726,32.0,95602.33,1.1359138
2340000,487.52908,32.0,95604.586,1.1359407
2348000,487.76425,32.0,95601.88,1.1359085
2360000,487.60837,32.0,95603.67,1.1359298
2368000,487.7035,32.0,95602.58,1.1359168
2380000,487.82767,32.0,95601.16,1.1358999
2388000,487.48154,32.0,95605.13,1.1359471
2400000,487.56873,32.0,95604.13,1.1359353
2408000,487.62158,32.0,95603.53,1.1359282
2420000,487.39697,32.0,95606.09,1.1359586
2428000,487.5529,32.0,95604.31,1.1359373
2440000,487.44983,32.0,95605.484,1.1359513
2448000,487.67706,32.0,95602.9,1.1359205
2460000,487.5529,32.0,95604.305,1.1359373
2468000,487.67972,32.0,95602.86,1.1359202
2480000,487.62952,32.0,95603.44,1.135927
2488000,487.61365,32.0,95603.625,1.1359292
2500000,487.6348,32.0,95603.375,1.1359262
2508000,487.5925,32.0,95603.87,1.1359321
2520000,487.6665,32.0,95603.03,1.1359222
2528000,487.60837,32.0,95603.67,1.1359298
2540000,487.58722,32.0,95603.92,1.1359328
2548000,487.62686,32.0,95603.47,1.1359273
2560000,487.7167,32.0,95602.43,1.135915
2568000,487.61893,32.0,95603.555,1.1359284
2580000,487.74048,32.0,95602.18,1.1359121
2588000,487.7035,32.0,95602.58,1.1359168
2600000,487.648,32.0,95603.22,1.1359243
2608000,487.6744,32.0,95602.914,1.1359208
2620000,487.64536,32.0,95603.25,1.1359248
2628000,487.7352,32.0,95602.22,1.1359125
2640000,487.68234,32.0,95602.83,1.1359197
2648000,487.6242,32.0,95603.49,1.1359277
2660000,487.6427,32.0,95603.29,1.1359252
2668000,487.51587,32.0,95604.75,1.1359426
2680000,487.6427,32.0,95603.27,1.135925
2688000,487.6427,32.0,95603.27,1.135925
2700000,487.6744,32.0,95602.91,1.1359206
2708000,487.67706,32.0,95602.875,1.1359203
2720000,487.611,32.0,95603.64,1.1359293
2728000,487.67972,32.0,95602.85,1.13592
2740000,487.5608,32.0,95604.22,1.1359363
2748000,487.611,32.0,95603.664,1.1359297
2760000,487.5238,32.0,95604.66,1.1359415
2768000,487.54495,32.0,95604.42,1.1359386
2780000,487.5529,32.0,95604.31,1.1359373
2788000,487.61893,32.0,95603.555,1.1359284
2800000,487.6559,32.0,95603.14,1.1359235
2808000,487.5529,32.0,95604.31,1.1359373
2820000,487.648,32.0,95603.22,1.1359243
2828000,487.78012,32.0,95601.7,1.1359063
2840000,487.62952,32.0,95603.445,1.1359271
2848000,487.76163,32.0,95601.92,1.135909
2860000,487.6242,32.0,95603.49,1.1359277
2868000,487.60043,32.0,95603.78,1.135931
2880000,487.5925,32.0,95603.87,1.1359321
2888000,487.64008,32.0,95603.32,1.1359257
2900000,487.5846,32.0,95603.94,1.1359329
2908000,487.7854,32.0,95601.66,1.1359059
2920000,487.6533,32.0,95603.164,1.1359237
2928000,487.6744,32.0,95602.91,1.1359206
2940000,487.68234,32.0,95602.83,1.1359197
2948000,487.61365,32.0,95603.61,1.135929
2960000,487.56873,32.0,95604.14,1.1359353
2968000,487.6982,32.0,95602.65,1.1359177
2980000,487.67178,32.0,95602.96,1.1359214
2988000,487.34677,32.0,95606.67,1.1359655
3000000,487.68234,32.0,95602.83,1.1359197
3008000,487.60837,32.0,95603.695,1.1359301
3020000,487.65063,32.0,95603.18,1.135924
3028000,487.574,32.0,95604.086,1.1359347
3040000,487.6427,32.0,95603.29,1.1359252
3048000,487.6533,32.0,95603.164,1.1359237
3060000,487.71143,32.0,95602.5,1.1359159
3068000,487.68762,32.0,95602.77,1.1359191
3080000,487.30713,32.0,95607.12,1.1359707
3088000,487.5529,32.0,95604.31,1.1359373
3100000,487.56873,32.0,95604.14,1.1359353
3108000,487.64008,32.0,95603.32,1.1359257
3120000,487.52908,32.0,95604.58,1.1359406
3128000,487.48682,32.0,95605.06,1.1359463
3140000,487.64536,32.0,95603.25,1.1359248
3148000,487.55023,32.0,95604.336,1.1359377
3160000,487.75897,32.0,95601.94,1.1359092
3168000,487.7669,32.0,95601.86,1.1359082
3180000,487.8039,32.0,95601.44,1.1359032
3188000,487.4604,32.0,95605.37,1.13595
3200000,487.5846,32.0,95603.945,1.135933
3208000,487.57666,32.0,95604.055,1.1359344
3220000,487.44717,32.0,95605.54,1.135952
3228000,487.63742,32.0,95603.336,1.1359258
3240000,487.58722,32.0,95603.91,1.1359326
3248000,487.58722,32.0,95603.92,1.1359328
3260000,487.60837,32.0,95603.695,1.1359301
3268000,487.60043,32.0,95603.78,1.135931
3280000,487.5053,32.0,95604.87,1.135944
3288000,487.5925,32.0,95603.87,1.1359321
3300000,487.685,32.0,95602.805,1.1359195
3308000,487.60837,32.0,95603.695,1.1359301
3320000,487.80124,32.0,95601.46,1.1359035
3328000,487.58987,32.0,95603.89,1.1359323
3340000,487.611,32.0,95603.664,1.1359297
3348000,487.4366,32.0,95605.65,1.1359533
3360000,487.63214,32.0,95603.41,1.1359266
3368000,487.53174,32.0,95604.555,1.1359403
3380000,487.59778,32.0,95603.8,1.1359313
3388000,487.7537,32.0,95602.02,1.1359102
3400000,487.59515,32.0,95603.82,1.1359315
3408000,487.69028,32.0,95602.75,1.1359189
3420000,487.48682,32.0,95605.06,1.1359463
3428000,487.46567,32.0,95605.33,1.1359495
3440000,487.67178,32.0,95602.94,1.135921
3448000,487.75897,32.0,95601.94,1.1359092
3460000,487.69556,32.0,95602.68,1.135918
3468000,487.69028,32.0,95602.75,1.1359189
3480000,487.68234,32.0,95602.83,1.1359197
3488000,487.55817,32.0,95604.25,1.1359366
3500000,487.5053,32.0,95604.87,1.135944
3508000,487.69556,32.0,95602.664,1.1359178
3520000,487.61365,32.0,95603.63,1.1359293
3528000,487.67178,32.0,95602.94,1.135921
3540000,487.53174,32.0,95604.56,1.1359403
3548000,487.5555,32.0,95604.28,1.135937
3560000,487.77747,32.0,95601.76,1.135907
3568000,487.6427,32.0,95603.27,1.135925
3580000,487.7035,32.0,95602.58,1.1359168
3588000,487.61365,32.0,95603.625,1.1359292
3600000,487.49738,32.0,95604.95,1.135945
3608000,487.37848,32.0,95606.32,1.1359613
3620000,487.49475,32.0,95604.98,1.1359453
3628000,487.6665,32.0,95603.02,1.1359221
3640000,487.66913,32.0,95602.97,1.1359215
3648000,487.63742,32.0,95603.35,1.135926
3660000,487.49738,32.0,95604.94,1.1359448
3668000,487.66385,32.0,95603.04,1.1359223
3680000,487.66122,32.0,95603.086,1.1359228
3688000,487.59515,32.0,95603.836,1.1359317
3700000,487.5608,32.0,95604.21,1.1359361
3708000,487.6982,32.0,95602.63,1.1359174
3720000,487.5423,32.0,95604.445,1.135939
3728000,487.62952,32.0,95603.445,1.1359271
3740000,487.65063,32.0,95603.195,1.1359241
3748000,487.611,32.0,95603.664,1.1359297
3760000,487.49738,32.0,95604.95,1.135945
3768000,487.62952,32.0,95603.43,1.1359268
3780000,487.72992,32.0,95602.3,1.1359135
3788000,487.68762,32.0,95602.766,1.135919
3800000,487.76953,32.0,95601.84,1.135908
3808000,487.66122,32.0,95603.09,1.1359229
3820000,487.61893,32.0,95603.555,1.1359284
3828000,487.6242,32.0,95603.5,1.1359277
3840000,487.66913,32.0,95602.984,1.1359216
3848000,487.6665,32.0,95603.03,1.1359222
3860000,487.76425,32.0,95601.9,1.1359087
3868000,487.6744,32.0,95602.914,1.1359208
3880000,487.70084,32.0,95602.61,1.1359172
3888000,487.6031,32.0,95603.75,1.1359307
3900000,487.61893,32.0,95603.555,1.1359284
3908000,487.6533,32.0,95603.164,1.1359237
3920000,487.6744,32.0,95602.91,1.1359206
3928000,487.47626,32.0,95605.19,1.1359478
3940000,487.6163,32.0,95603.586,1.1359288
3948000,487.58194,32.0,95603.98,1.1359334
3960000,487.5238,32.0,95604.64,1.1359413
3968000,487.59778,32.0,95603.8,1.1359313
3980000,487.60043,32.0,95603.78,1.135931
3988000,487.54758,32.0,95604.39,1.1359383
3999999,487.48682,32.0,95605.08,1.1359465
4012000,487.6665,32.0,95603.03,1.1359222
4020000,487.4736,32.0,95605.23,1.1359483
4028000,487.72992,32.0,95602.27,1.1359131
4039999,487.648,32.0,95603.21,1.1359243
4052000,487.48682,32.0,95605.06,1.1359463
4060000,487.57138,32.0,95604.1,1.1359348
4068000,487.6348,32.0,95603.39,1.1359265
4079999,487.67178,32.0,95602.94,1.135921
4092000,487.79068,32.0,95601.6,1.1359051
4100000,487.62686,32.0,95603.46,1.1359273
4108000,487.5529,32.0,95604.305,1.1359373
4119999,487.6427,32.0,95603.3,1.1359253
4132000,487.574,32.0,95604.086,1.1359347
4140000,487.54495,32.0,95604.41,1.1359385
4148000,487.58194,32.0,95603.98,1.1359334
4159999,487.69028,32.0,95602.75,1.1359189
4172000,487.55817,32.0,95604.26,1.1359367
4180000,487.6031,32.0,95603.74,1.1359307
4188000,487.71405,32.0,95602.484,1.1359156
4200000,487.73254,32.0,95602.24,1.1359128
4208000,487.52646,32.0,95604.62,1.135941
4220000,487.55023,32.0,95604.336,1.1359377
4228000,487.4551,32.0,95605.44,1.1359508
4240000,487.5053,32.0,95604.86,1.1359439
4248000,487.69028,32.0,95602.74,1.1359187
4260000,487.73254,32.0,95602.26,1.135913
4268000,487.81183,32.0,95601.35,1.1359022
4280000,487.39435,32.0,95606.125,1.1359589
4288000,487.49738,32.0,95604.95,1.135945
4300000,487.66385,32.0,95603.05,1.1359223
4308000,487.60837,32.0,95603.69,1.13593
4320000,487.59778,32.0,95603.8,1.1359313
4328000,487.611,32.0,95603.664,1.1359297
4340000,487.62952,32.0,95603.43,1.1359268
4348000,487.52908,32.0,95604.58,1.1359406
4360000,487.7352,32.0,95602.22,1.1359125
4368000,487.58194,32.0,95603.98,1.1359334
4380000,487.48947,32.0,95605.05,1.1359462
4388000,487.60043,32.0,95603.78,1.135931
4400000,487.63742,32.0,95603.336,1.1359258
4408000,487.5529,32.0,95604.31,1.1359373
4420000,487.5846,32.0,95603.94,1.1359329
4428000,487.54495,32.0,95604.414,1.1359386
4440000,487.71933,32.0,95602.414,1.1359148
4448000,487.57928,32.0,95604.0,1.1359336
4460000,487.63214,32.0,95603.41,1.1359266
4468000,487.56607,32.0,95604.164,1.1359357
4480000,487.6427,32.0,95603.3,1.1359253
4488000,487.65857,32.0,95603.125,1.1359233
4500000,487.7035,32.0,95602.59,1.135917
4508000,487.5608,32.0,95604.22,1.1359363
4520000,487.73254,32.0,95602.266,1.135913
4528000,487.6744,32.0,95602.914,1.1359208
4540000,487.6744,32.0,95602.91,1.1359206
4548000,487.54495,32.0,95604.42,1.1359386
4560000,487.62952,32.0,95603.43,1.1359268
4568000,487.6242,32.0,95603.49,1.1359277
4580000,487.59778,32.0,95603.81,1.1359315
4588000,487.7167,32.0,95602.44,1.1359152
4600000,487.48947,32.0,95605.03,1.1359459
4608000,487.63742,32.0,95603.36,1.135926
4620000,487.67706,32.0,95602.875,1.1359203
4628000,487.47095,32.0,95605.24,1.1359484
4640000,487.6348,32.0,95603.39,1.1359265
4648000,487.5925,32.0,95603.86,1.135932
4660000,487.53967,32.0,95604.48,1.1359394
4668000,487.59778,32.0,95603.81,1.1359315
4680000,487.70084,32.0,95602.625,1.1359173
4688000,487.69293,32.0,95602.7,1.1359183
4700000,487.53174,32.0,95604.56,1.1359403
4708000,487.70084,32.0,95602.625,1.1359173
4720000,487.6533,32.0,95603.164,1.1359237
4728000,487.50266,32.0,95604.9,1.1359444
4740000,487.56607,32.0,95604.17,1.1359357
4748000,487.6982,32.0,95602.63,1.1359174
4760000,487.80124,32.0,95601.46,1.1359035
4768000,487.73254,32.0,95602.24,1.1359128
4780000,487.66385,32.0,95603.04,1.1359223
4788000,487.84616,32.0,95600.96,1.1358975
4800000,487.6163,32.0,95603.586,1.1359288
4808000,487.685,32.0,95602.805,1.1359195
4820000,487.61893,32.0,95603.57,1.1359285
4828000,487.70084,32.0,95602.625,1.1359173
4840000,487.69293,32.0,95602.7,1.1359183
4848000,487.81445,32.0,95601.33,1.1359019
4860000,487.6348,32.0,95603.375,1.1359262
4868000,487.5423,32.0,95604.44,1.1359389
4880000,487.66122,32.0,95603.086,1.1359228
4888000,487.53702,32.0,95604.51,1.1359397
4900000,487.75635,32.0,95601.97,1.1359096
4908000,487.77484,32.0,95601.77,1.1359072
4920000,487.47888,32.0,95605.15,1.1359473
4928000,487.63742,32.0,95603.36,1.135926
4940000,487.6163,32.0,95603.586,1.1359288
4948000,487.53702,32.0,95604.5,1.1359396
4960000,487.61365,32.0,95603.63,1.1359293
4968000,487.59515,32.0,95603.82,1.1359315
4980000,487.63742,32.0,95603.36,1.135926
4988000,487.51852,32.0,95604.72,1.1359422
5000000,487.74048,32.0,95602.164,1.1359118
5008000,487.56873,32.0,95604.14,1.1359353
5020000,487.69293,32.0,95602.71,1.1359184
5028000,487.76163,32.0,95601.92,1.135909
5040000,487.5925,32.0,95603.85,1.1359318
5048000,487.56873,32.0,95604.14,1.1359353
5060000,487.58987,32.0,95603.88,1.1359323
5068000,487.64008,32.0,95603.305,1.1359254
5080000,487.69028,32.0,95602.75,1.1359189
5088000,487.7352,32.0,95602.22,1.1359125
5100000,487.67178,32.0,95602.96,1.1359214
5108000,487.69556,32.0,95602.664,1.1359178
5120000,487.59778,32.0,95603.805,1.1359314
5128000,487.67972,32.0,95602.84,1.1359199
5140000,487.65063,32.0,95603.19,1.135924
5148000,487.72464,32.0,95602.35,1.1359141
5160000,487.5053,32.0,95604.84,1.1359437
5168000,487.6427,32.0,95603.3,1.1359253
5180000,487.78806,32.0,95601.62,1.1359054
5188000,487.60837,32.0,95603.68,1.1359298
5200000,487.55817,32.0,95604.266,1.1359369
5208000,487.60043,32.0,95603.766,1.1359309
5220000,487.62952,32.0,95603.44,1.135927
5228000,487.58194,32.0,95603.97,1.1359333
5240000,487.49475,32.0,95604.98,1.1359453
5248000,487.6427,32.0,95603.29,1.1359252
5260000,487.48154,32.0,95605.12,1.135947
5268000,487.72464,32.0,95602.36,1.1359142
5280000,487.55023,32.0,95604.35,1.1359378
5288000,487.53702,32.0,95604.51,1.1359397
5300000,487.65063,32.0,95603.195,1.1359241
5308000,487.6533,32.0,95603.164,1.1359237
5320000,487.7167,32.0,95602.43,1.135915
5328000,487.648,32.0,95603.234,1.1359246
5340000,487.5846,32.0,95603.945,1.135933
5348000,487.51852,32.0,95604.72,1.1359422
5360000,487.55817,32.0,95604.25,1.1359366
5368000,487.63214,32.0,95603.41,1.1359266
5380000,487.72726,32.0,95602.33,1.1359138
5388000,487.5529,32.0,95604.33,1.1359376
5400000,487.65857,32.0,95603.125,1.1359233
5408000,487.69293,32.0,95602.7,1.1359183
5420000,487.57928,32.0,95604.016,1.1359339
5428000,487.80917,32.0,95601.38,1.1359025
5440000,487.67178,32.0,95602.94,1.135921
5448000,487.48682,32.0,95605.08,1.1359465
5460000,487.53702,32.0,95604.49,1.1359395
5468000,487.62158,32.0,95603.53,1.1359282
5480000,487.69293,32.0,95602.695,1.1359181
5488000,487.75897,32.0,95601.96,1.1359094
5500000,487.66122,32.0,95603.09,1.1359229
5508000,487.62158,32.0,95603.516,1.1359279
5520000,487.80124,32.0,95601.48,1.1359037
5528000,487.56345,32.0,95604.195,1.135936
5540000,487.6348,32.0,95603.375,1.1359262
5548000,487.79333,32.0,95601.55,1.1359046
5560000,487.66122,32.0,95603.09,1.1359229
5568000,487.71405,32.0,95602.46,1.1359154
5580000,487.64008,32.0,95603.305,1.1359254
5588000,487.61365,32.0,95603.61,1.135929
5600000,487.64536,32.0,95603.25,1.1359248
5608000,487.52908,32.0,95604.58,1.1359406
5620000,487.64536,32.0,95603.266,1.1359249
5628000,487.77747,32.0,95601.74,1.1359068
5640000,487.57138,32.0,95604.1,1.1359348
5648000,487.47626,32.0,95605.19,1.1359478
5660000,487.5925,32.0,95603.86,1.135932
5668000,487.60837,32.0,95603.69,1.13593
5680000,487.7035,32.0,95602.58,1.1359168
5688000,487.5238,32.0,95604.64,1.1359413
5700000,487.69556,32.0,95602.69,1.135918
5708000,487.5925,32.0,95603.85,1.1359318
5720000,487.8356,32.0,95601.09,1.1358992
5728000,487.52118,32.0,95604.67,1.1359416
5740000,487.58987,32.0,95603.875,1.1359322
5748000,487.73254,32.0,95602.25,1.1359129
5760000,487.56873,32.0,95604.14,1.1359353
5768000,487.59515,32.0,95603.82,1.1359315
5780000,487.64008,32.0,95603.305,1.1359254
5788000,487.574,32.0,95604.07,1.1359345
5800000,487.5925,32.0,95603.85,1.1359318
5808000,487.5529,32.0,95604.33,1.1359376
5820000,487.67178,32.0,95602.94,1.135921
5828000,487.42868,32.0,95605.734,1.1359543
5840000,487.51587,32.0,95604.73,1.1359423
5848000,487.7537,32.0,95602.02,1.1359102
5860000,487.60043,32.0,95603.78,1.135931
5868000,487.81183,32.0,95601.35,1.1359022
5880000,487.611,32.0,95603.664,1.1359297
5888000,487.48682,32.0,95605.086,1.1359466
5900000,487.64008,32.0,95603.305,1.1359254
5908000,487.69556,32.0,95602.68,1.135918
5920000,487.6744,32.0,95602.93,1.135921
5928000,487.59778,32.0,95603.81,1.1359315
5940000,487.64008,32.0,95603.33,1.1359257
5948000,487.66385,32.0,95603.055,1.1359224
5960000,487.69293,32.0,95602.71,1.1359184
5968000,487.76953,32.0,95601.83,1.1359079
5980000,487.6427,32.0,95603.27,1.135925
5988000,487.4604,32.0,95605.37,1.13595
6000000,487.62158,32.0,95603.53,1.1359282
6008000,487.69556,32.0,95602.664,1.1359178
6020000,487.68762,32.0,95602.77,1.1359191
6028000,487.6163,32.0,95603.586,1.1359288
6040000,487.65857,32.0,95603.11,1.1359231
6048000,487.73254,32.0,95602.26,1.135913
6060000,487.7035,32.0,95602.57,1.1359167
6068000,487.51852,32.0,95604.695,1.135942
6080000,487.6665,32.0,95603.0,1.1359218
6088000,487.6427,32.0,95603.3,1.1359253
6100000,487.62952,32.0,95603.43,1.1359268
6108000,487.49475,32.0,95604.984,1.1359453
6120000,487.60837,32.0,95603.68,1.1359298
6128000,487.67706,32.0,95602.88,1.1359204
6140000,487.5925,32.0,95603.85,1.1359318
6148000,487.59778,32.0,95603.8,1.1359313
6160000,487.69293,32.0,95602.7,1.1359183
6168000,487.5925,32.0,95603.86,1.135932
6180000,487.67178,32.0,95602.94,1.135921
6188000,487.611,32.0,95603.64,1.1359293
6200000,487.70084,32.0,95602.61,1.1359172
6208000,487.66122,32.0,95603.09,1.1359229
6220000,487.61365,32.0,95603.625,1.1359292
6228000,487.63742,32.0,95603.36,1.135926
6240000,487.51324,32.0,95604.77,1.1359428
6248000,487.69028,32.0,95602.74,1.1359187
6260000,487.5846,32.0,95603.96,1.1359332
6268000,487.6559,32.0,95603.14,1.1359235
6280000,487.5529,32.0,95604.305,1.1359373
6288000,487.8171,32.0,95601.29,1.1359015
6300000,487.64008,32.0,95603.33,1.1359257
6308000,487.60043,32.0,95603.78,1.135931
6320000,487.35733,32.0,95606.56,1.1359642
6328000,487.722,32.0,95602.38,1.1359144
6340000,487.62686,32.0,95603.48,1.1359274
6348000,487.64536,32.0,95603.266,1.1359249
6360000,487.50797,32.0,95604.836,1.1359437
6368000,487.68234,32.0,95602.83,1.1359197
6380000,487.70877,32.0,95602.516,1.135916
6388000,487.61365,32.0,95603.61,1.135929
6400000,487.53967,32.0,95604.48,1.1359394
6408000,487.574,32.0,95604.07,1.1359345
6420000,487.71405,32.0,95602.46,1.1359154
6428000,487.70612,32.0,95602.555,1.1359165
6440000,487.67972,32.0,95602.84,1.1359199
6448000,487.75635,32.0,95601.984,1.1359097
6460000,487.5846,32.0,95603.945,1.135933
6468000,487.59778,32.0,95603.81,1.1359315
6480000,487.6242,32.0,95603.49,1.1359277
6488000,487.45245,32.0,95605.48,1.1359512
6500000,487.47888,32.0,95605.15,1.1359473
6508000,487.51324,32.0,95604.77,1.1359428
6520000,487.71405,32.0,95602.484,1.1359156
6528000,487.6982,32.0,95602.64,1.1359175
6540000,487.69028,32.0,95602.75,1.1359189
6548000,487.53174,32.0,95604.55,1.1359402
6560000,487.61893,32.0,95603.555,1.1359284
6568000,487.68234,32.0,95602.83,1.1359197
6580000,487.74048,32.0,95602.164,1.1359118
6588000,487.70084,32.0,95602.6,1.1359171
6600000,487.47626,32.0,95605.195,1.1359478
6608000,487.6031,32.0,95603.74,1.1359307
6620000,487.64008,32.0,95603.305,1.1359254
6628000,487.65063,32.0,95603.18,1.135924
6640000,487.64536,32.0,95603.266,1.1359249
6648000,487.67178,32.0,95602.94,1.135921
6660000,487.73254,32.0,95602.25,1.1359129
6668000,487.58722,32.0,95603.914,1.1359327
6680000,487.51587,32.0,95604.73,1.1359423
6688000,487.6744,32.0,95602.914,1.1359208
6700000,487.74576,32.0,95602.09,1.135911
6708000,487.53174,32.0,95604.555,1.1359403
6720000,487.55023,32.0,95604.336,1.1359377
6728000,487.6057,32.0,95603.72,1.1359303
6740000,487.8171,32.0,95601.28,1.1359013
6748000,487.66122,32.0,95603.09,1.1359229
6760000,487.63214,32.0,95603.414,1.1359267
6768000,487.6348,32.0,95603.39,1.1359265
6780000,487.56873,32.0,95604.13,1.1359353
6788000,487.59778,32.0,95603.805,1.1359314
6800000,487.54758,32.0,95604.39,1.1359383
6808000,487.44455,32.0,95605.56,1.1359522
6820000,487.66122,32.0,95603.09,1.1359229
6828000,487.5925,32.0,95603.87,1.1359321
6840000,487.58722,32.0,95603.92,1.1359328
6848000,487.5238,32.0,95604.65,1.1359414
6860000,487.74048,32.0,95602.18,1.1359121
6868000,487.58722,32.0,95603.92,1.1359328
6880000,487.63214,32.0,95603.41,1.1359266
6888000,487.56345,32.0,95604.195,1.135936
6900000,487.50266,32.0,95604.9,1.1359444
6908000,487.54758,32.0,95604.39,1.1359383
6920000,487.58194,32.0,95603.97,1.1359333
6928000,487.43396,32.0,95605.68,1.1359537
6940000,487.7722,32.0,95601.8,1.1359075
6948000,487.58987,32.0,95603.89,1.1359323
6960000,487.48154,32.0,95605.12,1.135947
6968000,487.51587,32.0,95604.73,1.1359423
6980000,487.6665,32.0,95603.0,1.1359218
6988000,487.59515,32.0,95603.836,1.1359317
7000000,487.4736,32.0,95605.23,1.1359483
7008000,487.57928,32.0,95604.016,1.1359339
7020000,487.74048,32.0,95602.16,1.1359118
7028000,487.75635,32.0,95601.99,1.1359098
7040000,487.48416,32.0,95605.09,1.1359466
7048000,487.57138,32.0,95604.11,1.135935
7060000,487.69028,32.0,95602.734,1.1359186
7068000,487.70877,32.0,95602.54,1.1359164
7080000,487.57666,32.0,95604.055,1.1359344
7088000,487.48947,32.0,95605.04,1.135946
7100000,487.50266,32.0,95604.9,1.1359444
7108000,487.6427,32.0,95603.28,1.1359252
7120000,487.56345,32.0,95604.2,1.1359361
7128000,487.63742,32.0,95603.336,1.1359258
7140000,487.61893,32.0,95603.555,1.1359284
7148000,487.59515,32.0,95603.82,1.1359315
7160000,487.71933,32.0,95602.41,1.1359147
7168000,487.63742,32.0,95603.336,1.1359258
7180000,487.648,32.0,95603.22,1.1359243
7188000,487.63742,32.0,95603.336,1.1359258
7200000,487.63742,32.0,95603.36,1.135926
7208000,487.55023,32.0,95604.336,1.1359377
7220000,487.611,32.0,95603.664,1.1359297
7228000,487.59515,32.0,95603.82,1.1359315
7240000,487.71405,32.0,95602.47,1.1359155
7248000,487.65063,32.0,95603.195,1.1359241
7260000,487.69293,32.0,95602.695,1.1359181
7268000,487.53436,32.0,95604.53,1.13594
7280000,487.69556,32.0,95602.69,1.135918
7288000,487.67706,32.0,95602.89,1.1359205
7300000,487.59778,32.0,95603.8,1.1359313
7308000,487.63214,32.0,95603.414,1.1359267
7320000,487.72992,32.0,95602.27,1.1359131
7328000,487.5238,32.0,95604.63,1.1359411
7340000,487.685,32.0,95602.79,1.1359193
7348000,487.37054,32.0,95606.4,1.1359621
7360000,487.6665,32.0,95603.03,1.1359222
7368000,487.71143,32.0,95602.5,1.1359159
7380000,487.43396,32.0,95605.68,1.1359537
7388000,487.6163,32.0,95603.58,1.1359286
7400000,487.54495,32.0,95604.42,1.1359386
7408000,487.6559,32.0,95603.13,1.1359234
7420000,487.61365,32.0,95603.625,1.1359292
7428000,487.722,32.0,95602.375,1.1359143
7440000,487.54758,32.0,95604.38,1.1359382
7448000,487.64008,32.0,95603.32,1.1359257
7460000,487.64008,32.0,95603.305,1.1359254
7468000,487.53174,32.0,95604.56,1.1359403
7480000,487.6057,32.0,95603.72,1.1359303
7488000,487.50266,32.0,95604.9,1.1359444
7500000,487.79068,32.0,95601.59,1.135905
7508000,487.574,32.0,95604.086,1.1359347
7520000,487.84088,32.0,95601.01,1.1358981
7528000,487.49475,32.0,95604.99,1.1359454
7540000,487.48682,32.0,95605.06,1.1359463
7548000,487.7035,32.0,95602.59,1.135917
7560000,487.45776,32.0,95605.414,1.1359504
7568000,487.76425,32.0,95601.9,1.1359087
7580000,487.66122,32.0,95603.09,1.1359229
7588000,487.69293,32.0,95602.71,1.1359184
7600000,487.6242,32.0,95603.5,1.1359277
7608000,487.71405,32.0,95602.47,1.1359155
7620000,487.59778,32.0,95603.81,1.1359315
7628000,487.65857,32.0,95603.11,1.1359231
7640000,487.67972,32.0,95602.86,1.1359202
7648000,487.59515,32.0,95603.836,1.1359317
7660000,487.7854,32.0,95601.65,1.1359057
7668000,487.4604,32.0,95605.375,1.13595
7680000,487.63742,32.0,95603.36,1.135926
7688000,487.69028,32.0,95602.734,1.1359186
7700000,487.611,32.0,95603.664,1.1359297
7708000,487.64008,32.0,95603.32,1.1359257
7720000,487.36526,32.0,95606.48,1.1359631
7728000,487.47626,32.0,95605.2,1.135948
7740000,487.49738,32.0,95604.95,1.135945
7748000,487.80655,32.0,95601.41,1.1359029
7760000,487.61365,32.0,95603.61,1.135929
7768000,487.61365,32.0,95603.61,1.135929
7780000,487.6242,32.0,95603.5,1.1359277
7788000,487.64008,32.0,95603.33,1.1359257
7800000,487.7669,32.0,95601.85,1.1359081
7808000,487.76163,32.0,95601.914,1.1359088
7820000,487.55023,32.0,95604.36,1.1359379
7828000,487.67972,32.0,95602.86,1.1359202
7840000,487.7167,32.0,95602.43,1.135915
7848000,487.6348,32.0,95603.38,1.1359264
7860000,487.69293,32.0,95602.695,1.1359181
7868000,487.53967,32.0,95604.47,1.1359392
7880000,487.49738,32.0,95604.945,1.135945
7888000,487.52646,32.0,95604.62,1.135941
7900000,487.5925,32.0,95603.87,1.1359321
7908000,487.62158,32.0,95603.53,1.1359282
7920000,487.685,32.0,95602.805,1.1359195
7928000,487.46832,32.0,95605.27,1.1359488
7940000,487.54495,32.0,95604.41,1.1359385
7948000,487.722,32.0,95602.375,1.1359143
7960000,487.60837,32.0,95603.68,1.1359298
7968000,487.74313,32.0,95602.15,1.1359117
7980000,487.64008,32.0,95603.32,1.1359257
7988000,487.4921,32.0,95605.01,1.1359457
8000000,487.75104,32.0,95602.04,1.1359104
8008000,487.51324,32.0,95604.78,1.1359429
8019999,487.5555,32.0,95604.28,1.135937
8028000,487.58722,32.0,95603.914,1.1359327
8040000,487.57138,32.0,95604.12,1.1359351
8048000,487.62158,32.0,95603.53,1.1359282
8060000,487.5846,32.0,95603.945,1.135933
8072000,487.67706,32.0,95602.88,1.1359204
8080000,487.72464,32.0,95602.36,1.1359142
8088000,487.75104,32.0,95602.04,1.1359104
8099999,487.6242,32.0,95603.5,1.1359277
8108000,487.574,32.0,95604.06,1.1359345
8120000,487.55817,32.0,95604.25,1.1359366
8128000,487.6242,32.0,95603.49,1.1359277
8140000,487.80124,32.0,95601.484,1.1359038
8152000,487.67706,32.0,95602.9,1.1359205
8160000,487.64008,32.0,95603.305,1.1359254
8168000,487.58194,32.0,95603.98,1.1359334
8179999,487.82504,32.0,95601.2,1.1359005
8188000,487.69293,32.0,95602.71,1.1359184
8200000,487.7035,32.0,95602.59,1.135917
8208000,487.65063,32.0,95603.19,1.135924
8220000,487.66385,32.0,95603.055,1.1359224
8232000,487.65857,32.0,95603.11,1.1359231
8240000,487.5529,32.0,95604.31,1.1359373
8248000,487.5238,32.0,95604.64,1.1359413
8259999,487.62686,32.0,95603.484,1.1359276
8268000,487.4604,32.0,95605.37,1.13595
8280000,487.69556,32.0,95602.68,1.135918
8288000,487.7035,32.0,95602.58,1.1359168
8300000,487.6559,32.0,95603.14,1.1359235
8312000,487.60837,32.0,95603.67,1.1359298
8320000,487.58194,32.0,95603.98,1.1359334
8328000,487.55817,32.0,95604.24,1.1359365
8339999,487.51852,32.0,95604.7,1.135942
8348000,487.57928,32.0,95604.016,1.1359339
8360000,487.53967,32.0,95604.48,1.1359394
8368000,487.77484,32.0,95601.79,1.1359074
8380000,487.68234,32.0,95602.82,1.1359197
8388000,487.74048,32.0,95602.164,1.1359118
8400000,487.51324,32.0,95604.76,1.1359427
8408000,487.79333,32.0,95601.55,1.1359046
8420000,487.5423,32.0,95604.45,1.135939
8428000,487.65063,32.0,95603.195,1.1359241
8440000,487.66122,32.0,95603.086,1.1359228
8448000,487.61365,32.0,95603.61,1.135929
8460000,487.5846,32.0,95603.96,1.1359332
8468000,487.6057,32.0,95603.72,1.1359303
8480000,487.66913,32.0,95602.984,1.1359216
8488000,487.6031,32.0,95603.75,1.1359307
8500000,487.53702,32.0,95604.5,1.1359396
8508000,487.59515,32.0,95603.836,1.1359317
8520000,487.72726,32.0,95602.32,1.1359137
8528000,487.71143,32.0,95602.5,1.1359159
8540000,487.56873,32.0,95604.14,1.1359353
8548000,487.53436,32.0,95604.53,1.13594
8560000,487.61893,32.0,95603.57,1.1359285
8568000,487.58722,32.0,95603.91,1.1359326
8580000,487.63742,32.0,95603.36,1.135926
8588000,487.5846,32.0,95603.945,1.135933
8600000,487.62158,32.0,95603.516,1.1359279
8608000,487.67972,32.0,95602.84,1.1359199
8620000,487.49475,32.0,95604.97,1.1359452
8628000,487.60043,32.0,95603.78,1.135931
8640000,487.7484,32.0,95602.08,1.1359109
8648000,487.62952,32.0,95603.44,1.135927
8660000,487.60837,32.0,95603.68,1.1359298
8668000,487.63214,32.0,95603.42,1.1359268
8680000,487.6744,32.0,95602.91,1.1359206
8688000,487.76163,32.0,95601.93,1.1359091
8700000,487.6242,32.0,95603.5,1.1359277
8708000,487.47095,32.0,95605.25,1.1359485
8720000,487.58987,32.0,95603.89,1.1359323
8728000,487.685,32.0,95602.79,1.1359193
8740000,487.40753,32.0,95605.98,1.1359571
8748000,487.62686,32.0,95603.46,1.1359273
8760000,487.4419,32.0,95605.59,1.1359526
8768000,487.62158,32.0,95603.53,1.1359282
8780000,487.80655,32.0,95601.42,1.135903
8788000,487.60837,32.0,95603.695,1.1359301
8800000,487.7167,32.0,95602.44,1.1359152
8808000,487.5053,32.0,95604.86,1.1359439
8820000,487.84616,32.0,95600.96,1.1358975
8828000,487.61893,32.0,95603.555,1.1359284
8840000,487.6031,32.0,95603.75,1.1359307
8848000,487.43396,32.0,95605.695,1.1359538
8860000,487.5555,32.0,95604.28,1.135937
8868000,487.7035,32.0,95602.58,1.1359168
8880000,487.7669,32.0,95601.86,1.1359082
8888000,487.69028,32.0,95602.75,1.1359189
8900000,487.5925,32.0,95603.87,1.1359321
8908000,487.60043,32.0,95603.78,1.135931
8920000,487.70877,32.0,95602.52,1.1359161
8928000,487.6163,32.0,95603.58,1.1359286
8940000,487.62686,32.0,95603.46,1.1359273
8948000,487.51587,32.0,95604.73,1.1359423
8960000,487.574,32.0,95604.086,1.1359347
8968000,487.81183,32.0,95601.35,1.1359022
8980000,487.66913,32.0,95602.99,1.1359217
8988000,487.52908,32.0,95604.586,1.1359407
9000000,487.6744,32.0,95602.914,1.1359208
9008000,487.5846,32.0,95603.945,1.135933
9020000,487.70877,32.0,95602.516,1.135916
9028000,487.75635,32.0,95601.99,1.1359098
9040000,487.71933,32.0,95602.41,1.1359147
9048000,487.66122,32.0,95603.07,1.1359227
9060000,487.6163,32.0,95603.586,1.1359288
9068000,487.5423,32.0,95604.45,1.135939
9080000,487.7035,32.0,95602.58,1.1359168
9088000,487.68234,32.0,95602.83,1.1359197
9100000,487.70084,32.0,95602.61,1.1359172
9108000,487.62686,32.0,95603.484,1.1359276
9120000,487.57928,32.0,95604.0,1.1359336
9128000,487.64536,32.0,95603.266,1.1359249
9140000,487.70084,32.0,95602.6,1.1359171
9148000,487.53702,32.0,95604.5,1.1359396
9160000,487.54758,32.0,95604.39,1.1359383
9168000,487.67706,32.0,95602.88,1.1359204
9180000,487.685,32.0,95602.79,1.1359193
9188000,487.61893,32.0,95603.57,1.1359285
9200000,487.46567,32.0,95605.33,1.1359495
9208000,487.71405,32.0,95602.47,1.1359155
9220000,487.60837,32.0,95603.695,1.1359301
9228000,487.6163,32.0,95603.58,1.1359286
9240000,487.62952,32.0,95603.445,1.1359271
9248000,487.48416,32.0,95605.09,1.1359466
9260000,487.65857,32.0,95603.125,1.1359233
9268000,487.51324,32.0,95604.76,1.1359427
9280000,487.65857,32.0,95603.11,1.1359231
9288000,487.46832,32.0,95605.29,1.135949
9300000,487.56873,32.0,95604.14,1.1359353
9308000,487.69556,32.0,95602.68,1.135918
9320000,487.48947,32.0,95605.04,1.135946
9328000,487.56873,32.0,95604.14,1.1359353
9340000,487.4419,32.0,95605.59,1.1359526
9348000,487.58722,32.0,95603.91,1.1359326
9360000,487.6427,32.0,95603.3,1.1359253
9368000,487.5925,32.0,95603.87,1.1359321
9380000,487.71933,32.0,95602.4,1.1359147
9388000,487.62952,32.0,95603.445,1.1359271
9400000,487.54495,32.0,95604.414,1.1359386
9408000,487.53436,32.0,95604.53,1.13594
9420000,487.48947,32.0,95605.04,1.135946
9428000,487.6665,32.0,95603.02,1.1359221
9440000,487.62158,32.0,95603.53,1.1359282
9448000,487.6163,32.0,95603.6,1.135929
9460000,487.5846,32.0,95603.945,1.135933
9468000,487.4366,32.0,95605.64,1.1359532
9480000,487.55023,32.0,95604.336,1.1359377
9488000,487.4419,32.0,95605.586,1.1359525
9500000,487.70084,32.0,95602.61,1.1359172
9508000,487.57666,32.0,95604.05,1.1359342
9520000,487.62686,32.0,95603.46,1.1359273
9528000,487.69028,32.0,95602.75,1.1359189
9540000,487.67706,32.0,95602.875,1.1359203
9548000,487.63742,32.0,95603.336,1.1359258
9560000,487.60837,32.0,95603.68,1.1359298
9568000,487.6665,32.0,95603.0,1.1359218
9580000,487.5053,32.0,95604.84,1.1359437
9588000,487.77484,32.0,95601.77,1.1359072
9600000,487.36526,32.0,95606.48,1.1359631
9608000,487.44717,32.0,95605.54,1.135952
9620000,487.71405,32.0,95602.47,1.1359155
9628000,487.72992,32.0,95602.27,1.1359131
9640000,487.4419,32.0,95605.58,1.1359525
9648000,487.78806,32.0,95601.63,1.1359055
9660000,487.62686,32.0,95603.46,1.1359273
9668000,487.48416,32.0,95605.09,1.1359466
9680000,487.64008,32.0,95603.33,1.1359257
9688000,487.74576,32.0,95602.1,1.1359111
9700000,487.69293,32.0,95602.7,1.1359183
9708000,487.59515,32.0,95603.836,1.1359317
9720000,487.7484,32.0,95602.08,1.1359109
9728000,487.5529,32.0,95604.33,1.1359376
9740000,487.648,32.0,95603.22,1.1359243
9748000,487.7167,32.0,95602.44,1.1359152
9760000,487.6744,32.0,95602.914,1.1359208
9768000,487.5053,32.0,95604.85,1.1359438
9780000,487.6559,32.0,95603.14,1.1359235
9788000,487.62158,32.0,95603.53,1.1359282
9800000,487.71405,32.0,95602.46,1.1359154
9808000,487.65857,32.0,95603.1,1.135923
9820000,487.49475,32.0,95604.97,1.1359452
9828000,487.60837,32.0,95603.695,1.1359301
9840000,487.6242,32.0,95603.5,1.1359277
9848000,487.58722,32.0,95603.914,1.1359327
9860000,487.63214,32.0,95603.41,1.1359266
9868000,487.69293,32.0,95602.72,1.1359185
9880000,487.47626,32.0,95605.19,1.1359478
9888000,487.7669,32.0,95601.86,1.1359082
9900000,487.73782,32.0,95602.19,1.1359122
9908000,487.59778,32.0,95603.805,1.1359314
9920000,487.65857,32.0,95603.125,1.1359233
9928000,487.58987,32.0,95603.89,1.1359323
9940000,487.48154,32.0,95605.14,1.1359472
9948000,487.7669,32.0,95601.87,1.1359084
9960000,487.69556,32.0,95602.664,1.1359178
9968000,487.611,32.0,95603.64,1.1359293
9980000,487.5238,32.0,95604.63,1.1359411
9988000,487.73782,32.0,95602.19,1.1359122
10000000,487.70612,32.0,95602.555,1.1359165
10008000,487.4419,32.0,95605.586,1.1359525
10020000,487.67706,32.0,95602.9,1.1359205
10028000,487.71143,32.0,95602.49,1.1359158
10040000,487.46567,32.0,95605.31,1.1359493
10048000,487.58194,32.0,95603.97,1.1359333
10060000,487.56607,32.0,95604.17,1.1359357
10068000,487.7669,32.0,95601.86,1.1359082
10080000,487.65857,32.0,95603.125,1.1359233
10088000,487.62158,32.0,95603.53,1.1359282
10100000,487.59515,32.0,95603.836,1.1359317
10108000,487.51587,32.0,95604.73,1.1359423
10120000,487.47626,32.0,95605.19,1.1359478
10128000,487.68234,32.0,95602.82,1.1359197
10140000,487.71933,32.0,95602.414,1.1359148
10148000,487.44983,32.0,95605.5,1.1359515
10160000,487.58987,32.0,95603.89,1.1359323
10168000,487.6242,32.0,95603.49,1.1359277
10180000,487.55817,32.0,95604.26,1.1359367
10188000,487.6242,32.0,95603.5,1.1359277
10200000,487.61365,32.0,95603.61,1.135929
10208000,487.72726,32.0,95602.32,1.1359137
10220000,487.67706,32.0,95602.88,1.1359204
10228000,487.76425,32.0,95601.88,1.1359085
10240000,487.74313,32.0,95602.13,1.1359115
10248000,487.6163,32.0,95603.6,1.135929
10260000,487.48416,32.0,95605.11,1.1359469
10268000,487.7484,32.0,95602.08,1.1359109
10280000,487.59778,32.0,95603.81,1.1359315
10288000,487.6982,32.0,95602.63,1.1359174
10300000,487.5053,32.0,95604.86,1.1359439
10308000,487.61893,32.0,95603.55,1.1359283
10320000,487.6348,32.0,95603.39,1.1359265
10328000,487.67706,32.0,95602.9,1.1359205
10340000,487.72464,32.0,95602.36,1.1359142
10348000,487.6665,32.0,95603.016,1.135922
10360000,487.6744,32.0,95602.93,1.135921
10368000,487.66122,32.0,95603.08,1.1359227
10380000,487.58194,32.0,95603.99,1.1359336
10388000,487.67706,32.0,95602.9,1.1359205
10400000,487.6242,32.0,95603.5,1.1359277
10408000,487.6057,32.0,95603.72,1.1359303
10420000,487.72726,32.0,95602.31,1.1359136
10428000,487.68234,32.0,95602.83,1.1359197
10440000,487.47626,32.0,95605.195,1.1359478
10448000,487.6665,32.0,95603.02,1.1359221
10460000,487.57138,32.0,95604.12,1.1359351
10468000,487.63214,32.0,95603.42,1.1359268
10480000,487.70877,32.0,95602.54,1.1359164
10488000,487.5106,32.0,95604.8,1.1359432
10500000,487.5238,32.0,95604.66,1.1359415
10508000,487.7167,32.0,95602.44,1.1359152
10520000,487.64536,32.0,95603.25,1.1359248
10528000,487.6665,32.0,95603.02,1.1359221
10540000,487.70084,32.0,95602.6,1.1359171
10548000,487.84354,32.0,95600.98,1.1358978
10560000,487.56607,32.0,95604.17,1.1359357
10568000,487.61365,32.0,95603.63,1.1359293
10580000,487.69028,32.0,95602.74,1.1359187
10588000,487.574,32.0,95604.086,1.1359347
10600000,487.67972,32.0,95602.84,1.1359199
10608000,487.69028,32.0,95602.74,1.1359187
10620000,487.71933,32.0,95602.414,1.1359148
10628000,487.5423,32.0,95604.445,1.135939
10640000,487.5846,32.0,95603.945,1.135933
10648000,487.67706,32.0,95602.875,1.1359203
10660000,487.66913,32.0,95602.99,1.1359217
10668000,487.63742,32.0,95603.36,1.135926
10680000,487.52646,32.0,95604.62,1.135941
10688000,487.60043,32.0,95603.766,1.1359309
10700000,487.69293,32.0,95602.695,1.1359181
10708000,487.66385,32.0,95603.04,1.1359223
10720000,487.59515,32.0,95603.82,1.1359315
10728000,487.6242,32.0,95603.49,1.1359277
10740000,487.57666,32.0,95604.055,1.1359344
10748000,487.66385,32.0,95603.05,1.1359223
10760000,487.62952,32.0,95603.445,1.1359271
10768000,487.5529,32.0,95604.31,1.1359373
10780000,487.54495,32.0,95604.41,1.1359385
10788000,487.65857,32.0,95603.11,1.1359231
10800000,487.72992,32.0,95602.27,1.1359131
10808000,487.50003,32.0,95604.92,1.1359446
10820000,487.50003,32.0,95604.92,1.1359446
10828000,487.78806,32.0,95601.62,1.1359054
10840000,487.72992,32.0,95602.27,1.1359131
10848000,487.57666,32.0,95604.03,1.135934
10860000,487.63742,32.0,95603.35,1.135926
10868000,487.7352,32.0,95602.234,1.1359127
10880000,487.6533,32.0,95603.164,1.1359237
10888000,487.84882,32.0,95600.93,1.1358972
10900000,487.5608,32.0,95604.23,1.1359364
10908000,487.43924,32.0,95605.61,1.1359528
10920000,487.69028,32.0,95602.74,1.1359187
10928000,487.6427,32.0,95603.29,1.1359252
10940000,487.574,32.0,95604.07,1.1359345
10948000,487.43924,32.0,95605.61,1.1359528
10960000,487.611,32.0,95603.664,1.1359297
10968000,487.56345,32.0,95604.2,1.1359361
10980000,487.54758,32.0,95604.37,1.135938
10988000,487.62952,32.0,95603.43,1.1359268
11000000,487.45245,32.0,95605.47,1.1359512
11008000,487.71143,32.0,95602.51,1.135916
11020000,487.39435,32.0,95606.125,1.1359589
11028000,487.51587,32.0,95604.75,1.1359426
11040000,487.62952,32.0,95603.43,1.1359268
11048000,487.58194,32.0,95603.98,1.1359334
11060000,487.6982,32.0,95602.63,1.1359174
11068000,487.68762,32.0,95602.766,1.135919
11080000,487.5846,32.0,95603.96,1.1359332
11088000,487.57138,32.0,95604.12,1.1359351
11100000,487.83826,32.0,95601.05,1.1358986
11108000,487.55023,32.0,95604.35,1.1359378
11120000,487.55023,32.0,95604.36,1.1359379
11128000,487.6163,32.0,95603.586,1.1359288
11140000,487.65063,32.0,95603.195,1.1359241
11148000,487.65063,32.0,95603.19,1.135924
11160000,487.81976,32.0,95601.24,1.1359009
11168000,487.51852,32.0,95604.7,1.135942
11180000,487.6348,32.0,95603.39,1.1359265
11188000,487.66385,32.0,95603.05,1.1359223
11200000,487.6057,32.0,95603.73,1.1359304
11208000,487.5238,32.0,95604.64,1.1359413
11220000,487.63214,32.0,95603.41,1.1359266
11228000,487.72992,32.0,95602.29,1.1359134
11240000,487.53967,32.0,95604.48,1.1359394
11248000,487.6348,32.0,95603.38,1.1359264
11260000,487.62952,32.0,95603.43,1.1359268
11268000,487.72992,32.0,95602.29,1.1359134
11280000,487.50266,32.0,95604.9,1.1359444
11288000,487.4736,32.0,95605.234,1.1359483
11300000,487.64008,32.0,95603.32,1.1359257
11308000,487.63742,32.0,95603.36,1.135926
11320000,487.64008,32.0,95603.33,1.1359257
11328000,487.6163,32.0,95603.586,1.1359288
11340000,487.72992,32.0,95602.27,1.1359131
11348000,487.52646,32.0,95604.62,1.135941
11360000,487.6242,32.0,95603.5,1.1359277
11368000,487.611,32.0,95603.64,1.1359293
11380000,487.57666,32.0,95604.03,1.135934
11388000,487.6665,32.0,95603.03,1.1359222
11400000,487.64536,32.0,95603.266,1.1359249
11408000,487.54758,32.0,95604.39,1.1359383
11420000,487.6665,32.0,95603.0,1.1359218
11428000,487.68234,32.0,95602.83,1.1359197
11440000,487.648,32.0,95603.22,1.1359243
11448000,487.66385,32.0,95603.04,1.1359223
11460000,487.75635,32.0,95601.984,1.1359097
11468000,487.71405,32.0,95602.484,1.1359156
11480000,487.51587,32.0,95604.74,1.1359425
11488000,487.7537,32.0,95602.02,1.1359102
11500000,487.52646,32.0,95604.62,1.135941
11508000,487.66122,32.0,95603.09,1.1359229
11520000,487.63214,32.0,95603.414,1.1359267
11528000,487.648,32.0,95603.22,1.1359243
11540000,487.64536,32.0,95603.25,1.1359248
11548000,487.58722,32.0,95603.914,1.1359327
11560000,487.66385,32.0,95603.04,1.1359223
11568000,487.4921,32.0,95605.01,1.1359457
11580000,487.73254,32.0,95602.25,1.1359129
11588000,487.65063,32.0,95603.195,1.1359241
11600000,487.61365,32.0,95603.61,1.135929
11608000,487.57666,32.0,95604.05,1.1359342
11620000,487.5555,32.0,95604.3,1.1359372
11628000,487.38904,32.0,95606.18,1.1359596
11640000,487.64008,32.0,95603.32,1.1359257
11648000,487.611,32.0,95603.664,1.1359297
11660000,487.71933,32.0,95602.41,1.1359147
11668000,487.60837,32.0,95603.69,1.13593
11680000,487.55023,32.0,95604.36,1.1359379
11688000,487.66913,32.0,95602.99,1.1359217
11700000,487.6031,32.0,95603.75,1.1359307
11708000,487.67972,32.0,95602.84,1.1359199
11720000,487.57928,32.0,95604.0,1.1359336
11728000,487.6744,32.0,95602.914,1.1359208
11740000,487.78806,32.0,95601.63,1.1359055
11748000,487.5423,32.0,95604.45,1.135939
11760000,487.5238,32.0,95604.63,1.1359411
11768000,487.5555,32.0,95604.3,1.1359372
11780000,487.63742,32.0,95603.336,1.1359258
11788000,487.54758,32.0,95604.37,1.135938
11800000,487.4604,32.0,95605.39,1.1359502
11808000,487.5529,32.0,95604.305,1.1359373
11820000,487.53436,32.0,95604.53,1.13594
11828000,487.6744,32.0,95602.91,1.1359206
11840000,487.7854,32.0,95601.66,1.1359059
11848000,487.63742,32.0,95603.36,1.135926
11860000,487.58987,32.0,95603.88,1.1359323
11868000,487.6427,32.0,95603.3,1.1359253
11880000,487.51324,32.0,95604.78,1.1359429
11888000,487.71933,32.0,95602.4,1.1359147
11900000,487.72992,32.0,95602.3,1.1359135
11908000,487.49475,32.0,95604.984,1.1359453
11920000,487.6427,32.0,95603.27,1.135925
11928000,487.78012,32.0,95601.7,1.1359063
11940000,487.7167,32.0,95602.44,1.1359152
11948000,487.3732,32.0,95606.375,1.1359619
11960000,487.59778,32.0,95603.8,1.1359313
11968000,487.62686,32.0,95603.48,1.1359274
11980000,487.65063,32.0,95603.19,1.135924
11988000,487.52118,32.0,95604.69,1.1359419
12000000,487.41547,32.0,95605.875,1.1359559
12008000,487.67706,32.0,95602.9,1.1359205
12020000,487.6427,32.0,95603.27,1.135925
12028000,487.67178,32.0,95602.945,1.1359211
12040000,487.51324,32.0,95604.78,1.1359429
12048000,487.48682,32.0,95605.06,1.1359463
12060000,487.54758,32.0,95604.37,1.135938
12068000,487.6982,32.0,95602.64,1.1359175
12080000,487.50266,32.0,95604.9,1.1359444
12088000,487.6348,32.0,95603.38,1.1359264
12100000,487.7352,32.0,95602.22,1.1359125
12108000,487.66385,32.0,95603.055,1.1359224
12120000,487.57928,32.0,95604.0,1.1359336
12128000,487.54758,32.0,95604.37,1.135938
12140000,487.6057,32.0,95603.71,1.1359302
12148000,487.67972,32.0,95602.85,1.13592
12160000,487.6559,32.0,95603.14,1.1359235
12168000,487.55023,32.0,95604.336,1.1359377
12180000,487.648,32.0,95603.234,1.1359246
12188000,487.54758,32.0,95604.39,1.1359383
12200000,487.74048,32.0,95602.164,1.1359118
12208000,487.648,32.0,95603.22,1.1359243
12220000,487.66122,32.0,95603.08,1.1359227
12228000,487.63742,32.0,95603.336,1.1359258
12240000,487.71933,32.0,95602.414,1.1359148
12248000,487.56345,32.0,95604.2,1.1359361
12260000,487.5608,32.0,95604.22,1.1359363
12268000,487.59778,32.0,95603.8,1.1359313
12280000,487.68234,32.0,95602.83,1.1359197
12288000,487.5106,32.0,95604.8,1.1359432
12300000,487.51324,32.0,95604.76,1.1359427
12308000,487.6427,32.0,95603.3,1.1359253
12320000,487.611,32.0,95603.64,1.1359293
12328000,487.6559,32.0,95603.13,1.1359234
12340000,487.65857,32.0,95603.11,1.1359231
12348000,487.53174,32.0,95604.56,1.1359403
12360000,487.5423,32.0,95604.445,1.135939
12368000,487.66385,32.0,95603.055,1.1359224
12380000,487.4921,32.0,95605.0,1.1359456
12388000,487.69556,32.0,95602.664,1.1359178
12400000,487.8356,32.0,95601.09,1.1358992
12408000,487.62952,32.0,95603.43,1.1359268
12420000,487.66122,32.0,95603.086,1.1359228
12428000,487.60837,32.0,95603.695,1.1359301
12440000,487.56873,32.0,95604.14,1.1359353
12448000,487.43396,32.0,95605.695,1.1359538
12460000,487.5053,32.0,95604.85,1.1359438
12468000,487.5608,32.0,95604.23,1.1359364
12480000,487.5238,32.0,95604.64,1.1359413
12488000,487.58194,32.0,95603.98,1.1359334
12500000,487.64008,32.0,95603.33,1.1359257
12508000,487.6348,32.0,95603.38,1.1359264
12520000,487.66385,32.0,95603.055,1.1359224
12528000,487.42868,32.0,95605.734,1.1359543
12540000,487.51587,32.0,95604.73,1.1359423
12548000,487.6163,32.0,95603.586,1.1359288
12560000,487.63742,32.0,95603.36,1.135926
12568000,487.6242,32.0,95603.5,1.1359277
12580000,487.4921,32.0,95605.01,1.1359457
12588000,487.6559,32.0,95603.14,1.1359235
12600000,487.6427,32.0,95603.3,1.1359253
12608000,487.48682,32.0,95605.06,1.1359463
12620000,487.59515,32.0,95603.836,1.1359317
12628000,487.6982,32.0,95602.66,1.1359177
12640000,487.70877,32.0,95602.52,1.1359161
12648000,487.69293,32.0,95602.695,1.1359181
12660000,487.65857,32.0,95603.1,1.135923
12668000,487.67972,32.0,95602.85,1.13592
12680000,487.70084,32.0,95602.6,1.1359171
12688000,487.51587,32.0,95604.75,1.1359426
12700000,487.74576,32.0,95602.1,1.1359111
12708000,487.71405,32.0,95602.47,1.1359155
12720000,487.65063,32.0,95603.195,1.1359241
12728000,487.52646,32.0,95604.62,1.135941
12740000,487.70612,32.0,95602.555,1.1359165
12748000,487.7722,32.0,95601.82,1.1359078
12760000,487.5053,32.0,95604.87,1.135944
12768000,487.65857,32.0,95603.11,1.1359231
12780000,487.53702,32.0,95604.5,1.1359396
12788000,487.6427,32.0,95603.3,1.1359253
12800000,487.56345,32.0,95604.19,1.1359359
12808000,487.73254,32.0,95602.25,1.1359129
12820000,487.5925,32.0,95603.86,1.135932
12828000,487.6057,32.0,95603.71,1.1359302
12840000,487.50266,32.0,95604.9,1.1359444
12848000,487.67178,32.0,95602.94,1.135921
12860000,487.7722,32.0,95601.8,1.1359075
12868000,487.58194,32.0,95603.98,1.1359334
12880000,487.61365,32.0,95603.63,1.1359293
12888000,487.61365,32.0,95603.625,1.1359292
12900000,487.48416,32.0,95605.09,1.1359466
12908000,487.69028,32.0,95602.75,1.1359189
12920000,487.52646,32.0,95604.62,1.135941
12928000,487.7722,32.0,95601.8,1.1359075
12940000,487.63742,32.0,95603.36,1.135926
12948000,487.66385,32.0,95603.04,1.1359223
12960000,487.55817,32.0,95604.266,1.1359369
12968000,487.5238,32.0,95604.66,1.1359415
12980000,487.45776,32.0,95605.4,1.1359503
12988000,487.6559,32.0,95603.13,1.1359234
13000000,487.44455,32.0,95605.555,1.1359521
13008000,487.45245,32.0,95605.47,1.1359512
13020000,487.6665,32.0,95603.02,1.1359221
13028000,487.68234,32.0,95602.83,1.1359197
13040000,487.69556,32.0,95602.69,1.135918
13048000,487.51324,32.0,95604.76,1.1359427
13060000,487.66913,32.0,95602.97,1.1359215
13068000,487.50797,32.0,95604.81,1.1359433
13080000,487.62158,32.0,95603.52,1.135928
13088000,487.75635,32.0,95601.99,1.1359098
13100000,487.57666,32.0,95604.03,1.135934
13108000,487.62158,32.0,95603.52,1.135928
13120000,487.66385,32.0,95603.055,1.1359224
13128000,487.5106,32.0,95604.8,1.1359432
13140000,487.70084,32.0,95602.61,1.1359172
13148000,487.5529,32.0,95604.33,1.1359376
13160000,487.68234,32.0,95602.83,1.1359197
13168000,487.6559,32.0,95603.14,1.1359235
13180000,487.71143,32.0,95602.51,1.135916
13188000,487.5238,32.0,95604.66,1.1359415
13200000,487.45776,32.0,95605.4,1.1359503
13208000,487.71933,32.0,95602.41,1.1359147
13220000,487.5423,32.0,95604.44,1.1359389
13228000,487.52646,32.0,95604.61,1.1359409
13240000,487.71405,32.0,95602.47,1.1359155
13248000,487.58194,32.0,95603.98,1.1359334
13260000,487.67178,32.0,95602.96,1.1359214
13268000,487.54758,32.0,95604.39,1.1359383
13280000,487.68234,32.0,95602.82,1.1359197
13288000,487.71933,32.0,95602.4,1.1359147
13300000,487.60837,32.0,95603.69,1.13593
13308000,487.62952,32.0,95603.445,1.1359271
13320000,487.52646,32.0,95604.62,1.135941
13328000,487.74576,32.0,95602.1,1.1359111
13340000,487.7167,32.0,95602.44,1.1359152
13348000,487.64536,32.0,95603.24,1.1359247
13360000,487.52118,32.0,95604.664,1.1359415
13368000,487.80655,32.0,95601.42,1.135903
13380000,487.78275,32.0,95601.67,1.135906
13388000,487.685,32.0,95602.805,1.1359195
13400000,487.6057,32.0,95603.73,1.1359304
13408000,487.65063,32.0,95603.195,1.1359241
13420000,487.4604,32.0,95605.375,1.13595
13428000,487.74576,32.0,95602.09,1.135911
13440000,487.55817,32.0,95604.24,1.1359365
13448000,487.69293,32.0,95602.72,1.1359185
13460000,487.53174,32.0,95604.55,1.1359402
13468000,487.6348,32.0,95603.39,1.1359265
13480000,487.66385,32.0,95603.04,1.1359223
13488000,487.5555,32.0,95604.27,1.135937
13500000,487.7035,32.0,95602.59,1.135917
13508000,487.6982,32.0,95602.64,1.1359175
13520000,487.81445,32.0,95601.32,1.1359018
13528000,487.52118,32.0,95604.67,1.1359416
13540000,487.65857,32.0,95603.11,1.1359231
13548000,487.62952,32.0,95603.445,1.1359271
13560000,487.56873,32.0,95604.14,1.1359353
13568000,487.61893,32.0,95603.555,1.1359284
13580000,487.61893,32.0,95603.555,1.1359284
13588000,487.62686,32.0,95603.46,1.1359273
13600000,487.4736,32.0,95605.234,1.1359483
13608000,487.67972,32.0,95602.86,1.1359202
13620000,487.46832,32.0,95605.29,1.135949
13628000,487.685,32.0,95602.8,1.1359193
13640000,487.6427,32.0,95603.28,1.1359252
13648000,487.70612,32.0,95602.555,1.1359165
13660000,487.61365,32.0,95603.63,1.1359293
13668000,487.722,32.0,95602.38,1.1359144
13680000,487.72992,32.0,95602.27,1.1359131
13688000,487.5846,32.0,95603.94,1.1359329
13700000,487.51587,32.0,95604.73,1.1359423
13708000,487.59515,32.0,95603.836,1.1359317
13720000,487.685,32.0,95602.805,1.1359195
13728000,487.574,32.0,95604.08,1.1359346
13740000,487.65857,32.0,95603.11,1.1359231
13748000,487.69556,32.0,95602.69,1.135918
13760000,487.66122,32.0,95603.08,1.1359227
13768000,487.6031,32.0,95603.75,1.1359307
13780000,487.5555,32.0,95604.28,1.135937
13788000,487.50797,32.0,95604.836,1.1359437
13800000,487.5608,32.0,95604.21,1.1359361
13808000,487.6744,32.0,95602.914,1.1359208
13820000,487.45776,32.0,95605.414,1.1359504
13828000,487.70877,32.0,95602.52,1.1359161
13840000,487.53967,32.0,95604.48,1.1359394
13848000,487.52118,32.0,95604.664,1.1359415
13860000,487.70877,32.0,95602.52,1.1359161
13868000,487.57666,32.0,95604.03,1.135934
13880000,487.67706,32.0,95602.875,1.1359203
13888000,487.62952,32.0,95603.445,1.1359271
13900000,487.67706,32.0,95602.875,1.1359203
13908000,487.69556,32.0,95602.68,1.135918
13920000,487.57928,32.0,95604.016,1.1359339
13928000,487.6057,32.0,95603.71,1.1359302
13940000,487.4419,32.0,95605.58,1.1359525
13948000,487.70612,32.0,95602.55,1.1359164
13960000,487.7035,32.0,95602.58,1.1359168
13968000,487.57666,32.0,95604.03,1.135934
13980000,487.6533,32.0,95603.164,1.1359237
13988000,487.74576,32.0,95602.11,1.1359112
14000000,487.61365,32.0,95603.61,1.135929
14008000,487.63742,32.0,95603.36,1.135926
14020000,487.5925,32.0,95603.86,1.135932
14028000,487.71143,32.0,95602.49,1.1359158
14040000,487.50797,32.0,95604.81,1.1359433
14048000,487.56345,32.0,95604.19,1.1359359
14060000,487.6982,32.0,95602.65,1.1359177
14068000,487.6057,32.0,95603.73,1.1359304
14080000,487.42606,32.0,95605.766,1.1359546
14088000,487.73254,32.0,95602.24,1.1359128
14100000,487.71143,32.0,95602.51,1.135916
14108000,487.52908,32.0,95604.586,1.1359407
14120000,487.70877,32.0,95602.54,1.1359164
14128000,487.47888,32.0,95605.17,1.1359476
14140000,487.57666,32.0,95604.055,1.1359344
14148000,487.69293,32.0,95602.72,1.1359185
14160000,487.7722,32.0,95601.8,1.1359075
14168000,487.59778,32.0,95603.81,1.1359315
14180000,487.64008,32.0,95603.305,1.1359254
14188000,487.67972,32.0,95602.85,1.13592
14200000,487.6665,32.0,95603.0,1.1359218
14208000,487.574,32.0,95604.086,1.1359347
14220000,487.72992,32.0,95602.27,1.1359131
14228000,487.39697,32.0,95606.09,1.1359586
14240000,487.5555,32.0,95604.28,1.135937
14248000,487.6242,32.0,95603.49,1.1359277
14260000,487.6559,32.0,95603.14,1.1359235
14268000,487.6163,32.0,95603.6,1.135929
14280000,487.41547,32.0,95605.875,1.1359559
14288000,487.58194,32.0,95603.97,1.1359333
14300000,487.54758,32.0,95604.39,1.1359383
14308000,487.47095,32.0,95605.24,1.1359484
14320000,487.70612,32.0,95602.555,1.1359165
14328000,487.71405,32.0,95602.46,1.1359154
14340000,487.5423,32.0,95604.44,1.1359389
14348000,487.65857,32.0,95603.11,1.1359231
14360000,487.5846,32.0,95603.945,1.135933
14368000,487.48682,32.0,95605.06,1.1359463
14380000,487.46304,32.0,95605.34,1.1359496
14388000,487.63742,32.0,95603.36,1.135926
14400000,487.60837,32.0,95603.695,1.1359301
14408000,487.58987,32.0,95603.875,1.1359322
14420000,487.70084,32.0,95602.6,1.1359171
14428000,487.685,32.0,95602.805,1.1359195
14440000,487.57666,32.0,95604.05,1.1359342
14448000,487.7537,32.0,95602.016,1.1359102
14460000,487.61893,32.0,95603.55,1.1359283
14468000,487.74313,32.0,95602.13,1.1359115
14480000,487.50266,32.0,95604.89,1.1359442
14488000,487.63214,32.0,95603.41,1.1359266
14500000,487.60837,32.0,95603.69,1.13593
14508000,487.54758,32.0,95604.39,1.1359383
14520000,487.52646,32.0,95604.62,1.135941
14528000,487.67972,32.0,95602.86,1.1359202
14540000,487.722,32.0,95602.375,1.1359143
14548000,487.5529,32.0,95604.33,1.1359376
14560000,487.72464,32.0,95602.35,1.1359141
14568000,487.80124,32.0,95601.48,1.1359037
14580000,487.66385,32.0,95603.055,1.1359224
14588000,487.7722,32.0,95601.82,1.1359078
14600000,487.7167,32.0,95602.44,1.1359152
14608000,487.6744,32.0,95602.93,1.135921
14620000,487.60043,32.0,95603.766,1.1359309
14628000,487.63742,32.0,95603.35,1.135926
14640000,487.4921,32.0,95605.0,1.1359456
14648000,487.65857,32.0,95603.1,1.135923
14660000,487.50266,32.0,95604.9,1.1359444
14668000,487.66122,32.0,95603.07,1.1359227
14680000,487.59515,32.0,95603.836,1.1359317
14688000,487.66913,32.0,95602.984,1.1359216
14700000,487.61365,32.0,95603.61,1.135929
14708000,487.6427,32.0,95603.27,1.135925
14720000,487.67178,32.0,95602.945,1.1359211
14728000,487.69293,32.0,95602.7,1.1359183
14740000,487.648,32.0,95603.22,1.1359243
14748000,487.75635,32.0,95601.97,1.1359096
14760000,487.6559,32.0,95603.14,1.1359235
14768000,487.55023,32.0,95604.35,1.1359378
14780000,487.71933,32.0,95602.41,1.1359147
14788000,487.73782,32.0,95602.19,1.1359122
14800000,487.70877,32.0,95602.516,1.135916
14808000,487.51852,32.0,95604.7,1.135942
14820000,487.64008,32.0,95603.305,1.1359254
14828000,487.72726,32.0,95602.33,1.1359138
14840000,487.69293,32.0,95602.7,1.1359183
14848000,487.6559,32.0,95603.14,1.1359235
14860000,487.574,32.0,95604.07,1.1359345
14868000,487.6982,32.0,95602.65,1.1359177
14880000,487.72464,32.0,95602.36,1.1359142
14888000,487.62952,32.0,95603.445,1.1359271
14900000,487.61893,32.0,95603.55,1.1359283
14908000,487.50266,32.0,95604.89,1.1359442
14928000,487.574,32.0,95604.07,1.1359345
14940000,487.69028,32.0,95602.75,1.1359189
14948000,487.56607,32.0,95604.17,1.1359357
14960000,487.648,32.0,95603.234,1.1359246
14968000,487.40753,32.0,95605.984,1.1359572
14980000,487.68762,32.0,95602.77,1.1359191
14988000,487.9228,32.0,95600.07,1.135887
15000000,487.47626,32.0,95605.195,1.1359478
15008000,487.648,32.0,95603.22,1.1359243
15020000,487.50797,32.0,95604.836,1.1359437
15028000,487.6533,32.0,95603.16,1.1359236
15040000,487.62158,32.0,95603.53,1.1359282
15048000,487.53174,32.0,95604.56,1.1359403
15060000,487.61365,32.0,95603.63,1.1359293
15068000,487.55817,32.0,95604.24,1.1359365
15080000,487.75897,32.0,95601.96,1.1359094
15088000,487.56607,32.0,95604.17,1.1359357
15100000,487.63214,32.0,95603.42,1.1359268
15108000,487.79068,32.0,95601.58,1.1359049
15120000,487.53967,32.0,95604.46,1.1359391
15128000,487.71933,32.0,95602.414,1.1359148
15140000,487.77484,32.0,95601.79,1.1359074
15148000,487.685,32.0,95602.805,1.1359195
15160000,487.4366,32.0,95605.664,1.1359534
15168000,487.69293,32.0,95602.695,1.1359181
15180000,487.60043,32.0,95603.77,1.135931
15188000,487.5608,32.0,95604.23,1.1359364
15200000,487.60837,32.0,95603.695,1.1359301
15208000,487.66913,32.0,95602.984,1.1359216
15220000,487.68762,32.0,95602.766,1.135919
15228000,487.69028,32.0,95602.75,1.1359189
15240000,487.574,32.0,95604.08,1.1359346
15248000,487.52118,32.0,95604.69,1.1359419
15260000,487.54495,32.0,95604.41,1.1359385
15268000,487.63214,32.0,95603.42,1.1359268
15280000,487.67972,32.0,95602.84,1.1359199
15288000,487.73782,32.0,95602.2,1.1359123
15300000,487.48682,32.0,95605.08,1.1359465
15308000,487.7484,32.0,95602.07,1.1359107
15320000,487.75897,32.0,95601.96,1.1359094
15328000,487.56873,32.0,95604.14,1.1359353
15340000,487.63214,32.0,95603.41,1.1359266
15348000,487.72726,32.0,95602.33,1.1359138
15360000,487.6982,32.0,95602.63,1.1359174
15368000,487.58194,32.0,95603.97,1.1359333
15380000,487.67706,32.0,95602.9,1.1359205
15388000,487.5608,32.0,95604.23,1.1359364
15400000,487.50797,32.0,95604.81,1.1359433
15408000,487.51852,32.0,95604.695,1.135942
15420000,487.70612,32.0,95602.555,1.1359165
15428000,487.6057,32.0,95603.71,1.1359302
15440000,487.58194,32.0,95603.97,1.1359333
15448000,487.71143,32.0,95602.49,1.1359158
15460000,487.48154,32.0,95605.12,1.135947
15468000,487.5106,32.0,95604.805,1.1359432
15480000,487.66913,32.0,95602.99,1.1359217
15488000,487.51852,32.0,95604.72,1.1359422
15500000,487.58194,32.0,95603.99,1.1359336
15508000,487.6057,32.0,95603.72,1.1359303
15520000,487.47626,32.0,95605.195,1.1359478
15528000,487.57138,32.0,95604.11,1.135935
15540000,487.48154,32.0,95605.12,1.135947
15548000,487.81445,32.0,95601.33,1.1359019
15560000,487.5529,32.0,95604.31,1.1359373
15568000,487.6057,32.0,95603.72,1.1359303
15580000,487.62952,32.0,95603.445,1.1359271
15588000,487.6559,32.0,95603.14,1.1359235
15600000,487.56607,32.0,95604.16,1.1359355
15608000,487.46567,32.0,95605.31,1.1359493
15620000,487.52908,32.0,95604.58,1.1359406
15628000,487.53436,32.0,95604.53,1.13594
15640000,487.5053,32.0,95604.87,1.135944
15648000,487.62686,32.0,95603.47,1.1359273
15660000,487.48154,32.0,95605.13,1.1359471
15668000,487.574,32.0,95604.07,1.1359345
15680000,487.648,32.0,95603.234,1.1359246
15688000,487.52118,32.0,95604.67,1.1359416
15700000,487.80917,32.0,95601.375,1.1359025
15708000,487.7035,32.0,95602.57,1.1359167
15720000,487.63742,32.0,95603.336,1.1359258
15728000,487.68762,32.0,95602.77,1.1359191
15740000,487.574,32.0,95604.086,1.1359347
15748000,487.52908,32.0,95604.58,1.1359406
15760000,487.7854,32.0,95601.65,1.1359057
15768000,487.56345,32.0,95604.19,1.1359359
15780000,487.66385,32.0,95603.05,1.1359223
15788000,487.59515,32.0,95603.82,1.1359315
15800000,487.648,32.0,95603.22,1.1359243
15808000,487.66122,32.0,95603.086,1.1359228
15820000,487.6348,32.0,95603.39,1.1359265
15828000,487.56607,32.0,95604.16,1.1359355
15840000,487.6533,32.0,95603.164,1.1359237
15848000,487.6348,32.0,95603.375,1.1359262
15860000,487.64536,32.0,95603.25,1.1359248
15868000,487.62952,32.0,95603.445,1.1359271
15880000,487.77747,32.0,95601.74,1.1359068
15888000,487.58722,32.0,95603.91,1.1359326
15900000,487.64536,32.0,95603.24,1.1359247
15908000,487.685,32.0,95602.79,1.1359193
15920000,487.5846,32.0,95603.94,1.1359329
15928000,487.70877,32.0,95602.516,1.135916
15940000,487.59515,32.0,95603.836,1.1359317
15948000,487.74313,32.0,95602.125,1.1359113
15960000,487.6427,32.0,95603.3,1.1359253
15968000,487.58987,32.0,95603.875,1.1359322
15980000,487.42606,32.0,95605.78,1.1359549
15988000,487.85147,32.0,95600.91,1.1358969
16000000,487.71405,32.0,95602.484,1.1359156
16008000,487.6744,32.0,95602.914,1.1359208
16020000,487.51324,32.0,95604.76,1.1359427
16028000,487.6057,32.0,95603.71,1.1359302
16040000,487.71405,32.0,95602.47,1.1359155
16048000,487.6348,32.0,95603.39,1.1359265
16060000,487.45776,32.0,95605.414,1.1359504
16068000,487.62158,32.0,95603.52,1.135928
16080000,487.7537,32.0,95602.016,1.1359102
16092000,487.74048,32.0,95602.164,1.1359118
16100000,487.7537,32.0,95602.01,1.13591
16112000,487.54758,32.0,95604.38,1.1359382
16119999,487.6348,32.0,95603.39,1.1359265
16128000,487.60837,32.0,95603.67,1.1359298
16139999,487.5846,32.0,95603.945,1.135933
16148000,487.5925,32.0,95603.87,1.1359321
16160000,487.59515,32.0,95603.836,1.1359317
16168000,487.51324,32.0,95604.76,1.1359427
