timestamp,vel_pos_innov[0],vel_pos_innov[1],vel_pos_innov[2],vel_pos_innov[3],vel_pos_innov[4],vel_pos_innov[5],mag_innov[0],mag_innov[1],mag_innov[2],heading_innov,airspeed_innov,beta_innov,flow_innov[0],flow_innov[1],hagl_innov,vel_pos_innov_var[0],vel_pos_innov_var[1],vel_pos_innov_var[2],vel_pos_innov_var[3],vel_pos_innov_var[4],vel_pos_innov_var[5],mag_innov_var[0],mag_innov_var[1],mag_innov_var[2],heading_innov_var,airspeed_innov_var,beta_innov_var,flow_innov_var[0],flow_innov_var[1],hagl_innov_var,output_tracking_error[0],output_tracking_error[1],output_tracking_error[2],drag_innov[0],drag_innov[1],drag_innov_var[0],drag_innov_var[1],aux_vel_innov[0],aux_vel_innov[1]
3172000,0.0,0.0,0.0,0.0025652412,-0.000227837,-0.117004395,0.0,0.0,0.0,-0.0061788857,0.0,0.0,0.0,0.0,0.0,0.0,0.0,0.0,0.279115,0.27911502,4.1935153,0.0,0.0,0.0,0.092075534,0.0,0.0,0.0,0.0,0.0,0.00065322354,0.009022838,0.009890674,0.0,0.0,0.0,0.0,0.0,0.0
3372000,0.0,0.0,0.0,0.004509313,-0.0001006592,-0.09112549,0.0,0.0,0.0,0.00062441826,0.0,0.0,0.0,0.0,0.0,0.0,0.0,0.0,0.27330154,0.2733016,4.1934447,0.0,0.0,0.0,0.0917709,0.0,0.0,0.0,0.0,0.0,0.0003211161,0.01781716,0.019294105,0.0,0.0,0.0,0.0,0.0,0.0
3572000,0.0,0.0,0.0,0.0069750114,1.0007125e-07,0.015075684,0.0,0.0,0.0,-0.01184997,0.0,0.0,0.0,0.0,0.0,0.0,0.0,0.0,0.27054808,0.2705482,4.195558,0.0,0.0,0.0,0.09152838,0.0,0.0,0.0,0.0,0.0,0.00048815898,0.025731003,0.029844966,0.0,0.0,0.0,0.0,0.0,0.0
3772000,0.0,0.0,0.0,0.009952773,0.00013733431,-0.17651367,0.0,0.0,0.0,0.0071840286,0.0,0.0,0.0,0.0,0.0,0.0,0.0,0.0,0.26837993,0.26838008,4.191586,0.0,0.0,0.0,0.091353685,0.0,0.0,0.0,0.0,0.0,0.0003110284,0.025360279,0.031845625,0.0,0.0,0.0,0.0,0.0,0.0
3972000,0.0,0.0,0.0,0.012956907,0.00012346082,0.058502197,0.0,0.0,0.0,0.012550324,0.0,0.0,0.0,0.0,0.0,0.0,0.0,0.0,0.2673163,0.26731658,4.185305,0.0,0.0,0.0,0.09123806,0.0,0.0,0.0,0.0,0.0,0.000943592,0.01887946,0.02570328,0.0,0.0,0.0,0.0,0.0,0.0
4175999,0.0,0.0,0.0,0.015894692,0.00019906861,-0.19796753,0.0,0.0,0.0,0.007906228,0.0,0.0,0.0,0.0,0.0,0.0,0.0,0.0,0.26687703,0.26687738,4.1772118,0.0,0.0,0.0,0.091137335,0.0,0.0,0.0,0.0,0.0,0.0010548712,0.02543696,0.03341545,0.0,0.0,0.0,0.0,0.0,0.0
4376000,0.0,0.0,0.0,0.018880425,0.00051060616,-0.08609009,0.0,0.0,0.0,0.007220447,0.0,0.0,0.0,0.0,0.0,0.0,0.0,0.0,0.26707512,0.2670756,4.169929,0.0,0.0,0.0,0.09105881,0.0,0.0,0.0,0.0,0.0,0.0007931017,0.02344782,0.030185722,0.0,0.0,0.0,0.0,0.0,0.0
4576000,0.0,0.0,0.0,0.021458337,0.0006693563,-0.08355713,0.0,0.0,0.0,-0.0055612028,0.0,0.0,0.0,0.0,0.0,0.0,0.0,0.0,0.26762494,0.2676255,4.16478,0.0,0.0,0.0,0.09100735,0.0,0.0,0.0,0.0,0.0,0.0009889288,0.02798837,0.037265223,0.0,0.0,0.0,0.0,0.0,0.0
4776000,0.0,0.0,0.0,0.023054508,0.0004173352,-0.049713135,0.0,0.0,0.0,0.0004786849,0.0,0.0,0.0,0.0,0.0,0.0,0.0,0.0,0.26781145,0.26781207,4.157894,0.0,0.0,0.0,0.090960994,0.0,0.0,0.0,0.0,0.0,0.001367625,0.025250524,0.031202702,0.0,0.0,0.0,0.0,0.0,0.0
4976000,0.0,0.0,0.0,0.023439335,0.0005376166,0.03479004,0.0,0.0,0.0,-0.011284858,0.0,0.0,0.0,0.0,0.0,0.0,0.0,0.0,0.26774934,0.26774994,4.1524796,0.0,0.0,0.0,0.09092885,0.0,0.0,0.0,0.0,0.0,0.0017263469,0.020755477,0.022041243,0.0,0.0,0.0,0.0,0.0,0.0
5176000,0.0,0.0,0.0,0.02368696,0.0008656491,-0.080200195,0.0,0.0,0.0,-0.006444752,0.0,0.0,0.0,0.0,0.0,0.0,0.0,0.0,0.26751584,0.26751637,4.1476564,0.0,0.0,0.0,0.09090125,0.0,0.0,0.0,0.0,0.0,0.001646138,0.02231425,0.023946937,0.0,0.0,0.0,0.0,0.0,0.0
5376000,0.0,0.0,0.0,0.023832176,0.0016848327,-0.073028564,0.0,0.0,0.0,-0.0006777644,0.0,0.0,0.0,0.0,0.0,0.0,0.0,0.0,0.26756513,0.26756567,4.145842,0.0,0.0,0.0,0.0908847,0.0,0.0,0.0,0.0,0.0,0.0016439997,0.019009124,0.020133639,0.0,0.0,0.0,0.0,0.0,0.0
5576000,0.0,0.0,0.0,0.023557846,0.0024578222,-0.063690186,0.0,0.0,0.0,-0.008922905,0.0,0.0,0.0,0.0,0.0,0.0,0.0,0.0,0.26712343,0.2671239,4.1429615,0.0,0.0,0.0,0.09086918,0.0,0.0,0.0,0.0,0.0,0.0018957001,0.021289458,0.026247138,0.0,0.0,0.0,0.0,0.0,0.0
5776000,0.0,0.0,0.0,0.023516309,0.0028591033,-0.12524414,0.0,0.0,0.0,0.004974097,0.0,0.0,0.0,0.0,0.0,0.0,0.0,0.0,0.2666333,0.26663375,4.140794,0.0,0.0,0.0,0.09085807,0.0,0.0,0.0,0.0,0.0,0.0018147096,0.019661492,0.024892839,0.0,0.0,0.0,0.0,0.0,0.0
5976000,0.0,0.0,0.0,0.02411667,0.0031756924,-0.1614685,0.0,0.0,0.0,-0.008089066,0.0,0.0,0.0,0.0,0.0,0.0,0.0,0.0,0.26650262,0.26650304,4.140744,0.0,0.0,0.0,0.090853326,0.0,0.0,0.0,0.0,0.0,0.0018316825,0.018708738,0.025348486,0.0,0.0,0.0,0.0,0.0,0.0
6176000,0.0,0.0,0.0,0.024196262,0.0033644382,-0.04788208,0.0,0.0,0.0,-0.0070792437,0.0,0.0,0.0,0.0,0.0,0.0,0.0,0.0,0.26607248,0.26607293,4.1394906,0.0,0.0,0.0,0.09084803,0.0,0.0,0.0,0.0,0.0,0.0019427899,0.014350846,0.018466845,0.0,0.0,0.0,0.0,0.0,0.0
6376000,0.0,0.0,0.0,0.02339111,0.0033282288,-0.09109497,0.0,0.0,0.0,-0.012143701,0.0,0.0,0.0,0.0,0.0,0.0,0.0,0.0,0.26568198,0.2656824,4.1383104,0.0,0.0,0.0,0.09084467,0.0,0.0,0.0,0.0,0.0,0.00191187,0.012662828,0.017192382,0.0,0.0,0.0,0.0,0.0,0.0
6576000,0.0,0.0,0.0,0.022549039,0.0033211734,-0.1383667,0.0,0.0,0.0,-0.009061456,0.0,0.0,0.0,0.0,0.0,0.0,0.0,0.0,0.26531455,0.26531494,4.137163,0.0,0.0,0.0,0.09084251,0.0,0.0,0.0,0.0,0.0,0.0020076379,0.013108401,0.018417275,0.0,0.0,0.0,0.0,0.0,0.0
6776000,0.0,0.0,0.0,0.022091085,0.0038271698,-0.11010742,0.0,0.0,0.0,0.0024001598,0.0,0.0,0.0,0.0,0.0,0.0,0.0,0.0,0.2653201,0.26532048,4.137527,0.0,0.0,0.0,0.0908438,0.0,0.0,0.0,0.0,0.0,0.0019004658,0.009767779,0.014545769,0.0,0.0,0.0,0.0,0.0,0.0
6976000,0.0,0.0,0.0,0.021063022,0.00480329,-0.19796753,0.0,0.0,0.0,0.0024837554,0.0,0.0,0.0,0.0,0.0,0.0,0.0,0.0,0.26505,0.2650504,4.136192,0.0,0.0,0.0,0.09084308,0.0,0.0,0.0,0.0,0.0,0.0019379606,0.012386994,0.018859178,0.0,0.0,0.0,0.0,0.0,0.0
7176000,0.0,0.0,0.0,0.020072492,0.0062535927,-0.1300354,0.0,0.0,0.0,0.0045755208,0.0,0.0,0.0,0.0,0.0,0.0,0.0,0.0,0.26479602,0.2647965,4.134613,0.0,0.0,0.0,0.09084255,0.0,0.0,0.0,0.0,0.0,0.0019889863,0.014894775,0.023448851,0.0,0.0,0.0,0.0,0.0,0.0
7376000,0.0,0.0,0.0,0.019568095,0.0076514725,-0.112854004,0.0,0.0,0.0,-0.000849396,0.0,0.0,0.0,0.0,0.0,0.0,0.0,0.0,0.2648293,0.26482987,4.1342964,0.0,0.0,0.0,0.09084444,0.0,0.0,0.0,0.0,0.0,0.001866148,0.008817327,0.015046894,0.0,0.0,0.0,0.0,0.0,0.0
7576000,0.0,0.0,0.0,0.01877223,0.008345774,-0.056243896,0.0,0.0,0.0,-0.012809873,0.0,0.0,0.0,0.0,0.0,0.0,0.0,0.0,0.26461196,0.26461253,4.132329,0.0,0.0,0.0,0.09084368,0.0,0.0,0.0,0.0,0.0,0.0020484554,0.006380047,0.010272157,0.0,0.0,0.0,0.0,0.0,0.0
7776000,0.0,0.0,0.0,0.017928641,0.008515109,-0.05456543,0.0,0.0,0.0,0.008251697,0.0,0.0,0.0,0.0,0.0,0.0,0.0,0.0,0.2643781,0.26437867,4.1302333,0.0,0.0,0.0,0.09084235,0.0,0.0,0.0,0.0,0.0,0.0018404964,0.0059077716,0.006195286,0.0,0.0,0.0,0.0,0.0,0.0
7976000,0.0,0.0,0.0,0.016737675,0.008413349,-0.027313232,0.0,0.0,0.0,-0.0056286156,0.0,0.0,0.0,0.0,0.0,0.0,0.0,0.0,0.26413158,0.26413214,4.127864,0.0,0.0,0.0,0.09084071,0.0,0.0,0.0,0.0,0.0,0.0017299277,0.006151953,0.007025589,0.0,0.0,0.0,0.0,0.0,0.0
8176000,0.0,0.0,0.0,0.015570305,0.00805367,-0.07949829,0.0,0.0,0.0,-0.015616864,0.0,0.0,0.0,0.0,0.0,0.0,0.0,0.0,0.2641555,0.26415604,4.1268363,0.0,0.0,0.0,0.09084112,0.0,0.0,0.0,0.0,0.0,0.00157624,0.008542534,0.011450546,0.0,0.0,0.0,0.0,0.0,0.0
8376000,0.0,0.0,0.0,0.014015878,0.0074647577,-0.0023498535,0.0,0.0,0.0,-0.0027493238,0.0,0.0,0.0,0.0,0.0,0.0,0.0,0.0,0.26389188,0.26389235,4.1242313,0.0,0.0,0.0,0.09083834,0.0,0.0,0.0,0.0,0.0,0.0014875231,0.011368792,0.016494665,0.0,0.0,0.0,0.0,0.0,0.0
8576000,0.0,0.0,0.0,0.012727622,0.0068894806,0.09762573,0.0,0.0,0.0,0.0020355582,0.0,0.0,0.0,0.0,0.0,0.0,0.0,0.0,0.26363835,0.26363882,4.1216207,0.0,0.0,0.0,0.09083494,0.0,0.0,0.0,0.0,0.0,0.0012750883,0.010198137,0.014328815,0.0,0.0,0.0,0.0,0.0,0.0
8776000,0.0,0.0,0.0,0.011703543,0.006717663,-0.08666992,0.0,0.0,0.0,0.020805806,0.0,0.0,0.0,0.0,0.0,0.0,0.0,0.0,0.2634071,0.26340756,4.1192327,0.0,0.0,0.0,0.090831175,0.0,0.0,0.0,0.0,0.0,0.0010601145,0.009293384,0.0114442995,0.0,0.0,0.0,0.0,0.0,0.0
8976000,0.0,0.0,0.0,0.010858084,0.0069025895,-0.020996094,0.0,0.0,0.0,0.010069311,0.0,0.0,0.0,0.0,0.0,0.0,0.0,0.0,0.2631469,0.26314732,4.1166315,0.0,0.0,0.0,0.09082665,0.0,0.0,0.0,0.0,0.0,0.0010603326,0.012680931,0.017783705,0.0,0.0,0.0,0.0,0.0,0.0
9176000,0.0,0.0,0.0,0.010415118,0.007255468,-0.06942749,0.0,0.0,0.0,0.0013108253,0.0,0.0,0.0,0.0,0.0,0.0,0.0,0.0,0.26311588,0.2631163,4.115271,0.0,0.0,0.0,0.09082428,0.0,0.0,0.0,0.0,0.0,0.0009836225,0.015196065,0.022604464,0.0,0.0,0.0,0.0,0.0,0.0
9376000,0.0,0.0,0.0,0.009549782,0.007484041,-0.22488403,0.0,0.0,0.0,0.0048110485,0.0,0.0,0.0,0.0,0.0,0.0,0.0,0.0,0.26284525,0.26284567,4.112676,0.0,0.0,0.0,0.090818636,0.0,0.0,0.0,0.0,0.0,0.0008425961,0.011594157,0.015437042,0.0,0.0,0.0,0.0,0.0,0.0
9576000,0.0,0.0,0.0,0.008881204,0.0077846814,-0.14620972,0.0,0.0,0.0,0.0028544962,0.0,0.0,0.0,0.0,0.0,0.0,0.0,0.0,0.2625644,0.26256478,4.1100965,0.0,0.0,0.0,0.09081245,0.0,0.0,0.0,0.0,0.0,0.0007920697,0.008759469,0.0087492475,0.0,0.0,0.0,0.0,0.0,0.0
9776000,0.0,0.0,0.0,0.008509363,0.008449615,-0.13150024,0.0,0.0,0.0,0.0060163736,0.0,0.0,0.0,0.0,0.0,0.0,0.0,0.0,0.2624876,0.26248795,4.108641,0.0,0.0,0.0,0.09080854,0.0,0.0,0.0,0.0,0.0,0.00070168724,0.010132482,0.010709237,0.0,0.0,0.0,0.0,0.0,0.0
9976000,0.0,0.0,0.0,0.0076953634,0.008606485,-0.0010070801,0.0,0.0,0.0,0.009008884,0.0,0.0,0.0,0.0,0.0,0.0,0.0,0.0,0.26221737,0.2622177,4.10616,0.0,0.0,0.0,0.09080149,0.0,0.0,0.0,0.0,0.0,0.0009001627,0.013622288,0.01865252,0.0,0.0,0.0,0.0,0.0,0.0
10176000,0.0,0.0,0.0,0.006795338,0.00867386,0.0602417,0.0,0.0,0.0,0.001208514,0.0,0.0,0.0,0.0,0.0,0.0,0.0,0.0,0.2619553,0.26195562,4.1039023,0.0,0.0,0.0,0.09079464,0.0,0.0,0.0,0.0,0.0,0.0008192307,0.016354956,0.025316784,0.0,0.0,0.0,0.0,0.0,0.0
10376000,0.0,0.0,0.0,0.005865064,0.008318731,0.006958008,0.0,0.0,0.0,0.0077014267,0.0,0.0,0.0,0.0,0.0,0.0,0.0,0.0,0.26168558,0.26168585,4.101522,0.0,0.0,0.0,0.09078688,0.0,0.0,0.0,0.0,0.0,0.0008135616,0.013012862,0.018407602,0.0,0.0,0.0,0.0,0.0,0.0
10576000,0.0,0.0,0.0,0.004982806,0.008052138,-0.031036377,0.0,0.0,0.0,0.0077200234,0.0,0.0,0.0,0.0,0.0,0.0,0.0,0.0,0.2616169,0.26161712,4.1001816,0.0,0.0,0.0,0.09078157,0.0,0.0,0.0,0.0,0.0,0.0012779857,0.014899768,0.02308389,0.0,0.0,0.0,0.0,0.0,0.0
10776000,0.0,0.0,0.0,0.0046145907,0.0075042155,0.020141602,0.0,0.0,0.0,0.003925383,0.0,0.0,0.0,0.0,0.0,0.0,0.0,0.0,0.26136965,0.26136988,4.0979447,0.0,0.0,0.0,0.09077329,0.0,0.0,0.0,0.0,0.0,0.0013702626,0.015013729,0.023995116,0.0,0.0,0.0,0.0,0.0,0.0
10976000,0.0,0.0,0.0,0.0044302465,0.006582576,-0.08111572,0.0,0.0,0.0,0.0060341656,0.0,0.0,0.0,0.0,0.0,0.0,0.0,0.0,0.2611274,0.26112762,4.095776,0.0,0.0,0.0,0.0907648,0.0,0.0,0.0,0.0,0.0,0.00094202644,0.012487546,0.018479964,0.0,0.0,0.0,0.0,0.0,0.0
11176000,0.0,0.0,0.0,0.0,0.0,-0.056640625,0.0,0.0,0.0,-0.0025891662,0.0,0.0,0.0,0.0,0.0,0.3125,0.3125,0.625,2.0,2.0,4.093175,0.0,0.0,0.0,0.09792044,0.0,0.0,0.0,0.0,0.0,0.0003178199,0.011924319,0.015684012,0.0,0.0,0.0,0.0,0.0,0.0
11376000,0.01254311,-0.011982267,0.041741084,0.00019712506,-0.0023043337,-0.12521362,0.0,0.0,0.0,-0.004294187,0.0,0.0,0.0,0.0,0.0,0.3013752,0.3013752,0.6189029,1.5020132,1.5020132,4.079423,0.0,0.0,0.0,0.094421096,0.0,0.0,0.0,0.0,0.0,0.0020119296,0.015374683,0.014924861,0.0,0.0,0.0,0.0,0.0,0.0
11576000,-0.008667777,-0.014442857,0.0014321953,-8.958485e-05,-0.0035339398,0.014099121,0.0,0.0,0.0,-0.008633763,0.0,0.0,0.0,0.0,0.0,0.29588088,0.29588085,0.61352116,1.3381157,1.3381157,4.0731044,0.0,0.0,0.0,0.09317601,0.0,0.0,0.0,0.0,0.0,0.0026415924,0.015290008,0.016831571,0.0,0.0,0.0,0.0,0.0,0.0
11776000,0.010556931,-0.012258948,-0.019770946,0.01169645,-0.004350648,-0.044036865,0.0,0.0,0.0,0.0015921295,0.0,0.0,0.0,0.0,0.0,0.2935964,0.2935963,0.60848165,1.257674,1.257674,4.069726,0.0,0.0,0.0,0.09241392,0.0,0.0,0.0,0.0,0.0,0.0009773171,0.012797884,0.018513622,0.0,0.0,0.0,0.0,0.0,0.0
11976000,-0.0032695506,-0.0014671274,0.0034745112,-0.0029087919,-0.0048591513,-0.0864563,0.0,0.0,0.0,0.006663084,0.0,0.0,0.0,0.0,0.0,0.29323608,0.29323584,0.6039158,1.2107267,1.2107267,4.0688148,0.0,0.0,0.0,0.09199178,0.0,0.0,0.0,0.0,0.0,0.0003975349,0.010979525,0.014350492,0.0,0.0,0.0,0.0,0.0,0.0
12176000,-0.00018973145,-0.014618329,-0.01470897,-0.0023806393,-0.006366965,-0.21166992,0.0,0.0,0.0,-0.0024944544,0.0,0.0,0.0,0.0,0.0,0.29396245,0.29396254,0.59946114,1.1806419,1.1806419,4.068613,0.0,0.0,0.0,0.09166666,0.0,0.0,0.0,0.0,0.0,0.00080333697,0.00968053,0.0114365835,0.0,0.0,0.0,0.0,0.0,0.0
12376000,-0.0088456655,-0.014126669,-0.02182196,-0.0018777915,-0.006960094,0.06604004,0.0,0.0,0.0,0.006721318,0.0,0.0,0.0,0.0,0.0,0.2951769,0.2951773,0.595567,1.1602736,1.1602737,4.0689106,0.0,0.0,0.0,0.09143549,0.0,0.0,0.0,0.0,0.0,0.0010714137,0.010545103,0.01291416,0.0,0.0,0.0,0.0,0.0,0.0
12576000,0.003305512,-0.005642632,0.0009343084,-0.00022737062,-0.006483588,0.104156494,0.0,0.0,0.0,-0.014249593,0.0,0.0,0.0,0.0,0.0,0.29643923,0.2964399,0.5917859,1.1460122,1.1460122,4.069516,0.0,0.0,0.0,0.09128036,0.0,0.0,0.0,0.0,0.0,0.00021168802,0.009963786,0.014916801,0.0,0.0,0.0,0.0,0.0,0.0
12776000,0.0036214772,-0.0026013085,0.04361679,0.00023344555,-0.0056696855,-0.12783813,0.0,0.0,0.0,0.0018880367,0.0,0.0,0.0,0.0,0.0,0.29746464,0.29746553,0.58863544,1.1358123,1.1358125,4.0698333,0.0,0.0,0.0,0.09114404,0.0,0.0,0.0,0.0,0.0,0.00079597154,0.008804245,0.012641839,0.0,0.0,0.0,0.0,0.0,0.0
12976000,0.0017581445,0.007891959,-0.0007354114,0.00027490917,-0.005068517,-0.014373779,0.0,0.0,0.0,0.0017930865,0.0,0.0,0.0,0.0,0.0,0.298104,0.29810503,0.58560634,1.1284122,1.1284124,4.069692,0.0,0.0,0.0,0.0910474,0.0,0.0,0.0,0.0,0.0,0.0003443142,0.009219898,0.016557496,0.0,0.0,0.0,0.0,0.0,0.0
13176000,-0.0053369557,-0.012569198,0.023345174,0.011837731,-0.006010424,-0.057861328,0.0,0.0,0.0,0.008166432,0.0,0.0,0.0,0.0,0.0,0.29828143,0.29828298,0.5829526,1.1229843,1.1229845,4.069553,0.0,0.0,0.0,0.09095912,0.0,0.0,0.0,0.0,0.0,0.00013550902,0.008082919,0.01183268,0.0,0.0,0.0,0.0,0.0,0.0
13384000,0.0067415712,-0.0077676484,0.0015121754,0.0010754555,-0.0035101625,0.019439697,0.0,0.0,0.0,0.00295794,0.0,0.0,0.0,0.0,0.0,0.29803225,0.29803407,0.5808685,1.1189653,1.1189655,4.069609,0.0,0.0,0.0,0.09088779,0.0,0.0,0.0,0.0,0.0,0.00044514,0.007470177,0.012545876,0.0,0.0,0.0,0.0,0.0,0.0
13576000,0.008121179,0.006153037,0.010116115,0.0013648756,-0.0010062084,-0.009063721,0.0,0.0,0.0,-0.0019824505,0.0,0.0,0.0,0.0,0.0,0.29740345,0.29740557,0.5788967,1.1159611,1.1159614,4.0688562,0.0,0.0,0.0,0.09083462,0.0,0.0,0.0,0.0,0.0,7.850496e-05,0.007123343,0.014186664,0.0,0.0,0.0,0.0,0.0,0.0
13776000,-0.0028604744,0.014377315,-0.012266399,0.0017314106,-0.0007735699,-0.0748291,0.0,0.0,0.0,-0.0019175708,0.0,0.0,0.0,0.0,0.0,0.29647803,0.29648027,0.5774001,1.1136925,1.113693,4.0680413,0.0,0.0,0.0,0.09078446,0.0,0.0,0.0,0.0,0.0,0.0005969225,0.006144159,0.011300078,0.0,0.0,0.0,0.0,0.0,0.0
13976000,-0.009549724,0.020404413,-0.008666512,0.0036866546,0.0050024176,-0.033966064,0.0,0.0,0.0,-0.009370923,0.0,0.0,0.0,0.0,0.0,0.29531842,0.29532093,0.57599515,1.1119595,1.1119599,4.067408,0.0,0.0,0.0,0.0907474,0.0,0.0,0.0,0.0,0.0,0.00056553376,0.006977608,0.010563508,0.0,0.0,0.0,0.0,0.0,0.0
14176000,0.015027341,-0.004884058,0.0020693382,0.0072847423,-0.0066071316,0.025604248,0.0,0.0,0.0,0.011229545,0.0,0.0,0.0,0.0,0.0,0.2940242,0.29402694,0.57497907,1.110618,1.1106187,4.0663323,0.0,0.0,0.0,0.09071155,0.0,0.0,0.0,0.0,0.0,0.00037325968,0.00441047,0.008697836,0.0,0.0,0.0,0.0,0.0,0.0
14376000,0.0143970065,0.005318692,0.0016856771,0.0072495644,0.0015128343,0.05999756,0.0,0.0,0.0,0.005520463,0.0,0.0,0.0,0.0,0.0,0.292642,0.2926448,0.5740288,1.1095637,1.1095645,4.065168,0.0,0.0,0.0,0.09068436,0.0,0.0,0.0,0.0,0.0,0.00026918435,0.004633689,0.010139188,0.0,0.0,0.0,0.0,0.0,0.0
14576000,0.015525243,-0.003324888,0.012700275,0.0072055766,-0.007758532,0.027893066,0.0,0.0,0.0,0.010691136,0.0,0.0,0.0,0.0,0.0,0.29122788,0.29123074,0.5732722,1.1087203,1.1087211,4.063978,0.0,0.0,0.0,0.090658374,0.0,0.0,0.0,0.0,0.0,0.00064042193,0.0028664407,0.004654115,0.0,0.0,0.0,0.0,0.0,0.0
14776000,-0.005483822,-0.0030185897,0.008999623,0.0072087,-0.0071620406,0.1078186,0.0,0.0,0.0,-0.0038866699,0.0,0.0,0.0,0.0,0.0,0.28981802,0.28982082,0.57279086,1.1080319,1.1080328,4.063125,0.0,0.0,0.0,0.090639405,0.0,0.0,0.0,0.0,0.0,0.0002822479,0.004561014,0.009101731,0.0,0.0,0.0,0.0,0.0,0.0
14976000,-0.015086783,-0.010371344,0.017627383,0.0104050245,-0.0063502723,0.09567261,0.0,0.0,0.0,-0.0032780766,0.0,0.0,0.0,0.0,0.0,0.28843388,0.2884365,0.57234335,1.1074564,1.1074575,4.0619416,0.0,0.0,0.0,0.090620585,0.0,0.0,0.0,0.0,0.0,0.0003066721,0.006116526,0.01075847,0.0,0.0,0.0,0.0,0.0,0.0
15176000,0.018576615,0.00900288,-0.01170267,0.015228534,-0.004268178,-0.07550049,0.0,0.0,0.0,-0.0037379563,0.0,0.0,0.0,0.0,0.0,0.28709704,0.28709972,0.57211274,1.1069627,1.1069639,4.0607953,0.0,0.0,0.0,0.090604745,0.0,0.0,0.0,0.0,0.0,0.00027398576,0.0041863,0.010471743,0.0,0.0,0.0,0.0,0.0,0.0
15376000,0.018576615,0.00900288,-0.01170267,0.015228534,-0.004268178,-0.0079956055,0.0,0.0,0.0,0.012603253,0.0,0.0,0.0,0.0,0.0,0.28709704,0.28709972,0.57211274,1.1069627,1.1069639,4.0606165,0.0,0.0,0.0,0.09059359,0.0,0.0,0.0,0.0,0.0,0.00013331637,0.003619534,0.008293651,0.0,0.0,0.0,0.0,0.0,0.0
15576000,0.013078989,0.0017969642,0.027979106,0.016937165,-0.0055192546,-0.104888916,0.0,0.0,0.0,-0.020495236,0.0,0.0,0.0,0.0,0.0,0.2884748,0.28847814,0.57195497,1.1156375,1.1156393,4.059561,0.0,0.0,0.0,0.09058228,0.0,0.0,0.0,0.0,0.0,0.0003365653,0.0026874526,0.005929946,0.0,0.0,0.0,0.0,0.0,0.0
15776000,0.007915003,0.00782177,0.010576919,0.016984783,-0.005612471,-0.009094238,0.0,0.0,0.0,0.0025714338,0.0,0.0,0.0,0.0,0.0,0.2865432,0.28654602,0.57186306,1.1138824,1.1138842,4.0586076,0.0,0.0,0.0,0.09057374,0.0,0.0,0.0,0.0,0.0,0.00054639217,0.0017601232,0.0034301842,0.0,0.0,0.0,0.0,0.0,0.0
15976000,0.031014293,0.0052995607,-0.011019589,0.017708197,-0.0070656906,0.019622803,0.0,0.0,0.0,-0.011044234,0.0,0.0,0.0,0.0,0.0,0.28489342,0.28489628,0.5719224,1.1123662,1.1123679,4.0577383,0.0,0.0,0.0,0.0905658,0.0,0.0,0.0,0.0,0.0,0.00045162687,0.0019438842,0.0043103476,0.0,0.0,0.0,0.0,0.0,0.0
16183999,0.017354956,-0.033387072,-0.028783947,0.014365736,-0.008094129,-0.020324707,0.0,0.0,0.0,0.0016090274,0.0,0.0,0.0,0.0,0.0,0.28345856,0.28346112,0.5719624,1.1110417,1.1110433,4.057258,0.0,0.0,0.0,0.09056028,0.0,0.0,0.0,0.0,0.0,0.0003104124,0.0031670423,0.005156644,0.0,0.0,0.0,0.0,0.0,0.0
16384000,0.017376041,0.011568416,0.03193261,0.013487388,-0.0020218734,-0.044281006,0.0,0.0,0.0,0.0147688985,0.0,0.0,0.0,0.0,0.0,0.28222176,0.2822242,0.5721218,1.1098757,1.1098773,4.0568466,0.0,0.0,0.0,0.090556405,0.0,0.0,0.0,0.0,0.0,0.000402719,0.0011512699,0.003370153,0.0,0.0,0.0,0.0,0.0,0.0
16592000,0.015537865,-0.0022345206,0.0072622728,0.012662423,-0.0039778985,0.0052490234,0.0,0.0,0.0,0.001024127,0.0,0.0,0.0,0.0,0.0,0.28114063,0.28114292,0.5722408,1.1088407,1.1088425,4.0562816,0.0,0.0,0.0,0.09055205,0.0,0.0,0.0,0.0,0.0,0.0003311217,0.00072928454,0.0027768891,0.0,0.0,0.0,0.0,0.0,0.0
16784000,0.014065072,-0.0034488554,0.020885669,0.011967964,-0.0037437286,-0.004760742,0.0,0.0,0.0,-0.0132752955,0.0,0.0,0.0,0.0,0.0,0.28020933,0.28021148,0.5723877,1.1079162,1.107918,4.0557857,0.0,0.0,0.0,0.09054881,0.0,0.0,0.0,0.0,0.0,0.00019796361,0.001524283,0.0025722047,0.0,0.0,0.0,0.0,0.0,0.0
16984000,-0.0050590225,0.02807873,0.012793908,0.011498529,-0.0035334693,-0.10217285,0.0,0.0,0.0,0.013237983,0.0,0.0,0.0,0.0,0.0,0.27940914,0.27941126,0.5726234,1.1070863,1.107088,4.0557084,0.0,0.0,0.0,0.09054706,0.0,0.0,0.0,0.0,0.0,0.00014688395,0.0029240632,0.005300569,0.0,0.0,0.0,0.0,0.0,0.0
17184000,0.015951198,-0.006505554,0.022513635,0.014220024,-0.0084574185,0.0947876,0.0,0.0,0.0,-8.544326e-05,0.0,0.0,0.0,0.0,0.0,0.27872735,0.27872932,0.5728672,1.1063379,1.1063397,4.055657,0.0,0.0,0.0,0.09054604,0.0,0.0,0.0,0.0,0.0,0.00019601735,0.002498614,0.0058758995,0.0,0.0,0.0,0.0,0.0,0.0
17384000,0.016442353,-0.009277256,0.05218497,0.013818839,-0.008373823,-0.0066833496,0.0,0.0,0.0,0.00789991,0.0,0.0,0.0,0.0,0.0,0.27814913,0.27815115,0.5730351,1.1056613,1.1056631,4.055479,0.0,0.0,0.0,0.09054432,0.0,0.0,0.0,0.0,0.0,0.00018470894,0.0021153954,0.004150426,0.0,0.0,0.0,0.0,0.0,0.0
17584000,0.024710976,-0.006345863,0.020616556,0.0130625395,-0.007678009,-0.04586792,0.0,0.0,0.0,-0.007933587,0.0,0.0,0.0,0.0,0.0,0.27766743,0.27766922,0.57327676,1.1050484,1.1050501,4.0553,0.0,0.0,0.0,0.09054303,0.0,0.0,0.0,0.0,0.0,0.00025129295,0.0013920189,0.0022307672,0.0,0.0,0.0,0.0,0.0,0.0
17784000,0.00022104476,-0.0053940946,0.018018693,0.01070703,-0.007308594,0.13806152,0.0,0.0,0.0,0.007874668,0.0,0.0,0.0,0.0,0.0,0.27726975,0.2772712,0.57343143,1.1044935,1.1044952,4.0555696,0.0,0.0,0.0,0.090543136,0.0,0.0,0.0,0.0,0.0,0.00031911678,0.00247571,0.00528501,0.0,0.0,0.0,0.0,0.0,0.0
17984000,0.012355151,-0.0057241465,0.008026378,0.011906766,-0.006977886,0.18234253,0.0,0.0,0.0,0.0061888993,0.0,0.0,0.0,0.0,0.0,0.27694222,0.27694368,0.57357115,1.103991,1.1039927,4.055519,0.0,0.0,0.0,0.09054237,0.0,0.0,0.0,0.0,0.0,8.3502935e-05,0.0017252264,0.0031049273,0.0,0.0,0.0,0.0,0.0,0.0
18184000,0.016036108,-0.007919751,0.022097573,0.011694832,-0.0069457376,0.053466797,0.0,0.0,0.0,-0.0037100315,0.0,0.0,0.0,0.0,0.0,0.276673,0.27667472,0.57377726,1.1035366,1.1035383,4.055619,0.0,0.0,0.0,0.0905418,0.0,0.0,0.0,0.0,0.0,0.00013301896,0.001589682,0.0027962762,0.0,0.0,0.0,0.0,0.0,0.0
18384000,0.00017913803,-0.011110723,1.526624e-05,0.011852912,0.00037008384,0.025024414,0.0,0.0,0.0,-0.0007649064,0.0,0.0,0.0,0.0,0.0,0.27647313,0.2764752,0.57388306,1.1031275,1.103129,4.0557594,0.0,0.0,0.0,0.09054137,0.0,0.0,0.0,0.0,0.0,0.0003856939,0.001692658,0.0021765237,0.0,0.0,0.0,0.0,0.0,0.0
18584000,0.010046573,0.008121648,0.02219894,0.025769737,-0.0003234013,0.0814209,0.0,0.0,0.0,-0.012714714,0.0,0.0,0.0,0.0,0.0,0.27631682,0.27631867,0.57405454,1.1027606,1.1027621,4.05612,0.0,0.0,0.0,0.09054206,0.0,0.0,0.0,0.0,0.0,0.00022995964,0.0013020162,0.002244829,0.0,0.0,0.0,0.0,0.0,0.0
18784000,0.00222601,-0.027472343,0.024332006,0.015150595,-0.011846289,0.055236816,0.0,0.0,0.0,0.0076827705,0.0,0.0,0.0,0.0,0.0,0.27620554,0.27620757,0.57411814,1.1024338,1.1024352,4.0563197,0.0,0.0,0.0,0.090541735,0.0,0.0,0.0,0.0,0.0,0.0003767161,0.0022086229,0.0032629573,0.0,0.0,0.0,0.0,0.0,0.0
18984000,0.03964284,-0.020838609,0.014890239,0.017800532,-0.01057843,0.020233154,0.0,0.0,0.0,-0.0065110624,0.0,0.0,0.0,0.0,0.0,0.27613473,0.27613634,0.57425386,1.1021452,1.1021466,4.056396,0.0,0.0,0.0,0.09054131,0.0,0.0,0.0,0.0,0.0,0.00032662778,0.002420984,0.0042072474,0.0,0.0,0.0,0.0,0.0,0.0
19184000,0.004798115,-0.029442417,0.003918808,0.025028605,-0.010761859,-0.058563232,0.0,0.0,0.0,0.0039586127,0.0,0.0,0.0,0.0,0.0,0.27609715,0.27609852,0.57427776,1.1018925,1.1018939,4.05692,0.0,0.0,0.0,0.09054205,0.0,0.0,0.0,0.0,0.0,0.00023922083,0.0026384841,0.004350383,0.0,0.0,0.0,0.0,0.0,0.0
19384000,0.015836854,-0.04807119,-0.005863933,0.0138581125,-0.009426465,0.057861328,0.0,0.0,0.0,0.0035235584,0.0,0.0,0.0,0.0,0.0,0.27608195,0.27608332,0.5742811,1.1016735,1.1016748,4.0570006,0.0,0.0,0.0,0.09054154,0.0,0.0,0.0,0.0,0.0,0.0003841539,0.0037695065,0.006131288,0.0,0.0,0.0,0.0,0.0,0.0
19584000,0.0058981255,-0.01615759,0.01217973,0.013758801,-0.0054467814,0.034088135,0.0,0.0,0.0,0.020890832,0.0,0.0,0.0,0.0,0.0,0.27609,0.27609137,0.5743633,1.1014866,1.1014879,4.0571995,0.0,0.0,0.0,0.090541005,0.0,0.0,0.0,0.0,0.0,0.00030388875,0.0026167538,0.004584689,0.0,0.0,0.0,0.0,0.0,0.0
19784000,-0.0038510282,-0.015734375,0.0018997602,0.014960703,-0.005991134,0.06625366,0.0,0.0,0.0,-0.0041659176,0.0,0.0,0.0,0.0,0.0,0.27610186,0.27610314,0.57433426,1.1013291,1.1013303,4.057379,0.0,0.0,0.0,0.09054034,0.0,0.0,0.0,0.0,0.0,0.00030857377,0.002518902,0.0050057657,0.0,0.0,0.0,0.0,0.0,0.0
19984000,0.01687621,-0.017079914,0.019823069,0.017493378,-0.0065243677,0.057891846,0.0,0.0,0.0,0.0037063658,0.0,0.0,0.0,0.0,0.0,0.27612436,0.2761255,0.5743886,1.1011987,1.1011999,4.0577383,0.0,0.0,0.0,0.090540625,0.0,0.0,0.0,0.0,0.0,0.00022517066,0.0020621254,0.004950707,0.0,0.0,0.0,0.0,0.0,0.0
20184000,0.00893479,-0.017711855,0.048710607,0.017380403,-0.007024214,-0.03164673,0.0,0.0,0.0,0.0010617077,0.0,0.0,0.0,0.0,0.0,0.27614874,0.27615002,0.57433176,1.1010933,1.1010945,4.0578847,0.0,0.0,0.0,0.090539716,0.0,0.0,0.0,0.0,0.0,0.00017851763,0.0018684901,0.0041459156,0.0,0.0,0.0,0.0,0.0,0.0
20392000,0.017458988,-0.018339003,0.027158473,0.018223338,-0.007427991,-0.17269897,0.0,0.0,0.0,0.0028006136,0.0,0.0,0.0,0.0,0.0,0.27617082,0.2761719,0.57436705,1.1010103,1.1010114,4.058004,0.0,0.0,0.0,0.09053864,0.0,0.0,0.0,0.0,0.0,0.00018839458,0.0005556195,0.000765269,0.0,0.0,0.0,0.0,0.0,0.0
20584000,0.014661018,-0.01936912,-0.002421759,0.017328562,-0.007910931,0.17687988,0.0,0.0,0.0,-0.010684341,0.0,0.0,0.0,0.0,0.0,0.27618626,0.27618706,0.5742929,1.1009468,1.1009479,4.0582976,0.0,0.0,0.0,0.09053852,0.0,0.0,0.0,0.0,0.0,0.00020802795,0.00063144264,0.0007914913,0.0,0.0,0.0,0.0,0.0,0.0
20784000,0.009791117,-0.031591453,0.019007914,0.017350439,-0.010713287,0.11663818,0.0,0.0,0.0,-0.00555861,0.0,0.0,0.0,0.0,0.0,0.2781365,0.27813694,0.57435536,1.1086999,1.108701,4.0582323,0.0,0.0,0.0,0.0905372,0.0,0.0,0.0,0.0,0.0,0.00028819157,0.0028109206,0.0046070637,0.0,0.0,0.0,0.0,0.0,0.0
20984000,-0.0020296806,-0.008065635,0.01808554,0.016031513,-0.008736253,0.026428223,0.0,0.0,0.0,0.0020380616,0.0,0.0,0.0,0.0,0.0,0.27774847,0.27774876,0.57425314,1.1076672,1.1076682,4.0582623,0.0,0.0,0.0,0.09053568,0.0,0.0,0.0,0.0,0.0,0.000301194,0.0023372856,0.005230699,0.0,0.0,0.0,0.0,0.0,0.0
21184000,-0.004907102,-0.019393902,0.018923417,0.016025793,-0.018143391,0.082855225,0.0,0.0,0.0,0.004876286,0.0,0.0,0.0,0.0,0.0,0.27741465,0.27741462,0.5742523,1.1067667,1.1067677,4.058266,0.0,0.0,0.0,0.090534,0.0,0.0,0.0,0.0,0.0,0.00020004783,0.0025524816,0.0044197207,0.0,0.0,0.0,0.0,0.0,0.0
21384000,-0.0058025494,-0.027580094,0.050008476,0.016027287,-0.009638064,-0.057281494,0.0,0.0,0.0,0.0047290623,0.0,0.0,0.0,0.0,0.0,0.2771208,0.27712065,0.57414997,1.1059811,1.1059818,4.058466,0.0,0.0,0.0,0.090533294,0.0,0.0,0.0,0.0,0.0,0.00025385813,0.0030904685,0.004488765,0.0,0.0,0.0,0.0,0.0,0.0
21584000,0.0048640035,-0.019036286,0.0154746035,0.016195105,-0.015824582,0.19360352,0.0,0.0,0.0,-0.002805382,0.0,0.0,0.0,0.0,0.0,0.27686664,0.27686653,0.5741504,1.1052952,1.1052959,4.0584373,0.0,0.0,0.0,0.09053132,0.0,0.0,0.0,0.0,0.0,0.0002495874,0.0028584138,0.0053982716,0.0,0.0,0.0,0.0,0.0,0.0
21784000,0.0013621273,-0.018347776,0.0459399,0.01474188,-0.0152076455,0.0032958984,0.0,0.0,0.0,-0.00057160854,0.0,0.0,0.0,0.0,0.0,0.27662754,0.27662724,0.5740497,1.1046958,1.1046964,4.058277,0.0,0.0,0.0,0.09052933,0.0,0.0,0.0,0.0,0.0,0.00028329642,0.002124924,0.0034510414,0.0,0.0,0.0,0.0,0.0,0.0
21984000,-0.00248707,-0.018378543,0.026578713,0.013060271,-0.014709025,0.036712646,0.0,0.0,0.0,0.010033548,0.0,0.0,0.0,0.0,0.0,0.27640292,0.2764024,0.5740549,1.1041721,1.1041725,4.058538,0.0,0.0,0.0,0.090528056,0.0,0.0,0.0,0.0,0.0,0.0002685735,0.0019989624,0.0034028003,0.0,0.0,0.0,0.0,0.0,0.0
22184000,-0.0038472866,-0.019015973,0.018289588,0.011623936,-0.006970347,0.051086426,0.0,0.0,0.0,0.014112115,0.0,0.0,0.0,0.0,0.0,0.27618855,0.276188,0.5739619,1.1037136,1.103714,4.058363,0.0,0.0,0.0,0.09052582,0.0,0.0,0.0,0.0,0.0,0.00026626413,0.0019243236,0.0031898078,0.0,0.0,0.0,0.0,0.0,0.0
22384000,-0.006907462,-0.01799194,0.009954041,0.009935552,-0.0074040825,-0.0690918,0.0,0.0,0.0,0.0014398992,0.0,0.0,0.0,0.0,0.0,0.2759791,0.27597836,0.57387245,1.1033119,1.1033121,4.058281,0.0,0.0,0.0,0.0905233,0.0,0.0,0.0,0.0,0.0,0.00019322576,0.0021049422,0.0034931113,0.0,0.0,0.0,0.0,0.0,0.0
22584000,-0.005804787,-0.018593468,0.042386357,0.008746294,-0.007819946,0.063446045,0.0,0.0,0.0,-0.0006263256,0.0,0.0,0.0,0.0,0.0,0.27577704,0.2757764,0.5738869,1.1029598,1.10296,4.0581875,0.0,0.0,0.0,0.090520665,0.0,0.0,0.0,0.0,0.0,0.00020529218,0.002074134,0.0031412803,0.0,0.0,0.0,0.0,0.0,0.0
22784000,-0.012313551,-0.017875887,-0.004505677,0.007890267,-0.008230824,-0.02758789,0.0,0.0,0.0,-0.018936157,0.0,0.0,0.0,0.0,0.0,0.27557296,0.27557254,0.57380724,1.1026496,1.1026497,4.058311,0.0,0.0,0.0,0.09051904,0.0,0.0,0.0,0.0,0.0,0.00037341862,0.002714477,0.0051167994,0.0,0.0,0.0,0.0,0.0,0.0
22984000,-0.030486261,-0.018758148,0.008495046,0.008443197,-0.008678272,-0.006500244,0.0,0.0,0.0,0.0032356977,0.0,0.0,0.0,0.0,0.0,0.27537403,0.27537364,0.5738301,1.1023757,1.1023759,4.0582137,0.0,0.0,0.0,0.09051619,0.0,0.0,0.0,0.0,0.0,0.00025949805,0.0042718267,0.007241366,0.0,0.0,0.0,0.0,0.0,0.0
23184000,0.001846932,-0.016445668,0.040676378,0.012245796,-0.008707348,0.049560547,0.0,0.0,0.0,0.0012429357,0.0,0.0,0.0,0.0,0.0,0.2751709,0.27517045,0.57375765,1.1021335,1.1021336,4.0580072,0.0,0.0,0.0,0.09051345,0.0,0.0,0.0,0.0,0.0,0.00025663816,0.0020314958,0.003198092,0.0,0.0,0.0,0.0,0.0,0.0
23384000,0.00044701708,-0.024703667,0.02017409,0.0110470615,-0.0011647926,0.09863281,0.0,0.0,0.0,-0.0023879707,0.0,0.0,0.0,0.0,0.0,0.27496856,0.27496803,0.5737887,1.1019175,1.1019175,4.0582204,0.0,0.0,0.0,0.09051129,0.0,0.0,0.0,0.0,0.0,0.00021594843,0.002197848,0.0047991723,0.0,0.0,0.0,0.0,0.0,0.0
23584000,0.00087813067,-0.002115897,0.059014738,0.010101745,-0.00035374286,0.0030822754,0.0,0.0,0.0,0.008486956,0.0,0.0,0.0,0.0,0.0,0.27476603,0.2747655,0.5737256,1.1017244,1.1017244,4.058021,0.0,0.0,0.0,0.09050842,0.0,0.0,0.0,0.0,0.0,0.00031482143,0.0019134983,0.004448172,0.0,0.0,0.0,0.0,0.0,0.0
23784000,-0.017757978,-0.011071708,0.02927526,0.020360127,-0.0022342377,-0.040374756,0.0,0.0,0.0,-0.006713897,0.0,0.0,0.0,0.0,0.0,0.27455783,0.27455735,0.57366586,1.1015494,1.1015494,4.0579195,0.0,0.0,0.0,0.09050521,0.0,0.0,0.0,0.0,0.0,9.788084e-05,0.0017085376,0.0028766221,0.0,0.0,0.0,0.0,0.0,0.0
23984000,0.012602853,-0.011256728,0.048063587,0.010298343,-0.010162996,-0.07092285,0.0,0.0,0.0,-0.0022295713,0.0,0.0,0.0,0.0,0.0,0.27435294,0.27435237,0.5737059,1.1013898,1.1013898,4.057816,0.0,0.0,0.0,0.09050192,0.0,0.0,0.0,0.0,0.0,0.0004945093,0.00062226324,0.0016318647,0.0,0.0,0.0,0.0,0.0,0.0
24184000,0.008951346,-0.013480522,0.0455493,0.007946826,-0.010270628,0.03829956,0.0,0.0,0.0,-0.010136753,0.0,0.0,0.0,0.0,0.0,0.27414382,0.2741431,0.5736538,1.1012429,1.1012429,4.057937,0.0,0.0,0.0,0.0904997,0.0,0.0,0.0,0.0,0.0,0.0002899573,0.0016713892,0.0035933657,0.0,0.0,0.0,0.0,0.0,0.0
24384000,0.007717739,0.0025057327,0.065496676,0.0057567344,-0.010509729,-0.039520264,0.0,0.0,0.0,0.0072823763,0.0,0.0,0.0,0.0,0.0,0.2739271,0.27392644,0.5737001,1.1011056,1.1011055,4.057846,0.0,0.0,0.0,0.090496294,0.0,0.0,0.0,0.0,0.0,0.00011340851,0.0027404914,0.005970961,0.0,0.0,0.0,0.0,0.0,0.0
24584000,-0.003155154,-0.03137871,0.025116526,0.0036173803,-0.0137831215,0.028686523,0.0,0.0,0.0,-0.0013794601,0.0,0.0,0.0,0.0,0.0,0.27370727,0.2737066,0.57365185,1.1009756,1.1009756,4.057653,0.0,0.0,0.0,0.09049314,0.0,0.0,0.0,0.0,0.0,0.00020511622,0.0018744448,0.0045501916,0.0,0.0,0.0,0.0,0.0,0.0
24784000,0.017061057,0.011305867,0.0060602576,0.0030536947,-0.012047773,0.09661865,0.0,0.0,0.0,0.00091803074,0.0,0.0,0.0,0.0,0.0,0.27348724,0.27348655,0.5737028,1.1008515,1.1008515,4.0578794,0.0,0.0,0.0,0.09049044,0.0,0.0,0.0,0.0,0.0,0.00013972598,0.0019585548,0.0040370715,0.0,0.0,0.0,0.0,0.0,0.0
24984000,-0.015534408,-0.022184739,-0.014490947,-0.00047416278,-0.016747078,0.0066223145,0.0,0.0,0.0,-0.0010527074,0.0,0.0,0.0,0.0,0.0,0.27327117,0.27327043,0.57365966,1.1007318,1.1007318,4.057701,0.0,0.0,0.0,0.09048722,0.0,0.0,0.0,0.0,0.0,0.00022819199,0.0012583206,0.0022754536,0.0,0.0,0.0,0.0,0.0,0.0
25184000,-0.015796281,-0.020440143,0.01743379,0.00066297123,-0.016473096,0.05859375,0.0,0.0,0.0,0.008764029,0.0,0.0,0.0,0.0,0.0,0.2730504,0.2730496,0.5736175,1.1006143,1.1006143,4.0576234,0.0,0.0,0.0,0.09048366,0.0,0.0,0.0,0.0,0.0,0.00023289907,0.0022541746,0.004085048,0.0,0.0,0.0,0.0,0.0,0.0
25384000,-0.015711661,0.011390008,0.016063558,0.0017338367,-0.016070211,0.101379395,0.0,0.0,0.0,-0.004760146,0.0,0.0,0.0,0.0,0.0,0.27283442,0.27283353,0.57367164,1.1004993,1.1004992,4.057546,0.0,0.0,0.0,0.09048007,0.0,0.0,0.0,0.0,0.0,0.00022594097,0.0025688778,0.0041840873,0.0,0.0,0.0,0.0,0.0,0.0
25584000,-0.0064289616,-0.020265652,0.028560668,0.0026253443,-0.019918563,-0.055541992,0.0,0.0,0.0,-0.014334917,0.0,0.0,0.0,0.0,0.0,0.27261323,0.27261224,0.5736328,1.1003851,1.100385,4.0576906,0.0,0.0,0.0,0.09047751,0.0,0.0,0.0,0.0,0.0,0.00021499374,0.0018408543,0.0038720411,0.0,0.0,0.0,0.0,0.0,0.0
25784000,-0.0064289616,-0.020265652,0.028560668,0.0026253443,-0.019918563,0.05038452,0.0,0.0,0.0,0.009974062,0.0,0.0,0.0,0.0,0.0,0.27261323,0.27261224,0.5736328,1.1003851,1.100385,4.0582986,0.0,0.0,0.0,0.09047389,0.0,0.0,0.0,0.0,0.0,8.246342e-05,0.0014224715,0.002973682,0.0,0.0,0.0,0.0,0.0,0.0
25984000,-0.0096639935,-0.026499132,0.038986064,0.00096258277,-0.01303654,0.103881836,0.0,0.0,0.0,0.008762747,0.0,0.0,0.0,0.0,0.0,0.27372226,0.273721,0.5738005,1.1071641,1.1071638,4.05811,0.0,0.0,0.0,0.09047056,0.0,0.0,0.0,0.0,0.0,0.00047231017,0.0009786414,0.0020830096,0.0,0.0,0.0,0.0,0.0,0.0
26184000,-0.002141553,-0.011006257,-0.019119054,-0.00010854414,-0.018089866,0.0020751953,0.0,0.0,0.0,-0.0009845793,0.0,0.0,0.0,0.0,0.0,0.273236,0.27323467,0.5737505,1.1061662,1.1061658,4.058347,0.0,0.0,0.0,0.09046762,0.0,0.0,0.0,0.0,0.0,0.00022863994,0.00058525975,0.0016265565,0.0,0.0,0.0,0.0,0.0,0.0
26384000,-0.013030902,-0.018827464,0.021030637,-0.0023417417,-0.016561856,0.052703857,0.0,0.0,0.0,0.0034270585,0.0,0.0,0.0,0.0,0.0,0.27280477,0.27280343,0.57370096,1.1052755,1.105275,4.0581713,0.0,0.0,0.0,0.09046429,0.0,0.0,0.0,0.0,0.0,0.00016133531,0.0014575984,0.0041279104,0.0,0.0,0.0,0.0,0.0,0.0
26584000,-0.0240888,-0.007572753,0.07306216,-0.0028868453,-0.014067933,0.064208984,0.0,0.0,0.0,-0.004238516,0.0,0.0,0.0,0.0,0.0,0.27241135,0.27241004,0.57374924,1.104477,1.1044766,4.0580964,0.0,0.0,0.0,0.09046063,0.0,0.0,0.0,0.0,0.0,0.00013547468,0.0023112134,0.005376126,0.0,0.0,0.0,0.0,0.0,0.0
26784000,-0.0139659215,-0.02493577,0.064656466,-0.002180147,-0.013031611,0.01940918,0.0,0.0,0.0,0.010040581,0.0,0.0,0.0,0.0,0.0,0.27205554,0.27205423,0.57370234,1.1037596,1.1037592,4.058021,0.0,0.0,0.0,0.09045698,0.0,0.0,0.0,0.0,0.0,0.00038098844,0.0014449476,0.0029241,0.0,0.0,0.0,0.0,0.0,0.0
26984000,-0.017350497,-0.0015218277,0.025727244,-0.003301466,-0.016544616,0.115722656,0.0,0.0,0.0,-0.020831674,0.0,0.0,0.0,0.0,0.0,0.2717347,0.27173334,0.5737516,1.1031132,1.1031127,4.05817,0.0,0.0,0.0,0.090454325,0.0,0.0,0.0,0.0,0.0,0.0003207677,0.0016657753,0.0035335433,0.0,0.0,0.0,0.0,0.0,0.0
27184000,-0.019087696,-0.009905732,0.047955588,-0.004426143,-0.0073112757,0.14331055,0.0,0.0,0.0,-0.00537017,0.0,0.0,0.0,0.0,0.0,0.2714348,0.27143347,0.5737045,1.1025287,1.1025282,4.0581045,0.0,0.0,0.0,0.090450674,0.0,0.0,0.0,0.0,0.0,0.00023498952,0.0022370862,0.00550582,0.0,0.0,0.0,0.0,0.0,0.0
27384000,-0.0091982,-0.0059337467,0.047136426,-0.004997331,-0.004903348,0.03729248,0.0,0.0,0.0,-0.0069862306,0.0,0.0,0.0,0.0,0.0,0.27116627,0.27116495,0.57375616,1.1019995,1.101999,4.057934,0.0,0.0,0.0,0.09044737,0.0,0.0,0.0,0.0,0.0,0.00040655307,0.0014330617,0.0029512192,0.0,0.0,0.0,0.0,0.0,0.0
27584000,-0.031266738,0.0176749,0.031470537,-0.0073976023,-0.0024263316,0.061798096,0.0,0.0,0.0,0.0068621933,0.0,0.0,0.0,0.0,0.0,0.27091125,0.2709099,0.5737112,1.1015182,1.1015176,4.058187,0.0,0.0,0.0,0.09044438,0.0,0.0,0.0,0.0,0.0,0.00010782742,0.0029135153,0.0057334336,0.0,0.0,0.0,0.0,0.0,0.0
27784000,-0.003307648,0.008432207,0.026832972,-0.0070138895,-0.002964188,0.17114258,0.0,0.0,0.0,-0.0002747178,0.0,0.0,0.0,0.0,0.0,0.27066898,0.2706676,0.5736661,1.1010785,1.1010779,4.058027,0.0,0.0,0.0,0.090441115,0.0,0.0,0.0,0.0,0.0,6.597117e-05,0.0030305155,0.0072718346,0.0,0.0,0.0,0.0,0.0,0.0
27984000,-0.03542143,0.020711225,0.056933515,-0.010846154,-0.0019543525,-0.0023498535,0.0,0.0,0.0,-0.002895236,0.0,0.0,0.0,0.0,0.0,0.27045098,0.2704496,0.5737178,1.1006771,1.1006764,4.0579667,0.0,0.0,0.0,0.090437524,0.0,0.0,0.0,0.0,0.0,0.000270732,0.00335856,0.0066696005,0.0,0.0,0.0,0.0,0.0,0.0
28184000,-0.02378023,0.02224322,0.048585724,-0.010274846,-0.0023699843,0.020324707,0.0,0.0,0.0,0.0039631724,0.0,0.0,0.0,0.0,0.0,0.27024677,0.27024543,0.57367456,1.1003101,1.1003094,4.057905,0.0,0.0,0.0,0.090433955,0.0,0.0,0.0,0.0,0.0,0.00048342432,0.003393647,0.0066828253,0.0,0.0,0.0,0.0,0.0,0.0
28384000,-0.022398403,0.0115716625,0.052745897,-0.010748996,-0.0026383956,-0.06124878,0.0,0.0,0.0,0.015739143,0.0,0.0,0.0,0.0,0.0,0.27005127,0.27005,0.57372665,1.0999727,1.099972,4.058065,0.0,0.0,0.0,0.09043134,0.0,0.0,0.0,0.0,0.0,0.0001754231,0.0027788668,0.00565204,0.0,0.0,0.0,0.0,0.0,0.0
28584000,-0.015717013,0.010066518,0.020099467,-0.011785523,-0.0018850327,0.047058105,0.0,0.0,0.0,0.002152592,0.0,0.0,0.0,0.0,0.0,0.2698746,0.26987335,0.57368255,1.0996627,1.099662,4.0580115,0.0,0.0,0.0,0.090427816,0.0,0.0,0.0,0.0,0.0,0.00014977546,0.0022495675,0.004907305,0.0,0.0,0.0,0.0,0.0,0.0
28784000,-0.048942477,-0.0091417255,0.04385729,-0.014032942,-0.0008268379,0.075531006,0.0,0.0,0.0,0.0016584098,0.0,0.0,0.0,0.0,0.0,0.2696984,0.26969716,0.57373655,1.0993757,1.099375,4.0578504,0.0,0.0,0.0,0.09042464,0.0,0.0,0.0,0.0,0.0,0.00019358694,0.0027168486,0.006701871,0.0,0.0,0.0,0.0,0.0,0.0
28984000,-0.027418287,0.011159045,0.057836454,-0.012275715,0.0024836154,0.025909424,0.0,0.0,0.0,-0.008146375,0.0,0.0,0.0,0.0,0.0,0.26953,0.2695288,0.57369405,1.0991098,1.0991089,4.0581126,0.0,0.0,0.0,0.09042172,0.0,0.0,0.0,0.0,0.0,0.00032403707,0.0021026367,0.0047285995,0.0,0.0,0.0,0.0,0.0,0.0
29184000,-0.025576547,0.014813588,-0.00093049183,-0.0129265925,0.0033160846,0.20318604,0.0,0.0,0.0,0.0050809383,0.0,0.0,0.0,0.0,0.0,0.26937446,0.26937327,0.57365113,1.0988624,1.0988617,4.0579605,0.0,0.0,0.0,0.09041861,0.0,0.0,0.0,0.0,0.0,0.00018230735,0.0020811907,0.00511859,0.0,0.0,0.0,0.0,0.0,0.0
29384000,-0.023289256,0.009618224,0.06857408,-0.013650546,0.003607606,0.06607056,0.0,0.0,0.0,0.00015863776,0.0,0.0,0.0,0.0,0.0,0.2692275,0.2692265,0.5737046,1.0986327,1.0986319,4.0579085,0.0,0.0,0.0,0.09041518,0.0,0.0,0.0,0.0,0.0,0.00010185597,0.002913252,0.008114949,0.0,0.0,0.0,0.0,0.0,0.0
29584000,-0.002612915,0.011865518,0.05826349,-0.014123828,0.0042073964,0.11013794,0.0,0.0,0.0,0.0123465955,0.0,0.0,0.0,0.0,0.0,0.26908562,0.26908457,0.5736631,1.0984174,1.0984166,4.0578537,0.0,0.0,0.0,0.0904118,0.0,0.0,0.0,0.0,0.0,0.00025130465,0.002396967,0.0065183984,0.0,0.0,0.0,0.0,0.0,0.0
29784000,-0.023457699,-0.0029954626,0.028536728,-0.017139755,0.004244985,0.20349121,0.0,0.0,0.0,0.0075517,0.0,0.0,0.0,0.0,0.0,0.2689524,0.26895148,0.57371664,1.0982162,1.0982153,4.058019,0.0,0.0,0.0,0.09040927,0.0,0.0,0.0,0.0,0.0,0.00032141712,0.001466981,0.004643418,0.0,0.0,0.0,0.0,0.0,0.0
29984000,-0.018248944,0.027750604,0.038272098,-0.0065968,0.013198797,-0.029388428,0.0,0.0,0.0,0.014347047,0.0,0.0,0.0,0.0,0.0,0.26882407,0.2688231,0.5736739,1.098027,1.0980262,4.057971,0.0,0.0,0.0,0.09040594,0.0,0.0,0.0,0.0,0.0,0.00029858388,0.0017585712,0.0037986212,0.0,0.0,0.0,0.0,0.0,0.0
30184000,-0.027058423,-0.016410248,0.06795551,-0.020466074,0.009777036,0.06890869,0.0,0.0,0.0,0.0030890405,0.0,0.0,0.0,0.0,0.0,0.2687021,0.2687012,0.5737291,1.0978488,1.097848,4.0578146,0.0,0.0,0.0,0.09040295,0.0,0.0,0.0,0.0,0.0,0.00014661976,0.0014951482,0.004356376,0.0,0.0,0.0,0.0,0.0,0.0
30384000,-0.022684688,0.0031338632,0.06574527,-0.020306436,0.004015968,0.115722656,0.0,0.0,0.0,-0.0055519342,0.0,0.0,0.0,0.0,0.0,0.26858512,0.26858425,0.57368773,1.0976806,1.0976799,4.0580816,0.0,0.0,0.0,0.09040018,0.0,0.0,0.0,0.0,0.0,0.00025159086,0.0015471267,0.004376843,0.0,0.0,0.0,0.0,0.0,0.0
30584000,-0.032714214,-0.0015646908,0.08646349,-0.02033243,0.0034052446,0.23242188,0.0,0.0,0.0,0.008197159,0.0,0.0,0.0,0.0,0.0,0.2684697,0.26846886,0.57364583,1.097521,1.0975202,4.057933,0.0,0.0,0.0,0.09039725,0.0,0.0,0.0,0.0,0.0,0.00014679338,0.0013024571,0.003153633,0.0,0.0,0.0,0.0,0.0,0.0
30784000,-0.022520917,-0.004819647,0.03701396,-0.019118866,0.0026332985,0.0463562,0.0,0.0,0.0,0.0081425905,0.0,0.0,0.0,0.0,0.0,0.26835954,0.26835868,0.5737,1.0973687,1.097368,4.0578847,0.0,0.0,0.0,0.09039405,0.0,0.0,0.0,0.0,0.0,0.00024842477,0.0009208743,0.002721678,0.0,0.0,0.0,0.0,0.0,0.0
30984000,-0.020947823,0.0062349965,-0.012820285,-0.02113195,0.0021587724,0.095458984,0.0,0.0,0.0,0.00989911,0.0,0.0,0.0,0.0,0.0,0.269319,0.26931804,0.57380944,1.1039308,1.10393,4.0578127,0.0,0.0,0.0,0.09039088,0.0,0.0,0.0,0.0,0.0,0.00042986835,0.0009140612,0.0022573995,0.0,0.0,0.0,0.0,0.0,0.0
31184000,-0.021012034,-0.0060622576,0.061817635,-0.020410366,0.0002898069,0.09976196,0.0,0.0,0.0,0.006775707,0.0,0.0,0.0,0.0,0.0,0.26902184,0.2690209,0.57375604,1.1029862,1.1029854,4.05796,0.0,0.0,0.0,0.09038851,0.0,0.0,0.0,0.0,0.0,0.0004955234,0.0010866734,0.0026399065,0.0,0.0,0.0,0.0,0.0,0.0
31384000,-0.020414473,0.009474494,0.072801895,-0.019909592,-0.0007588251,0.13833618,0.0,0.0,0.0,0.012281358,0.0,0.0,0.0,0.0,0.0,0.2687636,0.26876262,0.5737998,1.1021388,1.1021379,4.0578938,0.0,0.0,0.0,0.09038541,0.0,0.0,0.0,0.0,0.0,0.000530312,0.0014524128,0.002949281,0.0,0.0,0.0,0.0,0.0,0.0
31584000,-0.019042771,-0.023376018,0.04954446,-0.019435598,-0.0043128426,0.044799805,0.0,0.0,0.0,-0.01792577,0.0,0.0,0.0,0.0,0.0,0.26853716,0.26853618,0.5737463,1.1013772,1.1013764,4.057719,0.0,0.0,0.0,0.09038262,0.0,0.0,0.0,0.0,0.0,0.00016078353,0.002443507,0.0055662384,0.0,0.0,0.0,0.0,0.0,0.0
31784000,-0.03648176,-0.014632314,0.07006002,-0.018781569,-0.0037829187,0.038391113,0.0,0.0,0.0,0.011173159,0.0,0.0,0.0,0.0,0.0,0.2683358,0.26833478,0.573792,1.1006918,1.1006911,4.057966,0.0,0.0,0.0,0.090380035,0.0,0.0,0.0,0.0,0.0,0.0003320091,0.0033798579,0.0075591644,0.0,0.0,0.0,0.0,0.0,0.0
31984000,-0.015873646,-0.017246813,0.059249904,-0.015554223,-0.0048506344,0.16888428,0.0,0.0,0.0,0.008141309,0.0,0.0,0.0,0.0,0.0,0.2681582,0.26815718,0.5737414,1.1000743,1.1000735,4.0578,0.0,0.0,0.0,0.09037731,0.0,0.0,0.0,0.0,0.0,0.00023851029,0.0028281526,0.006399117,0.0,0.0,0.0,0.0,0.0,0.0
32191999,-0.0041471627,-0.037648007,0.050266817,-0.0155055085,-0.0057356684,0.07244873,0.0,0.0,0.0,0.008051246,0.0,0.0,0.0,0.0,0.0,0.2680765,0.26807547,0.57373226,1.1000185,1.1000178,4.057732,0.0,0.0,0.0,0.09037434,0.0,0.0,0.0,0.0,0.0,0.00038788095,0.0033846549,0.0067594773,0.0,0.0,0.0,0.0,0.0,0.0
32392000,-0.02238185,-0.012251867,0.04036303,-0.01609456,-0.0045790523,0.1736145,0.0,0.0,0.0,-0.011061698,0.0,0.0,0.0,0.0,0.0,0.26792186,0.26792073,0.57377726,1.0994564,1.0994557,4.0579686,0.0,0.0,0.0,0.09037182,0.0,0.0,0.0,0.0,0.0,0.00016347124,0.002630544,0.006049454,0.0,0.0,0.0,0.0,0.0,0.0
32592000,0.0017046966,-0.023913376,0.009161875,-0.0028724186,-0.007571122,0.059173584,0.0,0.0,0.0,0.016367406,0.0,0.0,0.0,0.0,0.0,0.26786172,0.26786062,0.57376283,1.0994458,1.0994451,4.0580773,0.0,0.0,0.0,0.09036959,0.0,0.0,0.0,0.0,0.0,0.00021058839,0.002779938,0.006013008,0.0,0.0,0.0,0.0,0.0,0.0
32792000,0.0041429186,-0.01568771,0.06059039,-0.015604065,-0.00903604,0.069366455,0.0,0.0,0.0,-0.0066144466,0.0,0.0,0.0,0.0,0.0,0.26779982,0.2677987,0.57374394,1.0994259,1.0994252,4.0588584,0.0,0.0,0.0,0.09036737,0.0,0.0,0.0,0.0,0.0,0.00017486393,0.0030440853,0.006803917,0.0,0.0,0.0,0.0,0.0,0.0
32999999,-0.005952264,-0.029955706,0.039066486,-0.015919512,-0.01946803,0.049835205,0.0,0.0,0.0,0.007756084,0.0,0.0,0.0,0.0,0.0,0.26766706,0.26766586,0.57377905,1.0989039,1.0989032,4.058336,0.0,0.0,0.0,0.090364896,0.0,0.0,0.0,0.0,0.0,0.00013523776,0.0032511074,0.0072015994,0.0,0.0,0.0,0.0,0.0,0.0
33200000,-0.018906139,-0.05173687,0.036599893,-0.015486918,-0.020561483,0.15115356,0.0,0.0,0.0,0.004440069,0.0,0.0,0.0,0.0,0.0,0.26762596,0.26762468,0.5737563,1.0989249,1.0989242,4.059093,0.0,0.0,0.0,0.090362705,0.0,0.0,0.0,0.0,0.0,0.000272607,0.00472008,0.009847408,0.0,0.0,0.0,0.0,0.0,0.0
33400000,-0.0047942945,-0.03351031,0.042545885,-0.013322107,-0.011600313,0.14956665,0.0,0.0,0.0,-0.014743477,0.0,0.0,0.0,0.0,0.0,0.26750928,0.26750794,0.5737899,1.0984455,1.0984448,4.058921,0.0,0.0,0.0,0.09035987,0.0,0.0,0.0,0.0,0.0,0.00026415833,0.004620172,0.010503351,0.0,0.0,0.0,0.0,0.0,0.0
33600000,0.0048184246,-0.054993115,0.048868414,-0.012558457,-0.013499704,0.09768677,0.0,0.0,0.0,-0.0076428354,0.0,0.0,0.0,0.0,0.0,0.26748103,0.26747963,0.5737688,1.0985017,1.098501,4.0589795,0.0,0.0,0.0,0.09035771,0.0,0.0,0.0,0.0,0.0,0.00025458203,0.005385578,0.010841582,0.0,0.0,0.0,0.0,0.0,0.0
33800000,-0.005535934,-0.034431033,0.0780186,-0.013148318,-0.012770071,0.11239624,0.0,0.0,0.0,-0.0068856776,0.0,0.0,0.0,0.0,0.0,0.26737338,0.26737198,0.573802,1.0980575,1.0980568,4.0591145,0.0,0.0,0.0,0.090355314,0.0,0.0,0.0,0.0,0.0,0.00022724006,0.0047007394,0.009912159,0.0,0.0,0.0,0.0,0.0,0.0
34000000,-0.0052403,-0.04781384,0.09469434,-0.0124086635,-0.014775691,0.06814575,0.0,0.0,0.0,-0.0039474964,0.0,0.0,0.0,0.0,0.0,0.26727998,0.26727852,0.5737377,1.097658,1.0976573,4.058831,0.0,0.0,0.0,0.090352826,0.0,0.0,0.0,0.0,0.0,0.0003348392,0.00484266,0.009691434,0.0,0.0,0.0,0.0,0.0,0.0
34200000,-0.0070413393,-0.039886575,0.04808283,-0.011861444,-0.023107205,0.02633667,0.0,0.0,0.0,0.007122636,0.0,0.0,0.0,0.0,0.0,0.26719785,0.2671963,0.57377636,1.0972989,1.097298,4.058983,0.0,0.0,0.0,0.09035048,0.0,0.0,0.0,0.0,0.0,0.00033504504,0.00476745,0.0104776835,0.0,0.0,0.0,0.0,0.0,0.0
34400000,-0.0066480255,-0.031954244,0.030439414,-0.0113280285,-0.024427958,0.036621094,0.0,0.0,0.0,0.0044926703,0.0,0.0,0.0,0.0,0.0,0.2671271,0.26712552,0.5737208,1.096976,1.0969752,4.0587344,0.0,0.0,0.0,0.09034806,0.0,0.0,0.0,0.0,0.0,0.00022728687,0.0036605857,0.008343538,0.0,0.0,0.0,0.0,0.0,0.0
34600000,-0.008172972,-0.061797895,0.06906903,-0.010990887,-0.019190345,-0.018493652,0.0,0.0,0.0,-0.013535351,0.0,0.0,0.0,0.0,0.0,0.2670588,0.2670572,0.5736679,1.0966852,1.0966845,4.0585876,0.0,0.0,0.0,0.090345405,0.0,0.0,0.0,0.0,0.0,0.00030017915,0.004840777,0.009816989,0.0,0.0,0.0,0.0,0.0,0.0
34800000,-0.010162295,-0.038312443,0.02232235,-0.010934404,-0.018289162,0.026641846,0.0,0.0,0.0,-0.0006849766,0.0,0.0,0.0,0.0,0.0,0.26700193,0.26700038,0.5737137,1.0964241,1.0964231,4.0586762,0.0,0.0,0.0,0.09034339,0.0,0.0,0.0,0.0,0.0,0.0002606653,0.003947158,0.008561435,0.0,0.0,0.0,0.0,0.0,0.0
35000000,-0.011716701,-0.036022544,0.03026489,-0.011043637,-0.027026867,0.033721924,0.0,0.0,0.0,0.008790135,0.0,0.0,0.0,0.0,0.0,0.26694515,0.26694363,0.5736667,1.0961889,1.096188,4.0585585,0.0,0.0,0.0,0.09034081,0.0,0.0,0.0,0.0,0.0,0.00022060932,0.003348401,0.007350464,0.0,0.0,0.0,0.0,0.0,0.0
35200000,-0.02449875,-0.057319753,0.026458148,-0.0112192,-0.020351784,0.03503418,0.0,0.0,0.0,0.0012468398,0.0,0.0,0.0,0.0,0.0,0.26689562,0.2668941,0.5737169,1.0959774,1.0959766,4.0584474,0.0,0.0,0.0,0.09033826,0.0,0.0,0.0,0.0,0.0,0.00027214264,0.0043959473,0.008993059,0.0,0.0,0.0,0.0,0.0,0.0
35400000,-0.015835963,-0.044565797,0.0642159,-0.010630649,-0.019158738,-0.0657959,0.0,0.0,0.0,-0.0005849302,0.0,0.0,0.0,0.0,0.0,0.26684916,0.26684767,0.5736718,1.0957867,1.0957859,4.058242,0.0,0.0,0.0,0.09033599,0.0,0.0,0.0,0.0,0.0,0.00025238248,0.0038649128,0.008218276,0.0,0.0,0.0,0.0,0.0,0.0
35600000,-0.017897682,-0.044787683,-0.008006478,-0.011168639,-0.019260699,0.047424316,0.0,0.0,0.0,0.0039334,0.0,0.0,0.0,0.0,0.0,0.2668055,0.26680398,0.5737251,1.095615,1.0956141,4.058469,0.0,0.0,0.0,0.09033384,0.0,0.0,0.0,0.0,0.0,0.00026497047,0.0037791443,0.008026036,0.0,0.0,0.0,0.0,0.0,0.0
35800000,-0.01693365,-0.033414923,0.01153788,-0.011805698,-0.019289752,-0.007751465,0.0,0.0,0.0,0.00084897876,0.0,0.0,0.0,0.0,0.0,0.2667663,0.26676476,0.5736834,1.0954605,1.0954596,4.0582843,0.0,0.0,0.0,0.09033169,0.0,0.0,0.0,0.0,0.0,0.00021208938,0.0037742448,0.009566922,0.0,0.0,0.0,0.0,0.0,0.0
36000000,-0.017557975,-0.025610639,0.009790532,-0.012399763,-0.020592274,-0.11779785,0.0,0.0,0.0,0.00841105,0.0,0.0,0.0,0.0,0.0,0.26672992,0.2667283,0.5736419,1.0953212,1.0953201,4.0582023,0.0,0.0,0.0,0.09032926,0.0,0.0,0.0,0.0,0.0,0.00024570385,0.0035219174,0.009725272,0.0,0.0,0.0,0.0,0.0,0.0
36200000,-0.022054221,-0.016676858,0.0074162185,-0.0130895935,-0.023295745,-0.026672363,0.0,0.0,0.0,0.004054457,0.0,0.0,0.0,0.0,0.0,0.26669616,0.26669455,0.57369614,1.0951955,1.0951945,4.0583415,0.0,0.0,0.0,0.09032738,0.0,0.0,0.0,0.0,0.0,0.00028158666,0.002905624,0.008117759,0.0,0.0,0.0,0.0,0.0,0.0
36400000,-0.014588043,-0.037159145,0.05622194,-0.014117708,-0.02681576,0.024719238,0.0,0.0,0.0,0.0028510988,0.0,0.0,0.0,0.0,0.0,0.26666427,0.2666627,0.5736567,1.0950819,1.0950807,4.0582757,0.0,0.0,0.0,0.09032503,0.0,0.0,0.0,0.0,0.0,0.00017511072,0.0025006325,0.0075836983,0.0,0.0,0.0,0.0,0.0,0.0
36600000,-0.01785691,-0.056417238,-0.0079489015,-0.016536195,-0.027582662,-0.09439087,0.0,0.0,0.0,-0.010157317,0.0,0.0,0.0,0.0,0.0,0.266635,0.26663345,0.57371217,1.0949793,1.0949781,4.058211,0.0,0.0,0.0,0.090322696,0.0,0.0,0.0,0.0,0.0,0.00028396153,0.0040063737,0.009659483,0.0,0.0,0.0,0.0,0.0,0.0
36800000,-0.022222394,-0.03473254,0.0030713305,-0.007948797,-0.018230103,-0.052581787,0.0,0.0,0.0,0.0024820566,0.0,0.0,0.0,0.0,0.0,0.2666056,0.26660407,0.5736716,1.0948863,1.094885,4.0580425,0.0,0.0,0.0,0.09032062,0.0,0.0,0.0,0.0,0.0,0.0002684816,0.004106722,0.01073641,0.0,0.0,0.0,0.0,0.0,0.0
37000000,-0.0336776,-0.033593323,-0.027025871,-0.022465657,-0.026939075,0.03793335,0.0,0.0,0.0,-0.021761358,0.0,0.0,0.0,0.0,0.0,0.26657736,0.26657587,0.5737278,1.0948014,1.0948001,4.058305,0.0,0.0,0.0,0.09031866,0.0,0.0,0.0,0.0,0.0,0.00022903412,0.0043757064,0.010711912,0.0,0.0,0.0,0.0,0.0,0.0
37200000,-0.034756158,-0.03430475,-0.057941075,-0.023369445,-0.027584765,0.083343506,0.0,0.0,0.0,0.006953746,0.0,0.0,0.0,0.0,0.0,0.26655102,0.26654947,0.5736884,1.0947242,1.0947229,4.058149,0.0,0.0,0.0,0.09031664,0.0,0.0,0.0,0.0,0.0,0.00036305783,0.004606275,0.010454698,0.0,0.0,0.0,0.0,0.0,0.0
37400000,-0.03357706,-0.040392373,0.024102721,-0.024091115,-0.027742023,-0.019989014,0.0,0.0,0.0,0.0013580322,0.0,0.0,0.0,0.0,0.0,0.26652524,0.26652372,0.5736483,1.094654,1.0946527,4.058094,0.0,0.0,0.0,0.09031443,0.0,0.0,0.0,0.0,0.0,0.00024258101,0.0045293607,0.010994081,0.0,0.0,0.0,0.0,0.0,0.0
37600000,-0.033663332,-0.021677049,0.03642398,-0.024863236,-0.0269692,-0.10977173,0.0,0.0,0.0,0.008346796,0.0,0.0,0.0,0.0,0.0,0.2664977,0.2664961,0.57370317,1.0945889,1.0945874,4.0582542,0.0,0.0,0.0,0.09031281,0.0,0.0,0.0,0.0,0.0,0.00023924802,0.003542032,0.008743254,0.0,0.0,0.0,0.0,0.0,0.0
37800000,-0.032480065,-0.062199973,0.059018202,-0.025581181,-0.028612448,0.0597229,0.0,0.0,0.0,-0.010758936,0.0,0.0,0.0,0.0,0.0,0.26647127,0.26646963,0.57366383,1.0945288,1.0945275,4.0582085,0.0,0.0,0.0,0.090310656,0.0,0.0,0.0,0.0,0.0,0.00025033037,0.0043483907,0.009462788,0.0,0.0,0.0,0.0,0.0,0.0
38000000,-0.0328941,-0.018578082,0.059663873,-0.026295858,-0.025175117,0.014801025,0.0,0.0,0.0,-0.0045274496,0.0,0.0,0.0,0.0,0.0,0.26644683,0.2664452,0.573719,1.0944734,1.094472,4.058161,0.0,0.0,0.0,0.09030853,0.0,0.0,0.0,0.0,0.0,0.00023589682,0.0032242194,0.0072127376,0.0,0.0,0.0,0.0,0.0,0.0
38200000,-0.0328941,-0.018578082,0.059663873,-0.026295858,-0.025175117,-0.06491089,0.0,0.0,0.0,0.011674494,0.0,0.0,0.0,0.0,0.0,0.26644683,0.2664452,0.573719,1.0944734,1.094472,4.058005,0.0,0.0,0.0,0.09030663,0.0,0.0,0.0,0.0,0.0,0.00013247986,0.0018177327,0.0047673117,0.0,0.0,0.0,0.0,0.0,0.0
38400000,-0.04193604,-0.017448489,-0.016013585,-0.030130371,-0.029174527,-0.0178833,0.0,0.0,0.0,-0.003691107,0.0,0.0,0.0,0.0,0.0,0.26734108,0.2673392,0.5738305,1.1006404,1.1006387,4.0582576,0.0,0.0,0.0,0.090304844,0.0,0.0,0.0,0.0,0.0,0.00017503096,0.0019989233,0.004437844,0.0,0.0,0.0,0.0,0.0,0.0
38600000,-0.030953482,-0.02984424,0.048243307,-0.028584952,-0.030030394,-0.03881836,0.0,0.0,0.0,-0.013582259,0.0,0.0,0.0,0.0,0.0,0.26716262,0.26716068,0.57377625,1.0998919,1.0998902,4.0580893,0.0,0.0,0.0,0.090303,0.0,0.0,0.0,0.0,0.0,0.0001852736,0.002254742,0.006525553,0.0,0.0,0.0,0.0,0.0,0.0
38800000,-0.031248778,-0.031516578,0.0011102036,-0.028584043,-0.029873883,-0.079956055,0.0,0.0,0.0,-0.005022466,0.0,0.0,0.0,0.0,0.0,0.26701015,0.2670082,0.5738203,1.0992181,1.0992166,4.0580206,0.0,0.0,0.0,0.09030098,0.0,0.0,0.0,0.0,0.0,0.0003557282,0.0021497281,0.0060593574,0.0,0.0,0.0,0.0,0.0,0.0
39000000,-0.040536664,-0.021963561,-0.052278824,-0.028433125,-0.03732462,-0.07583618,0.0,0.0,0.0,0.0012077391,0.0,0.0,0.0,0.0,0.0,0.26687542,0.26687342,0.57376826,1.0986109,1.0986093,4.058165,0.0,0.0,0.0,0.09029944,0.0,0.0,0.0,0.0,0.0,0.00024211923,0.003137182,0.007978953,0.0,0.0,0.0,0.0,0.0,0.0
39200000,-0.027736928,-0.035924003,0.035689395,-0.026943874,-0.038163282,-0.021270752,0.0,0.0,0.0,0.004728377,0.0,0.0,0.0,0.0,0.0,0.26675904,0.26675698,0.57371646,1.0980635,1.0980618,4.058103,0.0,0.0,0.0,0.090297475,0.0,0.0,0.0,0.0,0.0,0.00023673839,0.0015173906,0.0044089793,0.0,0.0,0.0,0.0,0.0,0.0
39400000,-0.02755312,-0.046739034,0.06773205,-0.026704753,-0.030100616,0.085510254,0.0,0.0,0.0,0.014082968,0.0,0.0,0.0,0.0,0.0,0.2666624,0.26666027,0.5737609,1.0975708,1.0975691,4.058038,0.0,0.0,0.0,0.09029554,0.0,0.0,0.0,0.0,0.0,0.000215347,0.0010750045,0.002492584,0.0,0.0,0.0,0.0,0.0,0.0
39600000,-0.030336602,-0.04367459,0.010205718,-0.026913526,-0.029047111,0.04977417,0.0,0.0,0.0,0.0006697178,0.0,0.0,0.0,0.0,0.0,0.26657784,0.2665758,0.5737116,1.0971274,1.0971259,4.057865,0.0,0.0,0.0,0.0902938,0.0,0.0,0.0,0.0,0.0,0.00019256336,0.0010680124,0.002590605,0.0,0.0,0.0,0.0,0.0,0.0
39800000,-0.026999453,-0.020048462,0.05757712,-0.026642505,-0.027813606,0.059692383,0.0,0.0,0.0,0.0017363429,0.0,0.0,0.0,0.0,0.0,0.26650274,0.2665007,0.57375884,1.0967286,1.0967269,4.05812,0.0,0.0,0.0,0.090292156,0.0,0.0,0.0,0.0,0.0,0.00015889283,0.00040168775,0.00084372144,0.0,0.0,0.0,0.0,0.0,0.0
40000000,-0.046954893,-0.01829896,0.054553773,-0.026443914,-0.036529023,-0.052825928,0.0,0.0,0.0,-0.012936801,0.0,0.0,0.0,0.0,0.0,0.2664382,0.2664362,0.5737095,1.0963701,1.0963684,4.0579553,0.0,0.0,0.0,0.090290464,0.0,0.0,0.0,0.0,0.0,0.00031362523,0.0011843338,0.0025034582,0.0,0.0,0.0,0.0,0.0,0.0
40200000,-0.024323754,-0.037739158,0.056155287,-0.023874123,-0.029435406,0.011047363,0.0,0.0,0.0,-0.00012588501,0.0,0.0,0.0,0.0,0.0,0.2663861,0.26638407,0.57375777,1.0960486,1.0960468,4.057891,0.0,0.0,0.0,0.090288624,0.0,0.0,0.0,0.0,0.0,0.00020549279,0.0006914342,0.0015274506,0.0,0.0,0.0,0.0,0.0,0.0
40400000,-0.02415689,-0.03730596,0.019818854,-0.024024624,-0.02807149,0.043670654,0.0,0.0,0.0,-0.0064269006,0.0,0.0,0.0,0.0,0.0,0.26634026,0.26633823,0.5737111,1.0957603,1.0957587,4.058038,0.0,0.0,0.0,0.090287216,0.0,0.0,0.0,0.0,0.0,0.00016532121,0.0012061598,0.0038171404,0.0,0.0,0.0,0.0,0.0,0.0
40600000,-0.043397535,-0.027048778,0.10455068,-0.023829663,-0.026856063,0.014587402,0.0,0.0,0.0,-0.0011751652,0.0,0.0,0.0,0.0,0.0,0.2662993,0.2662973,0.57366467,1.0955024,1.0955007,4.057981,0.0,0.0,0.0,0.09028542,0.0,0.0,0.0,0.0,0.0,0.00019701273,0.0030179701,0.008231339,0.0,0.0,0.0,0.0,0.0,0.0
40800000,-0.03187183,-0.034891494,0.06860669,-0.021218149,-0.02655326,0.117889404,0.0,0.0,0.0,-0.0032342374,0.0,0.0,0.0,0.0,0.0,0.26626453,0.26626253,0.57371366,1.0952716,1.0952698,4.0579214,0.0,0.0,0.0,0.09028363,0.0,0.0,0.0,0.0,0.0,0.0002502183,0.0027281758,0.0078428965,0.0,0.0,0.0,0.0,0.0,0.0
41000000,-0.036550146,-0.025947893,0.071170695,-0.020583114,-0.03283375,0.033233643,0.0,0.0,0.0,0.0019350648,0.0,0.0,0.0,0.0,0.0,0.26623675,0.26623482,0.5736696,1.095066,1.0950642,4.057754,0.0,0.0,0.0,0.090282045,0.0,0.0,0.0,0.0,0.0,0.00016980513,0.0018172681,0.005131879,0.0,0.0,0.0,0.0,0.0,0.0
41200000,-0.025553692,-0.025909794,0.07590828,-0.01975049,-0.02480599,0.08010864,0.0,0.0,0.0,-0.011484027,0.0,0.0,0.0,0.0,0.0,0.26621023,0.26620832,0.57372135,1.0948828,1.094881,4.058014,0.0,0.0,0.0,0.09028055,0.0,0.0,0.0,0.0,0.0,0.00014439008,0.003137583,0.009111515,0.0,0.0,0.0,0.0,0.0,0.0
41400000,-0.037164375,-0.043278404,0.08967679,-0.02059238,-0.024605405,0.12734985,0.0,0.0,0.0,-0.0039773583,0.0,0.0,0.0,0.0,0.0,0.26618716,0.2661853,0.57367694,1.0947195,1.0947177,4.057855,0.0,0.0,0.0,0.090279,0.0,0.0,0.0,0.0,0.0,0.00029814092,0.0036775966,0.010709115,0.0,0.0,0.0,0.0,0.0,0.0
41600000,-0.027553447,-0.019545645,0.10215777,-0.019892586,-0.014299812,-0.010925293,0.0,0.0,0.0,-0.01211828,0.0,0.0,0.0,0.0,0.0,0.2661695,0.26616773,0.5737293,1.0945748,1.094573,4.0577974,0.0,0.0,0.0,0.09027731,0.0,0.0,0.0,0.0,0.0,0.00025463226,0.0025135227,0.007003098,0.0,0.0,0.0,0.0,0.0,0.0
41800000,-0.019326821,-0.03541808,0.08368946,-0.020918667,-0.021837885,0.023040771,0.0,0.0,0.0,-0.0070323944,0.0,0.0,0.0,0.0,0.0,0.2661553,0.26615363,0.5736869,1.0944469,1.0944451,4.0579505,0.0,0.0,0.0,0.09027601,0.0,0.0,0.0,0.0,0.0,0.00027179177,0.0017996709,0.0049432805,0.0,0.0,0.0,0.0,0.0,0.0
42000000,-0.028789889,-0.012229182,0.08302563,-0.022688963,-0.018852578,0.1184082,0.0,0.0,0.0,0.0056192875,0.0,0.0,0.0,0.0,0.0,0.2661433,0.26614168,0.57364434,1.0943339,1.0943322,4.0579004,0.0,0.0,0.0,0.09027436,0.0,0.0,0.0,0.0,0.0,0.00013809293,0.0025578449,0.0069668842,0.0,0.0,0.0,0.0,0.0,0.0
42200000,-0.017179526,-0.008311226,0.11577555,-0.022944484,-0.018014608,0.08340454,0.0,0.0,0.0,-0.011651486,0.0,0.0,0.0,0.0,0.0,0.26613167,0.2661301,0.5736966,1.0942345,1.0942327,4.0578475,0.0,0.0,0.0,0.09027273,0.0,0.0,0.0,0.0,0.0,0.00013352068,0.0035568362,0.009229704,0.0,0.0,0.0,0.0,0.0,0.0
42400000,-0.044893216,-0.007939714,0.053410277,-0.024044195,-0.017150562,0.14089966,0.0,0.0,0.0,-0.0119721,0.0,0.0,0.0,0.0,0.0,0.266123,0.26612142,0.57365584,1.0941468,1.0941452,4.0576863,0.0,0.0,0.0,0.09027127,0.0,0.0,0.0,0.0,0.0,0.0003731506,0.0034366006,0.009600286,0.0,0.0,0.0,0.0,0.0,0.0
42600000,-0.026273366,-0.0036442135,0.082835585,-0.021970848,-0.016008079,0.12689209,0.0,0.0,0.0,-0.013715416,0.0,0.0,0.0,0.0,0.0,0.26611555,0.26611406,0.5737102,1.0940703,1.0940686,4.057952,0.0,0.0,0.0,0.0902699,0.0,0.0,0.0,0.0,0.0,0.00041287215,0.002844388,0.007334368,0.0,0.0,0.0,0.0,0.0,0.0
42800000,-0.034382746,-0.0010069353,0.08482055,-0.022137254,-0.014690878,0.12411499,0.0,0.0,0.0,-0.01338169,0.0,0.0,0.0,0.0,0.0,0.26610705,0.26610556,0.5736684,1.0940033,1.0940017,4.0578,0.0,0.0,0.0,0.09026848,0.0,0.0,0.0,0.0,0.0,0.00040363608,0.0030196288,0.0076233805,0.0,0.0,0.0,0.0,0.0,0.0
43000000,-0.023122758,0.0036490767,0.10304645,-0.032380406,-0.012899482,0.16653442,0.0,0.0,0.0,-0.0033703148,0.0,0.0,0.0,0.0,0.0,0.2661004,0.26609895,0.5737228,1.0939447,1.093943,4.057748,0.0,0.0,0.0,0.09026692,0.0,0.0,0.0,0.0,0.0,0.00024508603,0.0038946094,0.010149509,0.0,0.0,0.0,0.0,0.0,0.0
43200000,-0.0209279,0.005304918,0.14636339,-0.020354806,-0.011196255,0.10183716,0.0,0.0,0.0,-0.0036687255,0.0,0.0,0.0,0.0,0.0,0.2660913,0.2660898,0.5736824,1.0938928,1.0938913,4.0579066,0.0,0.0,0.0,0.09026574,0.0,0.0,0.0,0.0,0.0,7.669881e-05,0.0038872608,0.009452149,0.0,0.0,0.0,0.0,0.0,0.0
43400000,-0.018024385,0.0077033606,0.07530706,-0.020270003,-0.009544135,0.06625366,0.0,0.0,0.0,-0.0046695173,0.0,0.0,0.0,0.0,0.0,0.26608452,0.26608306,0.57364154,1.0938475,1.093846,4.057862,0.0,0.0,0.0,0.09026422,0.0,0.0,0.0,0.0,0.0,6.341362e-05,0.0032040826,0.007669709,0.0,0.0,0.0,0.0,0.0,0.0
43600000,-0.013666545,0.0027065938,0.1291939,-0.020883242,-0.006411997,0.08996582,0.0,0.0,0.0,-0.004624516,0.0,0.0,0.0,0.0,0.0,0.2668977,0.26689616,0.57380676,1.0994326,1.0994308,4.058482,0.0,0.0,0.0,0.090262726,0.0,0.0,0.0,0.0,0.0,0.00012064375,0.0041878107,0.009812793,0.0,0.0,0.0,0.0,0.0,0.0
43800000,-0.0033581806,0.017185574,0.107982844,-0.020127568,-0.010816895,-0.043701172,0.0,0.0,0.0,-0.008871496,0.0,0.0,0.0,0.0,0.0,0.26675707,0.26675555,0.57375336,1.0987778,1.0987761,4.058305,0.0,0.0,0.0,0.09026139,0.0,0.0,0.0,0.0,0.0,5.5157383e-05,0.0042099943,0.008859323,0.0,0.0,0.0,0.0,0.0,0.0
44000000,-0.026964955,0.0131619945,0.08967264,-0.020959895,-0.00023083504,0.08959961,0.0,0.0,0.0,-0.0043940246,0.0,0.0,0.0,0.0,0.0,0.26663333,0.26663187,0.5737989,1.0981877,1.0981861,4.0585585,0.0,0.0,0.0,0.09026013,0.0,0.0,0.0,0.0,0.0,0.00025160264,0.004655395,0.01081154,0.0,0.0,0.0,0.0,0.0,0.0
44200000,-0.018318124,0.025059,0.090171084,-0.019471837,0.003017072,0.13092041,0.0,0.0,0.0,0.0015341938,0.0,0.0,0.0,0.0,0.0,0.26652917,0.26652777,0.57374793,1.0976565,1.097655,4.058389,0.0,0.0,0.0,0.090258814,0.0,0.0,0.0,0.0,0.0,0.000119698736,0.0046214904,0.0101071745,0.0,0.0,0.0,0.0,0.0,0.0
44400000,-0.0057599787,0.027116539,0.1309863,-0.018981846,0.0049562464,0.09234619,0.0,0.0,0.0,8.3357096e-05,0.0,0.0,0.0,0.0,0.0,0.2664387,0.26643735,0.5736972,1.0971786,1.097177,4.058319,0.0,0.0,0.0,0.09025739,0.0,0.0,0.0,0.0,0.0,9.5130395e-05,0.0058603776,0.013072081,0.0,0.0,0.0,0.0,0.0,0.0
