timestamp,rollspeed,pitchspeed,yawspeed,rollspeed_integ,pitchspeed_integ,yawspeed_integ,additional_integ1
1944000,0.00011151025,-0.008144777,-0.01002189,0.0,0.0,0.0,0.0
1976000,0.005429333,-0.002137747,0.011401995,0.0,0.0,0.0,0.0
2008000,0.0063444,-0.0076736147,-0.000102758786,0.0,0.0,0.0,0.0
2036000,-0.0069071846,0.0026757147,-0.00061675406,0.0,0.0,0.0,0.0
2068000,-0.011053054,-0.0034536228,-0.0018164128,0.0,0.0,0.0,0.0
2100000,-0.00031813423,-0.0071019167,0.006435834,0.0,0.0,0.0,0.0
2136000,-0.009466935,-0.011390423,-0.00038011614,0.0,0.0,0.0,0.0
2168000,-0.0045853057,-0.0062177735,0.0043073487,0.0,0.0,0.0,0.0
2196000,0.009653959,-0.0010636073,-0.0012982992,0.0,0.0,0.0,0.0
2228000,-0.0071442216,-0.0006662127,-0.0028201332,0.0,0.0,0.0,0.0
2260000,0.0027482377,-0.013178692,0.0019518076,0.0,0.0,0.0,0.0
2292000,0.0016000539,-0.004033389,0.008855644,0.0,0.0,0.0,0.0
2324000,0.013910209,0.0011784802,0.00085970765,0.0,0.0,0.0,0.0
2356000,-0.001532959,0.0047342074,-0.0047908565,0.0,0.0,0.0,0.0
2392000,-0.005694948,0.0023233695,-0.0013924217,0.0,0.0,0.0,0.0
2420000,0.0024036125,-0.0035026493,0.004351887,0.0,0.0,0.0,0.0
2452000,-0.008414838,0.0014978102,0.002836857,0.0,0.0,0.0,0.0
2484000,-0.0054618376,-0.0020565086,-0.0018424208,0.0,0.0,0.0,0.0
2516000,0.0013580488,-0.003532349,0.006533477,0.0,0.0,0.0,0.0
2548000,-0.0011418802,0.0027361426,-0.0068040984,0.0,0.0,0.0,0.0
2580000,-0.0031065894,-0.010609693,0.0004337195,0.0,0.0,0.0,0.0
2612000,0.00039503028,0.0066672633,0.005449859,0.0,0.0,0.0,0.0
2644000,0.0007742696,-0.004439875,-0.008629727,0.0,0.0,0.0,0.0
2676000,0.003953304,-0.008791333,-0.00270104,0.0,0.0,0.0,0.0
2708000,-0.00020251716,-0.0027834976,-0.0017459244,0.0,0.0,0.0,0.0
2744000,-0.0023915858,-0.005546955,-0.00925935,0.0,0.0,0.0,0.0
2772000,-0.00095037534,-0.016074978,-0.007942157,0.0,0.0,0.0,0.0
2804000,-0.004387508,-0.000563132,0.011486244,0.0,0.0,0.0,0.0
2836000,-0.0038838463,-0.0055519985,-7.5069824e-05,0.0,0.0,0.0,0.0
2868000,-0.0014561121,0.0013936837,-0.008744213,0.0,0.0,0.0,0.0
2900000,-0.000596914,-0.013972542,0.004489564,0.0,0.0,0.0,0.0
2932000,-0.0039015075,-0.006610305,0.0054288832,0.0,0.0,0.0,0.0
2968000,-0.006194992,-0.007268858,-0.0017302234,0.0,0.0,0.0,0.0
2996000,-0.0004933087,-0.0051730806,-0.005587748,0.0,0.0,0.0,0.0
3028000,-0.0052812104,-0.0035256825,0.0019408725,0.0,0.0,0.0,0.0
3060000,-0.00017189865,-0.011737899,0.00071347354,0.0,0.0,0.0,0.0
3092000,0.0027883812,-0.0019182619,-0.00022006876,0.0,0.0,0.0,0.0
3124000,0.0072679822,-0.004920451,-0.005439604,0.0,0.0,0.0,0.0
3156000,0.00030305824,0.0021569522,-0.007519809,0.0,0.0,0.0,0.0
3192000,-0.002165081,-0.010306704,-0.0022419984,0.0,0.0,0.0,0.0
3220000,-0.004989351,-0.010550942,-0.0024028537,0.0,0.0,0.0,0.0
3252000,-0.0066126436,-0.011760496,0.00316231,0.0,0.0,0.0,0.0
3284000,-0.0022422113,-0.0009191339,0.0014836371,0.0,0.0,0.0,0.0
3320000,-0.008083678,-0.00362048,-0.004463009,0.0,0.0,0.0,0.0
3348000,0.0042059207,0.00077237573,0.0002884172,0.0,0.0,0.0,0.0
3384000,-0.0011475709,-0.0061926525,-0.004471666,0.0,0.0,0.0,0.0
3416000,0.009168142,-0.013772199,-0.006497598,0.0,0.0,0.0,0.0
3444000,-0.002298092,-0.0019362915,0.0045650937,0.0,0.0,0.0,0.0
3476000,0.0050679254,-0.014341199,-0.0025989027,0.0,0.0,0.0,0.0
3508000,-0.004185269,-0.013972927,0.0029938116,0.0,0.0,0.0,0.0
3544000,-0.011268699,-0.0017234032,-0.0033362133,0.0,0.0,0.0,0.0
3572000,-0.008238346,-0.0007496243,-0.00969333,0.0,0.0,0.0,0.0
3608000,-0.010331699,-0.0032941122,-0.004431427,0.0,0.0,0.0,0.0
3636000,-0.0002830562,-0.008852241,0.00013531209,0.0,0.0,0.0,0.0
3668000,0.00034126654,-0.0104846135,0.00021817518,0.0,0.0,0.0,0.0
3700000,0.004167514,-0.010156388,-0.007870293,0.0,0.0,0.0,0.0
3732000,-0.0014664339,-0.011337024,-0.0075012855,0.0,0.0,0.0,0.0
3764000,-0.005941409,-0.009157197,0.0005318158,0.0,0.0,0.0,0.0
3796000,-0.00396827,-0.0073940125,-0.0012070992,0.0,0.0,0.0,0.0
3832000,0.010185363,-0.014266163,-0.0036792753,0.0,0.0,0.0,0.0
3860000,-0.00016753754,-0.0060756793,0.0006660892,0.0,0.0,0.0,0.0
3892000,-0.008348227,0.006234803,-0.004860744,0.0,0.0,0.0,0.0
3924000,0.0030433831,-0.005214249,0.0011950099,0.0,0.0,0.0,0.0
3956000,-0.0037978876,0.007961657,-0.0037103002,0.0,0.0,0.0,0.0
3988000,-0.0021635906,-0.0024775602,0.00042062864,0.0,0.0,0.0,0.0
4020000,0.0012534697,-0.010245443,-0.004636364,0.0,0.0,0.0,0.0
4052000,0.0036481523,-0.008021638,-0.007542337,0.0,0.0,0.0,0.0
4084000,0.012750197,-0.007355577,-0.004352094,0.0,0.0,0.0,0.0
4116000,-0.0035599084,-0.0062400727,0.0042162775,0.0,0.0,0.0,0.0
4148000,-0.0013725222,-0.00837443,-0.0037426683,0.0,0.0,0.0,0.0
4180000,-0.007717775,-0.006093618,-0.005094571,0.0,0.0,0.0,0.0
4212000,-0.0053400714,-0.01018148,-0.0012586071,0.0,0.0,0.0,0.0
4244000,-0.0059959753,-0.012348614,-0.004267772,0.0,0.0,0.0,0.0
4280000,-0.006202108,-0.0022878144,-0.0006802536,0.0,0.0,0.0,0.0
4312000,-0.0003300786,-0.009446372,0.0017889723,0.0,0.0,0.0,0.0
4340000,0.000510124,-0.00068916474,0.008650261,0.0,0.0,0.0,0.0
4376000,-0.0052907937,-4.6208006e-05,0.0057194536,0.0,0.0,0.0,0.0
4408000,0.0012865583,-0.010278462,0.003902339,0.0,0.0,0.0,0.0
4436000,-0.0088490285,-0.007684281,-0.0113082975,0.0,0.0,0.0,0.0
4472000,-0.005145697,0.005624786,-0.00018442966,0.0,0.0,0.0,0.0
4500000,-0.0024038095,0.0008320021,0.0006937023,0.0,0.0,0.0,0.0
4532000,-0.001092226,-0.01053698,0.0044455593,0.0,0.0,0.0,0.0
4564000,-0.0015384272,-0.0031038448,-0.0033910817,0.0,0.0,0.0,0.0
4596000,0.014337974,-0.0051250076,0.0036021478,0.0,0.0,0.0,0.0
4632000,0.0072021545,-0.0038704248,0.0042284317,0.0,0.0,0.0,0.0
4660000,0.0057791043,-0.0069883885,0.0012992608,0.0,0.0,0.0,0.0
4696000,0.007872841,-0.001783369,0.004642215,0.0,0.0,0.0,0.0
4724000,0.006676976,-0.010951497,0.0029986766,0.0,0.0,0.0,0.0
4760000,0.005411908,-0.0043857903,0.005298318,0.0,0.0,0.0,0.0
4788000,-0.0022376822,-0.0058338414,0.0074888277,0.0,0.0,0.0,0.0
4824000,0.008239364,0.0017704898,-0.00923895,0.0,0.0,0.0,0.0
4856000,-0.0014130953,-0.004046915,0.0047542597,0.0,0.0,0.0,0.0
4884000,0.0031340397,-0.0072388984,-0.002539578,0.0,0.0,0.0,0.0
4916000,-0.001300377,-0.0017780372,0.003525726,0.0,0.0,0.0,0.0
4948000,-0.003644873,-0.010355994,-0.0019613882,0.0,0.0,0.0,0.0
4980000,-0.0011308205,-0.007850425,0.00622683,0.0,0.0,0.0,0.0
5012000,-0.0021832646,-0.013157499,0.004087635,0.0,0.0,0.0,0.0
5044000,-0.010239561,-0.0061008963,0.002969331,0.0,0.0,0.0,0.0
5080000,0.0015753842,-0.0072792843,-0.011648128,0.0,0.0,0.0,0.0
5108000,0.0053186617,-0.010639245,-0.0027139883,0.0,0.0,0.0,0.0
5140000,-0.0018113236,-0.0052725845,0.011233469,0.0,0.0,0.0,0.0
5176000,0.010023212,-0.002719343,-0.0077537373,0.0,0.0,0.0,0.0
5204000,0.00042170973,-0.0018163666,0.007428654,0.0,0.0,0.0,0.0
5236000,-0.0045757554,-0.0076878867,0.0038899342,0.0,0.0,0.0,0.0
5268000,-0.003141282,-0.012046146,-0.0033716147,0.0,0.0,0.0,0.0
5304000,0.0013620695,-0.0035831262,0.0013287686,0.0,0.0,0.0,0.0
5332000,0.0036306737,-0.00088940945,0.00022053646,0.0,0.0,0.0,0.0
5364000,0.0006758566,0.009436978,-0.0013895754,0.0,0.0,0.0,0.0
5396000,-0.0013792956,-0.012973698,0.0069594537,0.0,0.0,0.0,0.0
5428000,-0.0015188298,0.0063989665,-0.0029303548,0.0,0.0,0.0,0.0
5460000,0.0014877184,-0.00091242394,-0.0060307723,0.0,0.0,0.0,0.0
5492000,-0.0066727917,-0.003545986,0.004662113,0.0,0.0,0.0,0.0
5524000,0.007843859,-0.0014560138,0.0027653193,0.0,0.0,0.0,0.0
5556000,0.006161562,-0.004204419,0.0045075724,0.0,0.0,0.0,0.0
5592000,-0.006438015,-0.0035187877,0.00057725183,0.0,0.0,0.0,0.0
5620000,0.0076837055,-0.010536856,-0.003755715,0.0,0.0,0.0,0.0
5652000,-0.0024791923,-0.00408058,0.0028695455,0.0,0.0,0.0,0.0
5684000,0.00077800837,0.00949461,0.0048261066,0.0,0.0,0.0,0.0
5716000,0.0023123268,-0.01114263,0.0029411074,0.0,0.0,0.0,0.0
5748000,-0.0056145284,-0.0036575913,0.0020203313,0.0,0.0,0.0,0.0
5780000,-0.0030405845,0.00030932238,-0.0023704204,0.0,0.0,0.0,0.0
5812000,-0.014649308,-0.005942436,-0.0085465815,0.0,0.0,0.0,0.0
5844000,0.007981087,-0.0091003375,0.003655224,0.0,0.0,0.0,0.0
5876000,-0.004439989,0.0011939239,0.0036418908,0.0,0.0,0.0,0.0
5908000,0.005927187,-0.00988003,-0.0015316183,0.0,0.0,0.0,0.0
5944000,-0.00053179,0.0066913664,-0.005493195,0.0,0.0,0.0,0.0
5972000,-0.004436401,0.0039990116,0.007439454,0.0,0.0,0.0,0.0
6008000,0.0034576836,-0.010728799,0.013314896,0.0,0.0,0.0,0.0
6040000,-0.0005076369,-0.00021015666,0.004916945,0.0,0.0,0.0,0.0
6068000,0.0112601295,0.0011528772,0.013963459,0.0,0.0,0.0,0.0
6100000,-0.008447871,-0.0060238717,-0.002343261,0.0,0.0,0.0,0.0
6136000,0.0010013795,-0.015283877,-0.001595775,0.0,0.0,0.0,0.0
6164000,-0.003665349,-0.004224536,0.0056669815,0.0,0.0,0.0,0.0
6196000,-0.00015772984,-0.004257678,0.0032094768,0.0,0.0,0.0,0.0
6228000,0.0052286275,0.0029013623,-0.00046490057,0.0,0.0,0.0,0.0
6260000,0.0019294207,-0.0028358693,0.00022008481,0.0,0.0,0.0,0.0
6296000,0.001995436,0.0008764011,-0.003144868,0.0,0.0,0.0,0.0
6324000,0.00081682607,-0.0014207633,-0.0006697754,0.0,0.0,0.0,0.0
6356000,0.012466253,-0.002657787,-0.0010674911,0.0,0.0,0.0,0.0
6388000,0.000826849,0.0021082414,0.0036855317,0.0,0.0,0.0,0.0
6420000,0.003281936,-0.0046727313,0.0120445425,0.0,0.0,0.0,0.0
6452000,0.008660852,0.00022988417,0.00038590704,0.0,0.0,0.0,0.0
6488000,0.0011963896,0.001271779,-0.002006915,0.0,0.0,0.0,0.0
6516000,0.013010362,-0.011626664,0.007647809,0.0,0.0,0.0,0.0
6548000,-0.002680675,0.0015522954,-0.0041932967,0.0,0.0,0.0,0.0
6580000,0.006486083,-0.0032513654,0.0038486712,0.0,0.0,0.0,0.0
6612000,0.008384212,-0.0036319275,-0.0055970266,0.0,0.0,0.0,0.0
6644000,0.0005846787,-0.0016467511,0.00054367137,0.0,0.0,0.0,0.0
6676000,0.0008650123,-0.005039404,0.010362572,0.0,0.0,0.0,0.0
6712000,0.011513517,-0.0048803547,0.0022669842,0.0,0.0,0.0,0.0
6744000,0.0041936003,-0.0027634392,0.0009907784,0.0,0.0,0.0,0.0
6776000,0.001978045,0.0064613586,-0.002484019,0.0,0.0,0.0,0.0
6804000,0.0065909047,-0.0051257443,-0.0024023768,0.0,0.0,0.0,0.0
6836000,-0.008326694,-0.0011615895,0.005822683,0.0,0.0,0.0,0.0
6872000,-0.004719524,-0.0073907683,-0.0018822048,0.0,0.0,0.0,0.0
6900000,-0.00090160256,-0.0069759553,-0.006624886,0.0,0.0,0.0,0.0
6932000,0.0017505772,-9.305193e-05,-0.008625799,0.0,0.0,0.0,0.0
6968000,-0.007790016,0.0059745004,0.004114475,0.0,0.0,0.0,0.0
6996000,-0.00013538392,-0.008179164,-0.0055968496,0.0,0.0,0.0,0.0
7028000,0.003854955,-0.0067766225,-0.0075291186,0.0,0.0,0.0,0.0
7064000,0.009409044,-0.00039448496,-0.0027970173,0.0,0.0,0.0,0.0
7096000,-0.0031580855,-0.0045987545,-0.0054291403,0.0,0.0,0.0,0.0
7124000,0.005807264,-0.010328916,0.004583062,0.0,0.0,0.0,0.0
7160000,-0.0014860579,-0.013710752,0.0063690664,0.0,0.0,0.0,0.0
7188000,-0.006769483,0.0062415036,0.0018209831,0.0,0.0,0.0,0.0
7220000,-0.0070645027,-0.0010377662,0.006243348,0.0,0.0,0.0,0.0
7252000,0.0049089883,-0.0072462927,-0.0068920245,0.0,0.0,0.0,0.0
7284000,-0.0080070915,-0.010515152,0.0017805246,0.0,0.0,0.0,0.0
7316000,-0.0023923318,0.005700875,-0.008801331,0.0,0.0,0.0,0.0
7348000,0.00065271114,-0.0053457054,-0.0062910505,0.0,0.0,0.0,0.0
7380000,-0.0013717149,-0.006018254,-0.004304876,0.0,0.0,0.0,0.0
7416000,-0.00699674,-0.0062111393,0.008480143,0.0,0.0,0.0,0.0
7444000,0.0017438115,-0.0009817779,0.003676666,0.0,0.0,0.0,0.0
7476000,-0.0058417977,0.0048127966,0.0052991128,0.0,0.0,0.0,0.0
7508000,0.00025711535,-0.00720375,-0.00030850963,0.0,0.0,0.0,0.0
7540000,0.0057760607,0.0028687036,0.0015663705,0.0,0.0,0.0,0.0
7572000,0.006991081,-0.0029356154,0.0009389027,0.0,0.0,0.0,0.0
7604000,0.008788114,-0.0103447335,-0.008045058,0.0,0.0,0.0,0.0
7636000,0.005509032,-0.008451159,-0.0039794343,0.0,0.0,0.0,0.0
7668000,0.0007937382,0.0020814228,0.0017722901,0.0,0.0,0.0,0.0
7700000,-0.0042285416,-0.0064752423,-0.0043036076,0.0,0.0,0.0,0.0
7732000,-0.0038615502,-0.001776664,0.0040868246,0.0,0.0,0.0,0.0
7764000,-0.0013409699,-0.006076397,0.0005374955,0.0,0.0,0.0,0.0
7796000,0.0033174658,-0.00125245,0.004090324,0.0,0.0,0.0,0.0
7828000,0.0005173334,0.007904002,-0.0013007857,0.0,0.0,0.0,0.0
7864000,-0.008759033,0.005169779,0.002097215,0.0,0.0,0.0,0.0
7892000,-0.0013200133,0.0019714625,-0.008353345,0.0,0.0,0.0,0.0
7924000,-0.003851951,-0.0035611102,-0.00032888807,0.0,0.0,0.0,0.0
7956000,-0.00084440643,0.0033661094,0.0011499653,0.0,0.0,0.0,0.0
7992000,0.002428141,0.0018322614,0.0027679077,0.0,0.0,0.0,0.0
8019999,-0.003929442,-0.0028432664,0.013276705,0.0,0.0,0.0,0.0
8056000,0.005266177,-0.0041765207,-0.003359228,0.0,0.0,0.0,0.0
8083999,-0.0028151637,-0.0063174916,-0.0055589983,0.0,0.0,0.0,0.0
8115999,0.017571934,0.0021599317,0.006190206,0.0,0.0,0.0,0.0
8147999,-0.0008158017,0.0007353481,-0.007057387,0.0,0.0,0.0,0.0
8184000,0.005164399,-0.0018746029,-0.0041176556,0.0,0.0,0.0,0.0
8216000,0.0015564411,-0.010128502,-0.008622842,0.0,0.0,0.0,0.0
8243999,0.004846627,0.0009804363,-5.07785e-05,0.0,0.0,0.0,0.0
8280000,-0.0012819399,0.0009793281,0.0068630422,0.0,0.0,0.0,0.0
8307999,0.00417519,0.0008016289,0.0046700044,0.0,0.0,0.0,0.0
8339999,0.0016136984,5.50868e-05,-0.00034616742,0.0,0.0,0.0,0.0
8371999,0.005473646,-0.0059332214,0.0018407905,0.0,0.0,0.0,0.0
8404000,0.0035863412,0.0025777852,-0.0019282589,0.0,0.0,0.0,0.0
8436000,-0.0065147327,-0.0031642732,-0.002671509,0.0,0.0,0.0,0.0
8468000,-0.00015017891,-0.0027109091,-0.0013845558,0.0,0.0,0.0,0.0
8500000,0.0042818086,0.009351412,-0.0051279175,0.0,0.0,0.0,0.0
8532000,0.011593285,-0.010169526,-0.004536111,0.0,0.0,0.0,0.0
8564000,0.005334966,0.007140826,-0.0010287375,0.0,0.0,0.0,0.0
8600000,1.1589029e-05,0.0071471157,0.004280375,0.0,0.0,0.0,0.0
8628000,-0.0034845294,0.0025478427,-0.0028899312,0.0,0.0,0.0,0.0
8664000,-0.0039415252,0.010952175,-0.0011408846,0.0,0.0,0.0,0.0
8696000,0.015921023,0.0005898196,0.0009952631,0.0,0.0,0.0,0.0
8724000,-0.0020223623,0.0026469664,-0.008160721,0.0,0.0,0.0,0.0
8756000,0.003383004,0.0014054901,0.002932611,0.0,0.0,0.0,0.0
8788000,0.0026448376,0.0044780644,-0.002011388,0.0,0.0,0.0,0.0
8824000,-0.0018172505,0.0008280631,-7.494062e-05,0.0,0.0,0.0,0.0
8852000,-5.5306125e-05,0.003299071,0.0042554447,0.0,0.0,0.0,0.0
8884000,-0.004444995,0.009763224,0.0017834795,0.0,0.0,0.0,0.0
8916000,-0.007011342,0.010343328,-0.009967247,0.0,0.0,0.0,0.0
8952000,0.0011075918,0.001854429,0.0011788635,0.0,0.0,0.0,0.0
8984000,0.0029583573,0.0047216327,-0.005918188,0.0,0.0,0.0,0.0
9012000,-0.0032358863,0.0013952423,-0.008359197,0.0,0.0,0.0,0.0
9044000,0.0019860205,0.0029626477,0.008420138,0.0,0.0,0.0,0.0
9080000,0.010400361,0.003683759,0.007700034,0.0,0.0,0.0,0.0
9108000,-0.00044975837,-0.0034273881,0.00842884,0.0,0.0,0.0,0.0
9140000,0.0062349937,-0.009202298,-0.008011418,0.0,0.0,0.0,0.0
9172000,-0.010293924,-0.008029771,0.001742052,0.0,0.0,0.0,0.0
9204000,0.00614741,0.00048668403,0.005895323,0.0,0.0,0.0,0.0
9236000,0.0050310977,0.0058622356,0.0026434562,0.0,0.0,0.0,0.0
9272000,-0.0057381066,0.0020733778,-0.002703021,0.0,0.0,0.0,0.0
9300000,0.009216909,-0.0036412692,0.0056569334,0.0,0.0,0.0,0.0
9332000,0.0013682216,0.0004609353,-0.0018453591,0.0,0.0,0.0,0.0
9364000,0.004127994,0.00030919118,-0.0007514785,0.0,0.0,0.0,0.0
9396000,0.0100227315,0.0007926789,0.011933803,0.0,0.0,0.0,0.0
9432000,-0.0062517663,-0.0009515169,0.0064091296,0.0,0.0,0.0,0.0
9464000,0.0023756935,0.010081194,0.0063066278,0.0,0.0,0.0,0.0
9492000,0.009428895,-0.00038200896,-0.009308723,0.0,0.0,0.0,0.0
9524000,-0.0070967786,0.0054203873,0.009217757,0.0,0.0,0.0,0.0
9560000,0.0008583638,0.0023154756,0.0023056765,0.0,0.0,0.0,0.0
9588000,0.0037916447,0.011447406,0.0016973319,0.0,0.0,0.0,0.0
9620000,-0.00036391243,-0.010877039,-0.0039737425,0.0,0.0,0.0,0.0
9652000,0.008335483,0.0046853647,0.0010229727,0.0,0.0,0.0,0.0
9684000,0.005454374,0.0050955224,-0.0016600684,0.0,0.0,0.0,0.0
9716000,0.003510589,-0.004646548,-0.0049229893,0.0,0.0,0.0,0.0
9748000,-0.0025088605,0.00047429744,5.6980673e-05,0.0,0.0,0.0,0.0
9780000,0.0004577355,-0.012283908,0.0052036983,0.0,0.0,0.0,0.0
9816000,-0.005058771,-0.011584528,0.008056275,0.0,0.0,0.0,0.0
9844000,0.002089479,0.0011050072,-0.0045445524,0.0,0.0,0.0,0.0
9876000,-0.0065511186,0.0037357518,0.0032840206,0.0,0.0,0.0,0.0
9908000,0.004580102,-0.0010898844,-0.0062719407,0.0,0.0,0.0,0.0
9940000,0.006506497,-0.006110618,-0.0008449744,0.0,0.0,0.0,0.0
9972000,0.00016441487,-0.0011490788,0.00018683764,0.0,0.0,0.0,0.0
10004000,0.0036946724,0.0053907135,-0.0037162253,0.0,0.0,0.0,0.0
10036000,-0.00040501123,-0.0023235278,0.0025879848,0.0,0.0,0.0,0.0
10072000,0.009334747,0.0072306274,-0.007870432,0.0,0.0,0.0,0.0
10100000,-7.71028e-05,0.008772513,-0.0044821864,0.0,0.0,0.0,0.0
10136000,0.0021930288,0.0023716574,0.0038422607,0.0,0.0,0.0,0.0
10164000,-0.0066644913,-0.0009385729,-0.00019819316,0.0,0.0,0.0,0.0
10196000,-0.0029044612,0.005893661,-0.003217122,0.0,0.0,0.0,0.0
10228000,-0.000847974,-0.0005553942,-0.0064255013,0.0,0.0,0.0,0.0
10260000,0.0014949506,-0.002086788,0.002449486,0.0,0.0,0.0,0.0
10296000,0.0019651318,-0.008533884,-0.00040490078,0.0,0.0,0.0,0.0
10328000,0.000420088,0.004088236,-0.007730819,0.0,0.0,0.0,0.0
10360000,-0.006990583,-0.0044213966,-0.0061625764,0.0,0.0,0.0,0.0
10388000,-0.0052939956,-0.0020033452,-0.0017316643,0.0,0.0,0.0,0.0
10420000,0.00073136046,-0.0011674236,-0.006298223,0.0,0.0,0.0,0.0
10452000,0.0009375387,0.0011536814,0.007942323,0.0,0.0,0.0,0.0
10484000,-0.0065991646,-0.0008541611,-0.0012120918,0.0,0.0,0.0,0.0
10520000,-0.0017392744,-0.0021217824,-0.002236052,0.0,0.0,0.0,0.0
10548000,0.0031939019,0.0016427678,0.008954322,0.0,0.0,0.0,0.0
10580000,-0.0030571339,-0.0036190562,-0.0012925746,0.0,0.0,0.0,0.0
10612000,0.0078115077,-0.000358155,0.00065827224,0.0,0.0,0.0,0.0
10648000,0.009520482,-0.007740551,-0.002330995,0.0,0.0,0.0,0.0
10676000,-0.0046049193,0.001942669,0.0007318247,0.0,0.0,0.0,0.0
10708000,-0.0019105233,0.00079555996,0.0017132959,0.0,0.0,0.0,0.0
10740000,-0.010871205,0.001399939,-0.0038095505,0.0,0.0,0.0,0.0
10776000,0.011398692,-0.0037417603,-0.00018281584,0.0,0.0,0.0,0.0
10804000,-0.0032326123,0.00045130635,-0.0014001251,0.0,0.0,0.0,0.0
10836000,-0.0032152268,-0.0022729128,0.0016693927,0.0,0.0,0.0,0.0
10868000,-0.0032941652,-0.0044656983,0.0064074136,0.0,0.0,0.0,0.0
10904000,-0.0020531253,-0.00042114267,-0.0030172952,0.0,0.0,0.0,0.0
10932000,0.006429402,0.00013023103,0.009400549,0.0,0.0,0.0,0.0
10964000,0.0023369868,0.0055286204,0.004370404,0.0,0.0,0.0,0.0
10996000,-0.0021230252,-0.004235949,-0.011958869,0.0,0.0,0.0,0.0
11028000,-0.006021972,-0.0018256349,0.0010038582,0.0,0.0,0.0,0.0
11064000,-0.009650864,0.0038455224,0.008663022,0.0,0.0,0.0,0.0
11092000,0.0019071527,-0.0013004662,-0.0019736295,0.0,0.0,0.0,0.0
11124000,-0.0038027721,-0.00786058,0.0033718594,0.0,0.0,0.0,0.0
11156000,0.0066512306,0.003303275,-0.0060790773,0.0,0.0,0.0,0.0
11192000,-0.0027463841,0.008702142,-0.0012242304,0.0,0.0,0.0,0.0
11224000,-0.007781064,-0.005858814,0.0022579706,0.0,0.0,0.0,0.0
11252000,0.0014393098,-0.0028731697,-0.0068435813,0.0,0.0,0.0,0.0
11284000,0.002413564,0.0073563363,0.002747896,0.0,0.0,0.0,0.0
11316000,0.0068640895,-0.015609583,-0.006987705,0.0,0.0,0.0,0.0
11348000,-0.0011801539,0.0024690877,-0.0007581477,0.0,0.0,0.0,0.0
11380000,0.0030002631,-0.002466626,0.0053283693,0.0,0.0,0.0,0.0
11412000,0.00020138308,0.0054895384,0.004681203,0.0,0.0,0.0,0.0
11448000,-0.0032017345,-0.004574148,0.0073146312,0.0,0.0,0.0,0.0
11476000,-0.0055087227,0.0057189465,-0.0048928363,0.0,0.0,0.0,0.0
11508000,-0.002553724,-0.008666933,-0.0034819604,0.0,0.0,0.0,0.0
11544000,-0.0044356054,0.0037410096,0.0018278225,0.0,0.0,0.0,0.0
11576000,0.014360668,0.008769754,-0.0057140747,0.0,0.0,0.0,0.0
11604000,-0.002712023,-0.0025414615,-0.0057800096,0.0,0.0,0.0,0.0
11640000,-0.0056261458,-0.009358199,-0.0032604178,0.0,0.0,0.0,0.0
11668000,0.0012880735,0.001526169,0.0025939597,0.0,0.0,0.0,0.0
11700000,0.0009962844,-0.0010129041,-0.0007994836,0.0,0.0,0.0,0.0
11732000,0.0026341262,-0.0057187234,-0.009837994,0.0,0.0,0.0,0.0
11764000,-0.0062703835,0.0037362832,-0.008460445,0.0,0.0,0.0,0.0
11800000,-0.0037590647,0.005397228,-0.01226059,0.0,0.0,0.0,0.0
11828000,-0.0031823642,-0.00062813563,0.012287378,0.0,0.0,0.0,0.0
11860000,0.002405169,-0.0013551018,-0.00038428255,0.0,0.0,0.0,0.0
11892000,0.0019860235,-0.0017179046,-0.0020274029,0.0,0.0,0.0,0.0
11928000,-0.0011807055,0.0006779367,-0.008146044,0.0,0.0,0.0,0.0
11960000,-0.0040496592,-0.0012905011,-0.0043275864,0.0,0.0,0.0,0.0
11992000,0.0024472126,-0.011179637,-0.0057511632,0.0,0.0,0.0,0.0
12020000,0.0059243254,-0.004181019,-0.0056232666,0.0,0.0,0.0,0.0
12052000,-0.0038099168,0.003718741,-0.0013918827,0.0,0.0,0.0,0.0
12088000,-0.00025443465,-0.006238757,-0.00756635,0.0,0.0,0.0,0.0
12116000,0.00037319306,-0.003866849,0.004601956,0.0,0.0,0.0,0.0
12148000,0.0015857434,0.0018864446,-0.00017998449,0.0,0.0,0.0,0.0
12180000,0.008090839,-0.012948707,-0.0016822653,0.0,0.0,0.0,0.0
12212000,0.0038981228,-0.003018368,-0.011349849,0.0,0.0,0.0,0.0
12248000,0.0005237015,0.0031283093,-0.00055313815,0.0,0.0,0.0,0.0
12280000,0.0020256047,-0.0021071741,0.0038802885,0.0,0.0,0.0,0.0
12308000,-0.004284946,0.010132974,-0.0017577625,0.0,0.0,0.0,0.0
12344000,-0.0010332044,-0.0012127636,-0.0052342503,0.0,0.0,0.0,0.0
12372000,-0.006476762,-0.0012158318,0.00065890804,0.0,0.0,0.0,0.0
12404000,0.0026802374,-0.009474196,-0.0076585514,0.0,0.0,0.0,0.0
12436000,-0.00025206164,-0.001333145,-0.006292868,0.0,0.0,0.0,0.0
12468000,0.0015511508,0.0053781397,-0.0021447917,0.0,0.0,0.0,0.0
12500000,-0.0033053383,-0.011239603,0.004399402,0.0,0.0,0.0,0.0
12532000,-0.004234503,-0.0039245556,0.0006107655,0.0,0.0,0.0,0.0
12564000,-0.00072322204,-0.0038615116,-0.0011677541,0.0,0.0,0.0,0.0
12596000,0.013852334,-0.0048964233,0.0059085945,0.0,0.0,0.0,0.0
12632000,0.0013480767,-0.0012276531,-0.010175659,0.0,0.0,0.0,0.0
12660000,0.0031084232,-0.007960491,0.013619651,0.0,0.0,0.0,0.0
12696000,0.009185225,-0.0026386208,-0.011772796,0.0,0.0,0.0,0.0
12724000,0.0025459966,0.007170285,-0.0003694274,0.0,0.0,0.0,0.0
12756000,0.00011840515,0.0008132928,0.0004039497,0.0,0.0,0.0,0.0
12788000,0.004490332,0.0012246487,7.652009e-05,0.0,0.0,0.0,0.0
12820000,-0.0075614587,0.0040079183,0.003444218,0.0,0.0,0.0,0.0
12856000,-0.0063231275,0.008926982,0.0049771923,0.0,0.0,0.0,0.0
12888000,0.00045817898,-0.005305855,0.0026343341,0.0,0.0,0.0,0.0
12916000,0.0015582454,-0.0044431086,-0.0010102707,0.0,0.0,0.0,0.0
12948000,-0.0008040663,0.002431774,0.0030475426,0.0,0.0,0.0,0.0
12980000,0.012843914,-4.601106e-05,-0.0010343392,0.0,0.0,0.0,0.0
13012000,-0.003483193,0.0030732073,-0.0033095055,0.0,0.0,0.0,0.0
13044000,-0.0043399544,0.00024633948,0.0021503316,0.0,0.0,0.0,0.0
13076000,0.005379442,-0.00955512,0.0063054147,0.0,0.0,0.0,0.0
13108000,0.002511362,-0.0015694709,-0.007288791,0.0,0.0,0.0,0.0
13144000,-0.0006454106,0.00046689622,0.006019285,0.0,0.0,0.0,0.0
13176000,-0.0017529867,0.0061919345,0.010749738,0.0,0.0,0.0,0.0
13204000,0.0012666861,-0.009613285,-0.00073596725,0.0,0.0,0.0,0.0
13240000,-0.004940057,-0.0054184194,0.0019493854,0.0,0.0,0.0,0.0
13268000,-0.0008345139,-0.010097271,0.0005189531,0.0,0.0,0.0,0.0
13300000,0.0019195676,0.006856826,0.0059390445,0.0,0.0,0.0,0.0
13332000,0.0042061033,-0.0066661052,-0.006286558,0.0,0.0,0.0,0.0
13364000,0.0022998168,-0.006659462,0.0047349175,0.0,0.0,0.0,0.0
13396000,-0.0053125527,0.007891292,-0.0041897036,0.0,0.0,0.0,0.0
13428000,-0.0036778674,-0.0048285485,-0.004108185,0.0,0.0,0.0,0.0
13460000,0.0021536048,-0.004491964,-0.0026723463,0.0,0.0,0.0,0.0
13492000,0.0013629119,-0.010027991,0.00615978,0.0,0.0,0.0,0.0
13524000,0.0023113017,-0.0040203677,-0.010264685,0.0,0.0,0.0,0.0
13556000,-0.004824564,0.011620572,0.006543469,0.0,0.0,0.0,0.0
13588000,-0.009967256,-0.0020760247,-0.0013336573,0.0,0.0,0.0,0.0
13620000,-0.00018042303,-0.0053831264,-0.0042332234,0.0,0.0,0.0,0.0
13656000,-0.00295276,-0.005678342,-0.000115737756,0.0,0.0,0.0,0.0
13684000,-0.012589338,-0.006080798,0.002869842,0.0,0.0,0.0,0.0
13716000,-0.0045782486,-0.0064462135,-0.00468027,0.0,0.0,0.0,0.0
13748000,0.0024544508,0.006467505,0.01016439,0.0,0.0,0.0,0.0
13780000,0.0002360348,0.0047629033,0.00948266,0.0,0.0,0.0,0.0
13816000,0.0030514041,0.0062802183,0.003569353,0.0,0.0,0.0,0.0
13848000,-0.006676138,-0.0006077909,-0.002287529,0.0,0.0,0.0,0.0
13876000,0.00542741,-0.0055621197,-0.004178411,0.0,0.0,0.0,0.0
13908000,0.0048590647,-0.0038163788,-0.001840273,0.0,0.0,0.0,0.0
13944000,0.009901533,-0.0024471404,0.0100537045,0.0,0.0,0.0,0.0
13972000,0.0063226833,0.0025722112,-0.0043171626,0.0,0.0,0.0,0.0
14004000,0.0004895964,0.00457754,-0.0037699835,0.0,0.0,0.0,0.0
14036000,-0.009448069,-0.0022791186,0.0050887065,0.0,0.0,0.0,0.0
14072000,-0.00489647,0.013247531,-0.004054721,0.0,0.0,0.0,0.0
14104000,-0.004018589,0.0011900892,-0.0028862478,0.0,0.0,0.0,0.0
14136000,-0.0008269412,0.0015992052,0.0020189662,0.0,0.0,0.0,0.0
14164000,0.0022591911,0.002854495,-0.0015387572,0.0,0.0,0.0,0.0
14196000,0.004009254,0.0036134792,9.577973e-05,0.0,0.0,0.0,0.0
14228000,-0.008819303,-0.0015017809,0.0030358792,0.0,0.0,0.0,0.0
14260000,0.0068543754,0.01094361,-0.00020496646,0.0,0.0,0.0,0.0
14292000,0.00075037364,-0.009027467,0.004367034,0.0,0.0,0.0,0.0
14324000,0.002742242,-0.005449528,-0.004148328,0.0,0.0,0.0,0.0
14360000,0.0014797341,-0.0017361525,-0.0028793747,0.0,0.0,0.0,0.0
14388000,0.0009066481,0.0035155136,4.0438066e-05,0.0,0.0,0.0,0.0
14420000,-0.0048399214,0.0029281361,0.0029019949,0.0,0.0,0.0,0.0
14452000,0.0058895564,-0.0042652604,0.0019047402,0.0,0.0,0.0,0.0
14484000,-0.0058461986,0.0012806947,-0.007041975,0.0,0.0,0.0,0.0
14516000,0.0160926,-0.0039748917,-0.015817204,0.0,0.0,0.0,0.0
14548000,-0.002606078,-0.009121794,0.00088009686,0.0,0.0,0.0,0.0
14580000,0.0030909558,-0.0058000805,-0.006830915,0.0,0.0,0.0,0.0
14612000,0.00536925,-0.005233279,0.0065220054,0.0,0.0,0.0,0.0
14644000,0.0057621542,-0.008813239,-0.002768128,0.0,0.0,0.0,0.0
14680000,-0.0064953044,-0.006216359,0.008824403,0.0,0.0,0.0,0.0
14708000,0.0068343664,0.000861485,-0.0026602426,0.0,0.0,0.0,0.0
14740000,-0.0015767307,-0.0037613725,0.0047190543,0.0,0.0,0.0,0.0
14772000,-0.0099151265,-0.0028719562,-0.006094293,0.0,0.0,0.0,0.0
14804000,-0.00328618,-0.0014223647,0.004661422,0.0,0.0,0.0,0.0
14836000,-0.002059278,-0.0013702903,0.0024995003,0.0,0.0,0.0,0.0
14868000,0.00031138735,0.0069078137,0.0017839923,0.0,0.0,0.0,0.0
14900000,-0.0067331768,-0.0036631357,0.0076739765,0.0,0.0,0.0,0.0
14932000,-0.011271487,-0.0076609645,-0.002623919,0.0,0.0,0.0,0.0
14964000,0.008773962,0.0056697936,-0.006925199,0.0,0.0,0.0,0.0
14996000,0.0017846827,0.0044811415,-0.005417802,0.0,0.0,0.0,0.0
15028000,0.005304214,-0.0055191894,-0.0026584186,0.0,0.0,0.0,0.0
15060000,0.00040880434,0.00021693949,0.0032109988,0.0,0.0,0.0,0.0
15092000,-0.009681496,0.008440161,-0.008217427,0.0,0.0,0.0,0.0
15128000,-0.007850361,-0.001980667,0.01138099,0.0,0.0,0.0,0.0
15156000,0.0028242527,-0.00459885,0.004880735,0.0,0.0,0.0,0.0
15188000,0.005954933,0.0008237236,0.007707058,0.0,0.0,0.0,0.0
15220000,0.0020334213,0.0026575073,0.011674062,0.0,0.0,0.0,0.0
15252000,-0.0014658879,0.0059619723,0.005037757,0.0,0.0,0.0,0.0
15284000,0.005710593,0.004395574,0.0065532224,0.0,0.0,0.0,0.0
15316000,0.0008494307,0.009571642,0.001682351,0.0,0.0,0.0,0.0
15348000,-0.006229451,0.016161012,-0.00054067996,0.0,0.0,0.0,0.0
15380000,0.0054997094,0.007181445,0.0008065046,0.0,0.0,0.0,0.0
15412000,-0.005073609,-0.0038094157,-0.003753603,0.0,0.0,0.0,0.0
15448000,-0.00025955285,0.0064105876,0.0081587145,0.0,0.0,0.0,0.0
15476000,0.002918107,-0.002933877,-0.0012642171,0.0,0.0,0.0,0.0
15508000,0.0049479217,0.005260062,-0.0010720176,0.0,0.0,0.0,0.0
15544000,0.0010305793,0.0034918499,-0.003053402,0.0,0.0,0.0,0.0
15572000,-0.0017810741,0.0001607691,0.00643002,0.0,0.0,0.0,0.0
15604000,0.006112529,0.002333258,-8.38971e-06,0.0,0.0,0.0,0.0
15640000,-0.008873366,0.009596657,-0.008151129,0.0,0.0,0.0,0.0
15668000,-0.0068814857,-0.0025258241,0.005171328,0.0,0.0,0.0,0.0
15700000,-0.0046111373,0.0079244645,0.009174603,0.0,0.0,0.0,0.0
15732000,0.003021711,-0.004771835,-0.001815231,0.0,0.0,0.0,0.0
15768000,-0.001711332,0.00470773,-0.005342107,0.0,0.0,0.0,0.0
15796000,0.0067994213,-0.0008848305,-0.0020511304,0.0,0.0,0.0,0.0
15828000,-0.0011287098,0.011380499,-0.0017846215,0.0,0.0,0.0,0.0
15860000,-0.0133152865,-0.0014728513,-0.010804632,0.0,0.0,0.0,0.0
15892000,-0.0049652765,-0.007896887,-0.0056474986,0.0,0.0,0.0,0.0
15924000,0.008494376,0.006129213,-0.0067916247,0.0,0.0,0.0,0.0
15956000,-0.011839055,-0.0023073326,0.011548572,0.0,0.0,0.0,0.0
15988000,-0.0064786808,-0.0071509806,-0.008802628,0.0,0.0,0.0,0.0
16020000,-0.0061467947,0.007322616,0.0022706413,0.0,0.0,0.0,0.0
16052000,-0.010591294,-0.0010563098,-0.00089166086,0.0,0.0,0.0,0.0
16087999,-0.013924647,-0.0011199825,0.004570567,0.0,0.0,0.0,0.0
16116000,0.0056274477,0.009292932,-0.00085668487,0.0,0.0,0.0,0.0
16148000,0.0034251716,0.00080305105,-0.010666705,0.0,0.0,0.0,0.0
16180000,0.009583546,-0.00077196956,-0.005712476,0.0,0.0,0.0,0.0
16212000,-0.0072198273,-0.0022768881,0.0015159823,0.0,0.0,0.0,0.0
16244000,0.0011475227,-0.008831689,-0.00463775,0.0,0.0,0.0,0.0
16276000,-5.721941e-05,-0.007876317,0.005751825,0.0,0.0,0.0,0.0
16308000,-0.0047967066,-0.00095070107,-0.0010531661,0.0,0.0,0.0,0.0
16340000,-0.00352203,0.0010219929,-0.0070755053,0.0,0.0,0.0,0.0
16375999,0.0121914,0.0031616471,0.00032244803,0.0,0.0,0.0,0.0
16407999,4.993158e-05,-0.0031876597,0.006722829,0.0,0.0,0.0,0.0
16436000,-0.0012483756,0.00360608,-0.006953314,0.0,0.0,0.0,0.0
16468000,0.00012610492,0.0062309615,-0.0008847149,0.0,0.0,0.0,0.0
16504000,-0.0035905456,-0.0030093212,0.008918675,0.0,0.0,0.0,0.0
16536000,0.00078374776,-8.0364756e-05,0.0032420326,0.0,0.0,0.0,0.0
16564000,-0.0020398211,0.0008736518,0.011360649,0.0,0.0,0.0,0.0
16596000,-0.0015539391,-0.010475052,-0.008086256,0.0,0.0,0.0,0.0
16632000,-0.019095205,-0.0047096508,0.0011668133,0.0,0.0,0.0,0.0
16660000,0.0012055598,0.0043208357,0.0059397114,0.0,0.0,0.0,0.0
16692000,0.0032921135,0.010869637,-0.00184399,0.0,0.0,0.0,0.0
16724000,-0.0007654709,-0.0015261704,0.0006885168,0.0,0.0,0.0,0.0
16760000,0.0002519178,0.0043397597,-0.0057017263,0.0,0.0,0.0,0.0
16788000,-0.004893914,-0.0075984932,-0.004063927,0.0,0.0,0.0,0.0
16820000,0.0011805756,-7.82609e-05,-0.003166509,0.0,0.0,0.0,0.0
16852000,-0.0015595563,0.0028773216,0.00078480394,0.0,0.0,0.0,0.0
16888000,-0.00034451042,0.0012338767,-0.003213859,0.0,0.0,0.0,0.0
16916000,0.0069521638,-0.0021718936,0.00027289044,0.0,0.0,0.0,0.0
16948000,-0.00035552995,0.0037622873,-0.0025419632,0.0,0.0,0.0,0.0
16980000,-0.0020904213,-0.003587203,0.013838907,0.0,0.0,0.0,0.0
17016000,-0.0053112223,-0.0184983,0.00783564,0.0,0.0,0.0,0.0
17044000,-0.00055318256,0.004544559,-0.0054768105,0.0,0.0,0.0,0.0
17076000,-0.002230178,0.0039671706,0.004473214,0.0,0.0,0.0,0.0
17112000,0.0012960306,-0.0061947587,-0.0017792042,0.0,0.0,0.0,0.0
17144000,-0.012090506,0.0004320196,-0.008651128,0.0,0.0,0.0,0.0
17176000,0.0064797667,-0.010411952,-0.00065219024,0.0,0.0,0.0,0.0
17208000,0.0033954773,-0.0044145095,0.0004754991,0.0,0.0,0.0,0.0
17236000,0.0012647291,0.011937261,0.0077536805,0.0,0.0,0.0,0.0
17272000,0.003333414,0.0023546321,-0.00020191842,0.0,0.0,0.0,0.0
17300000,0.015124688,0.003902944,-0.008827208,0.0,0.0,0.0,0.0
17332000,-0.006244649,-0.0046907607,-0.0027696036,0.0,0.0,0.0,0.0
17364000,0.0087270485,-0.00036003627,-0.0033633707,0.0,0.0,0.0,0.0
17396000,-0.0011835434,0.009123374,0.0048296335,0.0,0.0,0.0,0.0
17428000,-0.0017299566,0.0048899828,-0.0044582677,0.0,0.0,0.0,0.0
17460000,-0.004298824,-0.0023356862,-0.0032763304,0.0,0.0,0.0,0.0
17492000,-0.0014480575,-0.009429227,0.008579707,0.0,0.0,0.0,0.0
17528000,0.0025746152,0.0030529855,0.0046229647,0.0,0.0,0.0,0.0
17556000,-0.00093991763,0.0026320987,0.00032152893,0.0,0.0,0.0,0.0
17588000,0.017180772,0.0034956504,0.010178037,0.0,0.0,0.0,0.0
17624000,0.0048478013,0.0075230314,0.0031134102,0.0,0.0,0.0,0.0
17652000,0.0017825072,0.008766233,0.0071337004,0.0,0.0,0.0,0.0
17684000,0.0052063363,0.009811666,0.0038318494,0.0,0.0,0.0,0.0
17716000,0.001388644,-0.0010550069,-0.010355105,0.0,0.0,0.0,0.0
17748000,-0.008474783,-0.008721178,-0.0035546154,0.0,0.0,0.0,0.0
17784000,-0.0067771375,-0.00045755785,0.00068869494,0.0,0.0,0.0,0.0
17812000,-0.0026288573,0.0084804855,0.0018755541,0.0,0.0,0.0,0.0
17848000,0.00053373066,-0.0046244743,-0.0016994185,0.0,0.0,0.0,0.0
17880000,-0.005938961,0.0029902423,0.0029700669,0.0,0.0,0.0,0.0
17908000,0.0016749165,0.0034329656,-0.0041341926,0.0,0.0,0.0,0.0
17940000,-0.0056944,0.0004395903,0.0007769928,0.0,0.0,0.0,0.0
17972000,0.0027977112,0.0033562807,0.0005614134,0.0,0.0,0.0,0.0
18008000,-0.0024880236,0.0080836965,0.0011571923,0.0,0.0,0.0,0.0
18036000,-0.0016684603,0.0042303707,-0.0027782135,0.0,0.0,0.0,0.0
18068000,0.0038771457,0.0072243745,0.0020928616,0.0,0.0,0.0,0.0
18100000,-0.008765639,-0.00015255902,0.00023759842,0.0,0.0,0.0,0.0
18132000,0.008757966,0.0004786919,0.007436898,0.0,0.0,0.0,0.0
18164000,-0.001401181,-0.007394419,0.006346476,0.0,0.0,0.0,0.0
18196000,-0.0019833473,-0.0039646067,0.00011874816,0.0,0.0,0.0,0.0
18232000,-0.002206829,0.0014895578,-0.00429801,0.0,0.0,0.0,0.0
18260000,-0.010266679,-0.00021832576,-0.00046476265,0.0,0.0,0.0,0.0
18292000,-0.008177143,0.0051458976,0.006229923,0.0,0.0,0.0,0.0
18324000,0.0018082196,-0.0043067276,-0.006747626,0.0,0.0,0.0,0.0
18356000,-0.000993438,0.0045790793,-0.0046781763,0.0,0.0,0.0,0.0
18392000,0.0036882432,0.004918683,-0.007583244,0.0,0.0,0.0,0.0
18420000,-0.008200331,-0.005495344,-0.001995689,0.0,0.0,0.0,0.0
18452000,0.0022469717,0.0034766833,-0.007319429,0.0,0.0,0.0,0.0
18484000,-0.003082897,0.007143457,-0.0034215362,0.0,0.0,0.0,0.0
18520000,-0.014570207,-0.01038011,0.0041804323,0.0,0.0,0.0,0.0
18548000,-0.0029530139,0.0038312422,0.0024192408,0.0,0.0,0.0,0.0
18580000,0.007428977,9.867037e-05,-0.00087528204,0.0,0.0,0.0,0.0
18612000,0.0025436669,-0.0064945347,-0.008922394,0.0,0.0,0.0,0.0
18648000,-0.009161008,0.0077692093,-0.0001721716,0.0,0.0,0.0,0.0
18676000,0.006254444,0.00023925072,-0.005060006,0.0,0.0,0.0,0.0
18708000,-0.0019035733,-0.0012538973,-0.001692605,0.0,0.0,0.0,0.0
18740000,-0.004740039,-0.0017632344,0.0069277203,0.0,0.0,0.0,0.0
18772000,-0.0030475752,0.00454698,0.007104937,0.0,0.0,0.0,0.0
18804000,-0.0004890143,0.0007257089,0.0020344348,0.0,0.0,0.0,0.0
18836000,0.008246842,0.007372489,-0.0008513252,0.0,0.0,0.0,0.0
18872000,0.005705461,0.00045426236,0.0017987387,0.0,0.0,0.0,0.0
18900000,-0.0006673661,0.0055901106,0.0011670663,0.0,0.0,0.0,0.0
18932000,-0.0038518198,0.00045807566,-0.0040714303,0.0,0.0,0.0,0.0
18964000,-0.004739399,1.685135e-05,-0.002208155,0.0,0.0,0.0,0.0
19000000,0.017700313,0.0069478974,-0.0022635772,0.0,0.0,0.0,0.0
19028000,0.007937317,0.003735896,-0.0031902187,0.0,0.0,0.0,0.0
19060000,-0.008888387,0.008128456,0.0010228755,0.0,0.0,0.0,0.0
19092000,0.00022254873,-3.0137599e-06,-0.0045203893,0.0,0.0,0.0,0.0
19124000,-0.0016990756,-0.001732388,0.007052542,0.0,0.0,0.0,0.0
19160000,-0.00525,0.009447103,0.005407966,0.0,0.0,0.0,0.0
19192000,0.004570007,-0.0067915223,-0.000911256,0.0,0.0,0.0,0.0
19224000,0.008059766,0.0011875238,0.014413882,0.0,0.0,0.0,0.0
19252000,-0.0011403189,0.0024269656,0.00019124344,0.0,0.0,0.0,0.0
19284000,0.0019451272,-0.00058323704,0.0022584011,0.0,0.0,0.0,0.0
19316000,-0.003991913,0.001757028,0.0015269236,0.0,0.0,0.0,0.0
19352000,0.0050826548,-0.0054251743,-0.004712304,0.0,0.0,0.0,0.0
19380000,-0.0013515049,0.0071826517,0.018817583,0.0,0.0,0.0,0.0
19412000,0.0026567597,0.001278609,0.0055984096,0.0,0.0,0.0,0.0
19444000,-0.006819007,0.0020799157,-0.00866789,0.0,0.0,0.0,0.0
19480000,0.008381218,0.0002105129,0.005728596,0.0,0.0,0.0,0.0
19508000,-0.0009656821,0.0071470183,0.0010652876,0.0,0.0,0.0,0.0
19540000,0.004148889,-0.0055691865,-0.0012459328,0.0,0.0,0.0,0.0
19572000,0.0047747297,0.0017622095,-0.0050382875,0.0,0.0,0.0,0.0
19608000,0.0059616948,-0.0026257262,0.0028946137,0.0,0.0,0.0,0.0
19640000,0.0010835094,0.002140029,0.0013954379,0.0,0.0,0.0,0.0
19668000,-0.0033424657,0.00452705,-0.0039558145,0.0,0.0,0.0,0.0
19704000,-0.0031628148,0.0030357486,0.013121504,0.0,0.0,0.0,0.0
19732000,-0.0037440346,0.00049768016,0.0026559897,0.0,0.0,0.0,0.0
19764000,-0.0035874904,-0.0064121014,-0.007420666,0.0,0.0,0.0,0.0
19796000,0.0006552087,-0.0023722998,0.0020769148,0.0,0.0,0.0,0.0
19828000,0.002496225,0.0025944628,-0.003177956,0.0,0.0,0.0,0.0
19864000,-0.00491844,-0.0009455001,0.005555611,0.0,0.0,0.0,0.0
19896000,0.00081220607,-0.0007374878,-0.0042712796,0.0,0.0,0.0,0.0
19928000,0.012132229,0.0026924454,-0.00092600123,0.0,0.0,0.0,0.0
19956000,-0.0009532939,-0.011235805,-0.0046123536,0.0,0.0,0.0,0.0
19988000,0.01220265,0.004927382,-7.8445046e-05,0.0,0.0,0.0,0.0
20020000,0.0031749676,-0.010853823,-0.0012026965,0.0,0.0,0.0,0.0
20052000,-0.0048825387,0.014979966,0.0026653572,0.0,0.0,0.0,0.0
20084000,-0.0024692588,0.01036367,-0.00744346,0.0,0.0,0.0,0.0
20116000,0.006673971,-0.003758585,-0.0028960945,0.0,0.0,0.0,0.0
20148000,0.0067965677,-0.0071838526,-0.00825756,0.0,0.0,0.0,0.0
20180000,-0.013951963,-0.0013554371,1.1944949e-05,0.0,0.0,0.0,0.0
20212000,-0.0058244476,0.002725143,0.0028297591,0.0,0.0,0.0,0.0
20244000,0.00035333866,0.0009846576,-0.006355578,0.0,0.0,0.0,0.0
20276000,0.0046124817,-0.0032257317,0.0081920335,0.0,0.0,0.0,0.0
20308000,0.004742551,-0.0017979173,-0.0034277553,0.0,0.0,0.0,0.0
20340000,-0.0035125674,-0.002362785,-0.0014404316,0.0,0.0,0.0,0.0
20372000,-0.0002194827,0.0061163506,-0.0016533765,0.0,0.0,0.0,0.0
20408000,-9.666255e-05,-0.0054799723,-0.0015368937,0.0,0.0,0.0,0.0
20436000,0.006452596,-0.0035734614,0.010514129,0.0,0.0,0.0,0.0
20472000,-0.0029198169,-0.0034813029,0.008682423,0.0,0.0,0.0,0.0
20500000,0.0054532457,0.001600334,0.0020226662,0.0,0.0,0.0,0.0
20532000,0.017071085,0.008262017,0.004365525,0.0,0.0,0.0,0.0
20564000,-0.003068266,0.0062121446,-0.0044984464,0.0,0.0,0.0,0.0
20596000,-0.002239928,0.010847921,0.00013305774,0.0,0.0,0.0,0.0
20632000,-0.0058348347,0.007088937,-0.008143526,0.0,0.0,0.0,0.0
20660000,-0.011745054,-0.0009423881,0.0022877685,0.0,0.0,0.0,0.0
20692000,-0.0002252527,0.000802177,0.00986074,0.0,0.0,0.0,0.0
20724000,-0.0014161469,8.949777e-05,-0.0056316555,0.0,0.0,0.0,0.0
20756000,-0.0034197601,-0.008825606,0.0030404564,0.0,0.0,0.0,0.0
20788000,0.006099274,0.004649634,-0.0016412839,0.0,0.0,0.0,0.0
20824000,-0.005948907,0.011498247,-0.009597072,0.0,0.0,0.0,0.0
20856000,0.0053609274,0.007079103,0.011057344,0.0,0.0,0.0,0.0
20888000,0.0013985225,-0.00170507,-0.000684676,0.0,0.0,0.0,0.0
20916000,0.00013916951,-0.0063216044,0.0037138234,0.0,0.0,0.0,0.0
20948000,-0.0007976638,-0.0030032434,0.00847562,0.0,0.0,0.0,0.0
20980000,-0.000547654,-0.0006184336,0.0028349997,0.0,0.0,0.0,0.0
21012000,-0.0007112459,0.003317668,-0.005077161,0.0,0.0,0.0,0.0
21044000,-0.0004681832,0.0015023961,-0.0092808,0.0,0.0,0.0,0.0
21080000,0.0012854703,9.072479e-06,0.0022975479,0.0,0.0,0.0,0.0
21108000,0.0022641975,-0.005615945,-0.008476084,0.0,0.0,0.0,0.0
21140000,-0.0013485732,-0.0019333144,0.001822626,0.0,0.0,0.0,0.0
21172000,-0.0019926853,0.0013879542,0.008356742,0.0,0.0,0.0,0.0
21204000,0.0058457674,-0.00014172494,-0.0085083665,0.0,0.0,0.0,0.0
21240000,-0.0030045314,0.006553101,0.0013826138,0.0,0.0,0.0,0.0
21268000,0.003940346,0.00031035487,0.0044865655,0.0,0.0,0.0,0.0
21300000,-0.0010672206,-0.0006004507,0.0017475984,0.0,0.0,0.0,0.0
21332000,0.0046012443,0.0065176915,-0.002916318,0.0,0.0,0.0,0.0
21364000,0.0066826288,-0.0020608595,-0.008378379,0.0,0.0,0.0,0.0
21396000,-0.0063496092,-0.0006781416,-0.0008599259,0.0,0.0,0.0,0.0
21432000,-0.004624973,-0.0005657985,0.004861822,0.0,0.0,0.0,0.0
21460000,-0.0036846409,-0.0058099967,0.0020915389,0.0,0.0,0.0,0.0
21492000,0.0017543912,-0.0023974162,-0.00162158,0.0,0.0,0.0,0.0
21524000,0.0013264682,-0.0040678363,0.002881124,0.0,0.0,0.0,0.0
21560000,-0.0040802266,-0.007823882,0.00529973,0.0,0.0,0.0,0.0
21588000,-0.0010941307,-0.0044257594,0.001346731,0.0,0.0,0.0,0.0
21620000,0.009209512,-0.0041638734,0.010871184,0.0,0.0,0.0,0.0
21652000,0.0038910685,-0.008944784,0.0039230105,0.0,0.0,0.0,0.0
21684000,-0.0051522106,0.0047064708,0.00019444339,0.0,0.0,0.0,0.0
21716000,0.00054106826,0.004977297,0.011393699,0.0,0.0,0.0,0.0
21748000,-0.0026891085,-0.0035174945,-0.009774831,0.0,0.0,0.0,0.0
21784000,0.0042281216,0.010473847,0.0017749862,0.0,0.0,0.0,0.0
21812000,0.0013118045,0.0060279085,0.0015031071,0.0,0.0,0.0,0.0
21844000,-0.007143452,-0.011954666,-0.0070358925,0.0,0.0,0.0,0.0
21876000,-0.0022665663,-0.005231458,-0.0033600465,0.0,0.0,0.0,0.0
21908000,0.008755794,-0.0022738222,-0.0011119437,0.0,0.0,0.0,0.0
21940000,0.007979121,-0.0031324169,-0.0025926745,0.0,0.0,0.0,0.0
21972000,0.000590794,-0.0076988353,-0.007669487,0.0,0.0,0.0,0.0
22004000,0.00084961136,-0.0033039106,-0.0082155885,0.0,0.0,0.0,0.0
22036000,-5.6343735e-05,0.0010551238,0.009243851,0.0,0.0,0.0,0.0
22068000,0.0073531726,-9.3750656e-05,-0.0024864783,0.0,0.0,0.0,0.0
22104000,0.0112470575,-0.0013954998,0.0057662786,0.0,0.0,0.0,0.0
22132000,0.00090025214,-0.00032660784,0.011659602,0.0,0.0,0.0,0.0
22164000,0.00080058456,0.0070679863,0.001441482,0.0,0.0,0.0,0.0
22196000,0.007131402,0.008588359,-0.0026524474,0.0,0.0,0.0,0.0
22228000,-0.003517467,0.0028651177,-0.009493278,0.0,0.0,0.0,0.0
22260000,0.001988073,-0.0010006563,-0.009319277,0.0,0.0,0.0,0.0
22296000,0.003108786,0.006307621,0.003226885,0.0,0.0,0.0,0.0
22324000,-0.0002110207,-0.0014285538,0.0016559449,0.0,0.0,0.0,0.0
22356000,-0.00887292,0.005377173,0.00042482794,0.0,0.0,0.0,0.0
22392000,0.0024015182,-0.003574323,0.0072911973,0.0,0.0,0.0,0.0
22424000,0.0026593278,0.0076154945,-0.0017267275,0.0,0.0,0.0,0.0
22456000,0.00085271813,0.0015408979,0.0028237638,0.0,0.0,0.0,0.0
22484000,-0.006177101,-0.0014202567,0.0001633579,0.0,0.0,0.0,0.0
22516000,-0.0038215918,0.012672606,0.0028273475,0.0,0.0,0.0,0.0
22548000,0.008122627,-0.014410312,-0.0036250856,0.0,0.0,0.0,0.0
22580000,-2.846599e-05,0.0051652347,0.002182236,0.0,0.0,0.0,0.0
22616000,0.0015099351,0.008526087,-0.0022157265,0.0,0.0,0.0,0.0
22644000,-0.006821189,-0.0039126566,-0.004210129,0.0,0.0,0.0,0.0
22680000,0.008867645,-0.004950365,0.0050110216,0.0,0.0,0.0,0.0
22708000,-0.0073908754,0.0009148801,-0.0019643893,0.0,0.0,0.0,0.0
22744000,-0.004967925,-0.0051478436,0.006963318,0.0,0.0,0.0,0.0
22772000,0.002750527,-0.001737141,-0.0026548547,0.0,0.0,0.0,0.0
22804000,0.0024717913,0.0029562726,-0.004966522,0.0,0.0,0.0,0.0
22836000,0.007087013,-0.0059488323,0.00070641737,0.0,0.0,0.0,0.0
22868000,-0.00031690986,0.00025430694,-0.013809628,0.0,0.0,0.0,0.0
22900000,-0.00077782664,-0.00036913063,-0.005405723,0.0,0.0,0.0,0.0
22932000,-0.0070223934,-0.002383083,0.008635857,0.0,0.0,0.0,0.0
22968000,0.00072251057,-0.0007868204,-8.586369e-05,0.0,0.0,0.0,0.0
22996000,0.016472558,-0.0039038295,-0.0025686263,0.0,0.0,0.0,0.0
23028000,0.006393278,-0.0093994085,-0.0017616424,0.0,0.0,0.0,0.0
23060000,0.0015503915,-0.008263942,-0.0017785596,0.0,0.0,0.0,0.0
23092000,0.007849796,0.0061667915,-0.0027498698,0.0,0.0,0.0,0.0
23128000,0.002143561,0.006587719,0.0036626926,0.0,0.0,0.0,0.0
23156000,0.0037517333,0.00020471867,-0.010729369,0.0,0.0,0.0,0.0
23188000,-0.00816535,0.00051827496,0.0026992215,0.0,0.0,0.0,0.0
23220000,-0.004136058,0.009756408,-0.00024737572,0.0,0.0,0.0,0.0
23252000,-0.0054293885,0.012073139,-0.009396833,0.0,0.0,0.0,0.0
23284000,-0.0032765528,0.0031588792,0.00326946,0.0,0.0,0.0,0.0
23316000,0.0108769955,-0.0015713181,0.004094824,0.0,0.0,0.0,0.0
23352000,-0.0067920005,-0.009607139,0.0041161655,0.0,0.0,0.0,0.0
23380000,0.001229789,0.0017314777,0.004125668,0.0,0.0,0.0,0.0
23412000,0.0074361274,0.0008911928,-0.0029226542,0.0,0.0,0.0,0.0
23444000,0.004975117,-0.0073622256,-2.8104982e-05,0.0,0.0,0.0,0.0
23476000,-0.0019250871,-0.0071963766,-0.009423176,0.0,0.0,0.0,0.0
23508000,-0.00633547,0.0056048334,-0.0043303682,0.0,0.0,0.0,0.0
23540000,0.00047942303,-0.0016807984,-0.00013655398,0.0,0.0,0.0,0.0
23572000,-0.0053856466,0.0034620152,0.0027511453,0.0,0.0,0.0,0.0
23604000,0.0020199304,-0.0045130677,-0.000933473,0.0,0.0,0.0,0.0
23636000,-0.004775653,0.0015642005,0.006924442,0.0,0.0,0.0,0.0
23668000,0.0014679926,-0.00033312524,-0.0028650083,0.0,0.0,0.0,0.0
23700000,-0.003914168,0.00028531067,-0.005901904,0.0,0.0,0.0,0.0
23732000,-0.0067289965,-0.008445188,-0.0030858757,0.0,0.0,0.0,0.0
23764000,0.0009080253,0.0063104806,-0.00010720102,0.0,0.0,0.0,0.0
23796000,0.008074225,-0.00036366656,0.008698725,0.0,0.0,0.0,0.0
23832000,0.00031051156,-0.0001918287,-0.0033080394,0.0,0.0,0.0,0.0
23864000,-0.0026363046,-0.01644237,-0.004627549,0.0,0.0,0.0,0.0
23892000,-0.0049387314,0.0015065311,0.00072925526,0.0,0.0,0.0,0.0
23928000,0.007026294,0.0031934904,-0.00029122288,0.0,0.0,0.0,0.0
23960000,-0.00077383185,2.8684735e-06,0.0014669119,0.0,0.0,0.0,0.0
23988000,-0.003507881,0.0067516323,0.0029281455,0.0,0.0,0.0,0.0
24020000,0.0046892664,-0.0052939034,0.004507407,0.0,0.0,0.0,0.0
24052000,-0.0042840177,0.0020113518,0.0045113,0.0,0.0,0.0,0.0
24084000,0.003327802,0.0028982796,0.011882584,0.0,0.0,0.0,0.0
24116000,0.0042730845,-0.003998773,-0.0034010464,0.0,0.0,0.0,0.0
24148000,-0.0075873313,-0.0001365128,-0.011765315,0.0,0.0,0.0,0.0
24184000,-0.0033106334,-0.0020146212,0.006439806,0.0,0.0,0.0,0.0
24212000,0.004773924,-0.00032348,0.007076177,0.0,0.0,0.0,0.0
24248000,-0.005000053,-0.0042494102,-0.0039954763,0.0,0.0,0.0,0.0
24276000,0.003588133,-0.00036373734,0.001452167,0.0,0.0,0.0,0.0
24312000,-0.001228927,0.0020381846,0.0007948729,0.0,0.0,0.0,0.0
24340000,0.0034729515,-0.001951417,0.0027193965,0.0,0.0,0.0,0.0
24372000,-0.0064432295,0.006127612,0.001874879,0.0,0.0,0.0,0.0
24408000,0.002310405,-0.0035020807,0.00038727417,0.0,0.0,0.0,0.0
24436000,0.001703979,-0.0022038636,-0.008083696,0.0,0.0,0.0,0.0
24468000,-0.0036713467,0.007851144,0.0044931364,0.0,0.0,0.0,0.0
24504000,0.0041416483,-0.0011435547,-0.0018208212,0.0,0.0,0.0,0.0
24532000,0.005782157,-0.0041863504,0.0026289676,0.0,0.0,0.0,0.0
24564000,-0.00034238223,-0.0008258694,0.0009426352,0.0,0.0,0.0,0.0
24600000,-0.0046570823,-0.012916103,0.0067668413,0.0,0.0,0.0,0.0
24628000,-0.0019592708,-0.003900337,0.008091675,0.0,0.0,0.0,0.0
24660000,-0.00050257414,-0.007707176,0.0046268245,0.0,0.0,0.0,0.0
24696000,0.0025006603,0.004443977,-3.09924e-05,0.0,0.0,0.0,0.0
24724000,-0.0035065904,0.0064431475,-0.003539695,0.0,0.0,0.0,0.0
24756000,0.0020253172,-0.004945276,0.0013036673,0.0,0.0,0.0,0.0
24792000,0.00056843867,-0.0025887624,-0.0075826095,0.0,0.0,0.0,0.0
24820000,0.0035878527,-0.001364978,-0.011816557,0.0,0.0,0.0,0.0
24852000,0.0015865151,-0.00757096,-0.009514012,0.0,0.0,0.0,0.0
24884000,-0.008311497,-0.0076605836,0.0028368195,0.0,0.0,0.0,0.0
24916000,-0.00069080526,0.0067558,0.0015204299,0.0,0.0,0.0,0.0
24952000,0.005322316,-0.012991462,0.009361572,0.0,0.0,0.0,0.0
24984000,-0.0052027935,-0.0039062533,0.006426601,0.0,0.0,0.0,0.0
25012000,-0.0032826737,0.0027306718,0.0007325641,0.0,0.0,0.0,0.0
25044000,-0.0018823892,0.004346729,-0.004786784,0.0,0.0,0.0,0.0
25080000,-0.0016805152,-0.0038533648,0.007773085,0.0,0.0,0.0,0.0
25112000,-0.0023446688,-0.005204129,0.0011821695,0.0,0.0,0.0,0.0
25144000,0.003587919,0.0041677197,0.0130994655,0.0,0.0,0.0,0.0
25172000,-0.0028935042,-0.0057907063,0.0060307216,0.0,0.0,0.0,0.0
25204000,-0.003791586,0.0022852975,-0.007525832,0.0,0.0,0.0,0.0
25236000,-0.0039872956,-0.0041045155,-0.0016156799,0.0,0.0,0.0,0.0
25268000,0.010713374,0.001004972,0.0016817815,0.0,0.0,0.0,0.0
25304000,0.00863676,-0.006329153,-0.0028103488,0.0,0.0,0.0,0.0
25332000,-0.008067138,-0.0035675056,0.0027134987,0.0,0.0,0.0,0.0
25364000,0.0013437956,-0.00044888025,0.0014773814,0.0,0.0,0.0,0.0
25396000,-0.0018573608,0.0019284487,-0.005995753,0.0,0.0,0.0,0.0
25432000,0.015924864,0.00027172687,-0.00134004,0.0,0.0,0.0,0.0
25460000,-0.001335877,-0.004738797,0.0032328537,0.0,0.0,0.0,0.0
25492000,-0.013989703,0.008454807,0.0087599605,0.0,0.0,0.0,0.0
25528000,-0.0007997999,-6.988365e-05,0.0056289323,0.0,0.0,0.0,0.0
25556000,0.009091588,-0.005871658,-0.0016466228,0.0,0.0,0.0,0.0
25592000,0.009460928,0.005919495,-0.003469356,0.0,0.0,0.0,0.0
25624000,-0.005293602,-0.0030641276,0.0019825404,0.0,0.0,0.0,0.0
25652000,0.00057646504,-0.0042193467,0.0027375247,0.0,0.0,0.0,0.0
25684000,0.00027112453,0.0071303393,0.0033326643,0.0,0.0,0.0,0.0
25716000,0.01078802,-0.0010851338,-0.0015863942,0.0,0.0,0.0,0.0
25748000,-0.0064667524,0.007256426,-0.0050618486,0.0,0.0,0.0,0.0
25780000,0.0003636295,0.0021753788,-0.0044114757,0.0,0.0,0.0,0.0
25812000,-0.005043733,0.002531409,-0.0037696147,0.0,0.0,0.0,0.0
25844000,0.0033288682,-0.004413601,0.003244937,0.0,0.0,0.0,0.0
25876000,0.006390719,0.009179932,-0.000215662,0.0,0.0,0.0,0.0
25908000,-0.00014154182,0.00670496,-0.0021857598,0.0,0.0,0.0,0.0
25944000,-0.0035105038,-0.0040725158,0.0038440987,0.0,0.0,0.0,0.0
25972000,-0.005209093,-0.007832842,-0.00027130247,0.0,0.0,0.0,0.0
26004000,0.000587843,0.0048974482,-0.012994954,0.0,0.0,0.0,0.0
26036000,0.0053042695,0.0008848929,-0.002887044,0.0,0.0,0.0,0.0
26072000,-0.0027248366,-0.0046242224,0.002215605,0.0,0.0,0.0,0.0
26104000,-0.0006501273,0.0015785708,-0.0039720307,0.0,0.0,0.0,0.0
26132000,-0.0032759905,0.0027786521,0.0014792104,0.0,0.0,0.0,0.0
26164000,-0.00075697014,-0.0064535392,0.0040347334,0.0,0.0,0.0,0.0
26200000,-0.005042604,-0.0057843253,0.002747508,0.0,0.0,0.0,0.0
26228000,-0.0017576993,0.0072546527,0.00038750257,0.0,0.0,0.0,0.0
26264000,0.0075026006,0.00388038,-0.01664441,0.0,0.0,0.0,0.0
26292000,0.011359628,-0.005137643,0.0015584957,0.0,0.0,0.0,0.0
26324000,-0.001200386,0.0005175546,4.6746536e-06,0.0,0.0,0.0,0.0
26356000,-0.006285366,-0.005639701,0.00090526853,0.0,0.0,0.0,0.0
26388000,0.00012004073,0.006891852,-0.0068106446,0.0,0.0,0.0,0.0
26420000,-0.0015725878,0.008338919,-0.004516685,0.0,0.0,0.0,0.0
26456000,0.0005449691,0.0063874815,0.0035267472,0.0,0.0,0.0,0.0
26488000,0.000830112,-0.006388279,-0.005486682,0.0,0.0,0.0,0.0
26516000,-0.0035637901,-0.011528952,0.00069854,0.0,0.0,0.0,0.0
26552000,-0.0014598536,0.0034216596,-0.0014703941,0.0,0.0,0.0,0.0
26580000,0.0012567589,-0.0015070639,0.0040905983,0.0,0.0,0.0,0.0
26612000,0.005001354,0.0011453279,-0.0063458756,0.0,0.0,0.0,0.0
26644000,-0.0027501169,0.005924437,0.0031368139,0.0,0.0,0.0,0.0
26676000,-0.0071901917,-0.004241956,0.0036957953,0.0,0.0,0.0,0.0
26708000,3.82883e-05,0.0061770184,-0.0027609037,0.0,0.0,0.0,0.0
26744000,0.0014274666,-0.0030675903,0.00031433918,0.0,0.0,0.0,0.0
26776000,0.0051067653,0.0002469211,0.0037178604,0.0,0.0,0.0,0.0
26804000,0.0024016406,-0.0036468897,-0.003004381,0.0,0.0,0.0,0.0
26840000,0.0015749654,-0.004416445,0.0026808532,0.0,0.0,0.0,0.0
26868000,0.010672355,-0.004285306,0.007413017,0.0,0.0,0.0,0.0
26900000,0.0013584656,-0.0036497228,0.0070866854,0.0,0.0,0.0,0.0
26932000,-0.0022913923,-0.010201503,-0.005824491,0.0,0.0,0.0,0.0
26964000,0.008419794,-0.0043924134,0.0044856155,0.0,0.0,0.0,0.0
26996000,-0.0030049633,0.0017508715,-0.005398881,0.0,0.0,0.0,0.0
27028000,0.0016720642,-0.0051147738,-0.0028055173,0.0,0.0,0.0,0.0
27060000,-0.0032704694,0.00041100802,-0.0012062363,0.0,0.0,0.0,0.0
27092000,0.0020292066,-0.0034462651,-0.0028650246,0.0,0.0,0.0,0.0
27124000,0.0016821282,-0.012799345,0.014401093,0.0,0.0,0.0,0.0
27160000,-0.00862605,-0.0017283745,-0.007677271,0.0,0.0,0.0,0.0
27192000,-0.006370092,-0.008422696,0.0092969,0.0,0.0,0.0,0.0
27220000,-0.0041361665,0.0054661892,0.0018814924,0.0,0.0,0.0,0.0
27256000,-0.005724965,-0.0033145305,0.0076242504,0.0,0.0,0.0,0.0
27284000,-3.8358965e-05,-0.0017136456,-0.0073724594,0.0,0.0,0.0,0.0
27316000,-0.0044258996,-0.005834685,-0.0010659654,0.0,0.0,0.0,0.0
27348000,0.0023824116,0.0055901874,-0.00021807585,0.0,0.0,0.0,0.0
27380000,0.011505878,-0.004237333,-0.00077660225,0.0,0.0,0.0,0.0
27416000,0.003933343,0.0023390064,-0.006197411,0.0,0.0,0.0,0.0
27444000,-0.0057341023,0.0009510941,0.0031479285,0.0,0.0,0.0,0.0
27476000,-0.007264509,-0.0023475103,0.0070542907,0.0,0.0,0.0,0.0
27508000,0.005283082,-0.009118353,0.002995334,0.0,0.0,0.0,0.0
27540000,-0.007241591,-0.0023722965,0.0076530227,0.0,0.0,0.0,0.0
27572000,-0.0034384157,0.004651889,0.0110584255,0.0,0.0,0.0,0.0
27604000,-0.0045465995,-7.2502065e-05,0.001207969,0.0,0.0,0.0,0.0
27636000,-0.00064719084,-0.003019773,-0.0058425087,0.0,0.0,0.0,0.0
27672000,-0.0009380713,-0.00051365467,0.0026768565,0.0,0.0,0.0,0.0
27700000,0.0005925796,-0.0027665934,0.0027753124,0.0,0.0,0.0,0.0
27736000,0.0032463144,-0.004154216,-0.008949894,0.0,0.0,0.0,0.0
27764000,0.008419574,0.0018747817,0.006745991,0.0,0.0,0.0,0.0
27796000,0.0035771332,0.005734508,-0.0016080417,0.0,0.0,0.0,0.0
27828000,0.004365099,0.0067710658,0.0035222783,0.0,0.0,0.0,0.0
27860000,0.007889114,-0.008337373,-0.00084628945,0.0,0.0,0.0,0.0
27892000,0.004863154,-0.0056667486,-0.002799182,0.0,0.0,0.0,0.0
27924000,-0.004542404,0.006917065,0.0075740893,0.0,0.0,0.0,0.0
27960000,-0.00011728599,-0.005476363,0.0013349396,0.0,0.0,0.0,0.0
27988000,0.002517924,-0.0029993914,0.005379246,0.0,0.0,0.0,0.0
28020000,-0.0025825424,-0.001608036,-0.00583823,0.0,0.0,0.0,0.0
28052000,-0.0053504873,-0.0006513903,-0.0067406273,0.0,0.0,0.0,0.0
28084000,-0.00617967,-0.0024643564,0.0050295843,0.0,0.0,0.0,0.0
28116000,-0.018347194,0.008882412,0.0011338502,0.0,0.0,0.0,0.0
28148000,0.0053860247,0.013168098,-0.002059383,0.0,0.0,0.0,0.0
28180000,0.0010962792,0.0032797486,-0.0005928753,0.0,0.0,0.0,0.0
28212000,0.007964345,-0.0060185157,-0.00057077553,0.0,0.0,0.0,0.0
28244000,0.00998234,-0.0007488895,0.00775806,0.0,0.0,0.0,0.0
28276000,-0.005454593,0.0032572534,0.000885512,0.0,0.0,0.0,0.0
28308000,0.009086018,0.00042005954,0.0092191445,0.0,0.0,0.0,0.0
28344000,0.006113032,0.0025457644,-0.002668209,0.0,0.0,0.0,0.0
28372000,0.0057360195,-0.004666481,-0.009927752,0.0,0.0,0.0,0.0
28404000,0.0029239182,0.0021470792,0.0037684902,0.0,0.0,0.0,0.0
28436000,-0.00036313653,0.0045677507,-0.0073660393,0.0,0.0,0.0,0.0
28472000,-0.0051471316,0.0039910893,0.007320335,0.0,0.0,0.0,0.0
28500000,0.00034201995,0.001099511,-0.0014914107,0.0,0.0,0.0,0.0
28532000,-0.0021883335,0.0028548192,-0.005910903,0.0,0.0,0.0,0.0
28564000,0.005216148,-0.0043366314,0.003894691,0.0,0.0,0.0,0.0
28596000,0.000529817,-0.0032557705,-0.0035085853,0.0,0.0,0.0,0.0
28632000,0.0053676916,-0.003966978,-0.0074831364,0.0,0.0,0.0,0.0
28660000,0.0011007017,0.003504653,0.007136446,0.0,0.0,0.0,0.0
28692000,-0.009055976,0.0018762159,-0.0009304278,0.0,0.0,0.0,0.0
28724000,-0.005990858,-0.008710107,0.00225532,0.0,0.0,0.0,0.0
28756000,0.006703634,0.001128864,-0.00090100756,0.0,0.0,0.0,0.0
28788000,0.003730997,-1.0905322e-05,0.0029821303,0.0,0.0,0.0,0.0
28820000,-0.0008534889,-0.004360685,0.007770254,0.0,0.0,0.0,0.0
28852000,0.0038857087,-0.0023869271,-0.005665419,0.0,0.0,0.0,0.0
28884000,-0.0067777587,-0.00068710046,0.0048891823,0.0,0.0,0.0,0.0
28916000,-0.0010362735,0.0008031083,0.01206479,0.0,0.0,0.0,0.0
28948000,0.0010829541,-0.0014250125,0.010787702,0.0,0.0,0.0,0.0
28984000,0.0062261513,-0.011061476,-0.002583514,0.0,0.0,0.0,0.0
29012000,0.006763528,-0.00087630656,-0.002823357,0.0,0.0,0.0,0.0
29044000,-0.0011542521,0.007978385,-0.0042878855,0.0,0.0,0.0,0.0
29076000,-0.0061935373,0.00073272083,-0.0015542759,0.0,0.0,0.0,0.0
29112000,0.008860187,0.0038349899,-0.008590754,0.0,0.0,0.0,0.0
29140000,-0.0013538416,-0.0027699494,-0.0006459523,0.0,0.0,0.0,0.0
29172000,0.0031436328,-0.0009962814,0.0025867166,0.0,0.0,0.0,0.0
29208000,-0.0024603773,-0.0071728043,0.006585716,0.0,0.0,0.0,0.0
29236000,0.0054420503,0.010934553,-0.0041442243,0.0,0.0,0.0,0.0
29268000,-0.0011591285,-0.0033450373,0.0011093939,0.0,0.0,0.0,0.0
29300000,0.009266641,-0.0049363235,0.0028984644,0.0,0.0,0.0,0.0
29332000,-0.00084246753,-0.009277725,0.0049418504,0.0,0.0,0.0,0.0
29368000,7.504353e-05,0.0016084481,-0.0031688437,0.0,0.0,0.0,0.0
29396000,-0.0036359546,-0.001503644,0.0015347032,0.0,0.0,0.0,0.0
29428000,-0.002573736,0.0012912392,-0.008915371,0.0,0.0,0.0,0.0
29460000,0.0008493862,0.004747104,0.0029006726,0.0,0.0,0.0,0.0
29496000,-0.0059387516,-0.0021413616,-0.011551528,0.0,0.0,0.0,0.0
29524000,0.010125185,0.0010113656,-0.005261761,0.0,0.0,0.0,0.0
29556000,-0.00056480267,-0.0062924493,0.0028293582,0.0,0.0,0.0,0.0
29592000,-0.009797394,-0.00051441276,0.0009036598,0.0,0.0,0.0,0.0
29620000,0.0021845184,-0.0031867386,0.007942721,0.0,0.0,0.0,0.0
29652000,-0.00042797695,-0.0033987658,0.004294493,0.0,0.0,0.0,0.0
29684000,-0.010862648,0.006040217,0.0055352435,0.0,0.0,0.0,0.0
29716000,0.002615722,0.008247506,0.0028826774,0.0,0.0,0.0,0.0
29748000,0.015047448,-0.0007656901,0.0024038614,0.0,0.0,0.0,0.0
29780000,-0.0008963633,0.0013128724,0.0007427951,0.0,0.0,0.0,0.0
29812000,-0.002725028,-0.0051209633,0.00964638,0.0,0.0,0.0,0.0
29844000,-0.007614594,-0.003916605,-0.0015465033,0.0,0.0,0.0,0.0
29880000,-0.0135857435,-0.00074908277,-0.0020815372,0.0,0.0,0.0,0.0
29908000,0.0037665656,0.005625779,0.003986695,0.0,0.0,0.0,0.0
29944000,-0.006536535,0.00057871034,-0.003378232,0.0,0.0,0.0,0.0
29976000,9.37063e-05,-0.0041451007,0.0069858944,0.0,0.0,0.0,0.0
30008000,0.0042729797,-0.014985435,0.0055058813,0.0,0.0,0.0,0.0
30036000,0.0063274195,0.0003456804,-0.0050651543,0.0,0.0,0.0,0.0
30072000,0.0053845393,-0.0041732467,0.0035693676,0.0,0.0,0.0,0.0
30104000,0.001196228,0.0014044847,0.008541566,0.0,0.0,0.0,0.0
30132000,0.0036776853,0.01161479,-0.0034365514,0.0,0.0,0.0,0.0
30168000,-0.007222929,0.0040242365,-0.0018551664,0.0,0.0,0.0,0.0
30196000,-0.004833383,0.005591823,-0.0019497491,0.0,0.0,0.0,0.0
30228000,-0.005434472,-0.00093474006,0.0007989872,0.0,0.0,0.0,0.0
30260000,0.008666012,-0.0018115761,0.009510437,0.0,0.0,0.0,0.0
30292000,-0.0065246494,0.008214267,0.0029333327,0.0,0.0,0.0,0.0
30324000,0.006011042,-0.000615634,0.00761032,0.0,0.0,0.0,0.0
30360000,-0.0046436307,0.0046509346,-0.012071123,0.0,0.0,0.0,0.0
30388000,-0.00083173625,0.0015892168,0.0037169252,0.0,0.0,0.0,0.0
30420000,-0.00012369046,0.003948602,-0.00016997114,0.0,0.0,0.0,0.0
30452000,0.0063561653,-0.000397556,-0.0015343359,0.0,0.0,0.0,0.0
30488000,0.0031426735,0.012508236,0.00067305716,0.0,0.0,0.0,0.0
30516000,0.0022312,-0.005822132,-0.0015490821,0.0,0.0,0.0,0.0
30552000,-0.0055451295,-0.009952331,0.00284286,0.0,0.0,0.0,0.0
30580000,0.0011955133,0.0026367593,-0.00619952,0.0,0.0,0.0,0.0
30616000,-0.0070314705,0.00066274265,0.0062440513,0.0,0.0,0.0,0.0
30644000,0.0051637935,-0.01467808,-0.00086033676,0.0,0.0,0.0,0.0
30676000,-0.005855785,0.0052712704,-0.0016056667,0.0,0.0,0.0,0.0
30708000,-0.0078163855,-0.008001924,0.0055887643,0.0,0.0,0.0,0.0
30740000,-0.00036196725,0.01800088,0.003688264,0.0,0.0,0.0,0.0
30772000,-0.0025824828,0.0044015544,-0.005570461,0.0,0.0,0.0,0.0
30804000,0.008313496,-7.557729e-05,0.008052999,0.0,0.0,0.0,0.0
30836000,0.00102113,-0.0021691239,-0.0042833276,0.0,0.0,0.0,0.0
30868000,0.009078329,-0.006967192,0.006647591,0.0,0.0,0.0,0.0
30900000,0.0044778925,-0.00940221,0.00105076,0.0,0.0,0.0,0.0
30936000,-0.011523707,0.0019700055,0.0062063425,0.0,0.0,0.0,0.0
30964000,-0.007744625,-1.0635704e-05,0.0048920186,0.0,0.0,0.0,0.0
30996000,0.0033274035,-0.010698412,0.007980448,0.0,0.0,0.0,0.0
31028000,0.009015589,0.0033404992,-0.0005681867,0.0,0.0,0.0,0.0
31060000,-0.009283034,-0.00070828246,-0.017165108,0.0,0.0,0.0,0.0
31096000,0.0020722114,-0.002956693,0.0058041196,0.0,0.0,0.0,0.0
31128000,-0.0031111985,0.0041918904,0.004168703,0.0,0.0,0.0,0.0
31156000,0.007898462,-0.0052876603,-0.008477952,0.0,0.0,0.0,0.0
31188000,-0.003532419,0.010030214,-0.0059575597,0.0,0.0,0.0,0.0
31220000,0.01332245,0.0037422075,0.005008826,0.0,0.0,0.0,0.0
31252000,-0.0049153795,0.0056712762,-0.0037895425,0.0,0.0,0.0,0.0
31288000,-0.0038345184,0.00085548544,0.005349384,0.0,0.0,0.0,0.0
31316000,0.0001206639,-0.0014258735,-0.0013667337,0.0,0.0,0.0,0.0
31352000,-0.0027588743,0.0014757593,-0.0031287987,0.0,0.0,0.0,0.0
31380000,-0.005587601,-0.0013081506,-0.0039778124,0.0,0.0,0.0,0.0
31412000,0.0018278349,0.0049401843,0.0047252136,0.0,0.0,0.0,0.0
31444000,0.0035362302,-0.005150627,0.0019323616,0.0,0.0,0.0,0.0
31476000,-0.0036539214,0.010713469,-0.0052272994,0.0,0.0,0.0,0.0
31508000,0.004597348,0.00048114778,-0.008537256,0.0,0.0,0.0,0.0
31540000,-0.0012850867,0.0050933524,-0.0055278614,0.0,0.0,0.0,0.0
31576000,-0.0046668253,0.010929393,-0.0052889795,0.0,0.0,0.0,0.0
31604000,0.00036667223,-0.0019692862,-0.004980296,0.0,0.0,0.0,0.0
31636000,-0.010212024,-0.0031182105,-0.0017285629,0.0,0.0,0.0,0.0
31668000,-0.0022449438,-0.005506876,0.00053977396,0.0,0.0,0.0,0.0
31704000,0.0031121532,-0.0007057688,-0.0007842378,0.0,0.0,0.0,0.0
