timestamp,rollspeed,pitchspeed,yawspeed,q[0],q[1],q[2],q[3],delta_q_reset[0],delta_q_reset[1],delta_q_reset[2],delta_q_reset[3],quat_reset_counter
3228000,0.0018986313,0.0013125923,0.005227131,0.97903764,-0.008240083,-0.015964366,0.20288569,0.9789518,0.0045391005,-0.004342241,0.20399503,1
3260000,-0.006147654,-0.012247247,0.0002442181,0.97903264,-0.008257375,-0.016051214,0.2029021,0.9789518,0.0045391005,-0.004342241,0.20399503,1
3292000,-0.003335367,-0.007150121,-0.004318425,0.9790328,-0.008314323,-0.016186038,0.20288827,0.9789518,0.0045391005,-0.004342241,0.20399503,1
3324000,0.0012828279,-0.0008305924,-0.004886313,0.9790307,-0.00833594,-0.016270407,0.20289098,0.9789518,0.0045391005,-0.004342241,0.20399503,1
3356000,-0.0007518466,-0.006823925,0.002901591,0.9790258,-0.008350191,-0.016326604,0.20290987,0.9789518,0.0045391005,-0.004342241,0.20399503,1
3388000,-0.0031412488,-0.00953865,-0.0020738575,0.9790301,-0.0083559565,-0.016477805,0.2028765,0.9789518,0.0045391005,-0.004342241,0.20399503,1
3420000,-0.0005214107,-0.008461757,-0.0037156567,0.97903544,-0.008372989,-0.016579486,0.20284158,0.9789518,0.0045391005,-0.004342241,0.20399503,1
3452000,0.004956603,-0.00857144,0.00076673005,0.9790329,-0.00835178,-0.016730554,0.20284247,0.9789518,0.0045391005,-0.004342241,0.20399503,1
3484000,0.00020732547,-0.0048237825,0.0009419345,0.9790392,-0.008296262,-0.016860195,0.20280342,0.9789518,0.0045391005,-0.004342241,0.20399503,1
3516000,-0.0025149432,-0.00707741,0.00048061952,0.97903824,-0.008293316,-0.017012086,0.20279588,0.9789518,0.0045391005,-0.004342241,0.20399503,1
3548000,-0.005621855,-0.0055599604,-0.0038318478,0.979038,-0.008319722,-0.01707643,0.20278984,0.9789518,0.0045391005,-0.004342241,0.20399503,1
3580000,0.0011214459,-0.009613594,-0.00048341745,0.9790386,-0.008339914,-0.017165434,0.20277868,0.9789518,0.0045391005,-0.004342241,0.20399503,1
3612000,-0.010392974,0.0023149892,-0.0029540784,0.9790368,-0.0083664395,-0.017299311,0.20277485,0.9789518,0.0045391005,-0.004342241,0.20399503,1
3644000,-0.0017280523,-0.0061526294,0.004007261,0.9790292,-0.008369896,-0.017394638,0.20280352,0.9789518,0.0045391005,-0.004342241,0.20399503,1
3680000,-0.004424903,9.103423e-05,0.0058990275,0.9790118,-0.00838741,-0.01750685,0.20287737,0.9789518,0.0045391005,-0.004342241,0.20399503,1
3708000,0.0014817828,-0.008916668,0.0036054417,0.9790075,-0.0083733965,-0.017591696,0.2028913,0.9789518,0.0045391005,-0.004342241,0.20399503,1
3740000,0.0005373396,0.002438072,0.005144819,0.9789951,-0.008309364,-0.017694268,0.20294438,0.9789518,0.0045391005,-0.004342241,0.20399503,1
3772000,-0.00016029029,-0.0052034785,-0.00143379,0.9789948,-0.008320919,-0.017804032,0.20293605,0.9789518,0.0045391005,-0.004342241,0.20399503,1
3808000,-0.0019281998,-0.005365706,0.002213213,0.97899705,-0.008325522,-0.017931068,0.20291339,0.9789518,0.0045391005,-0.004342241,0.20399503,1
3836000,0.0074616103,-0.005274732,-0.002167948,0.9789971,-0.008322153,-0.018003944,0.20290712,0.9789518,0.0045391005,-0.004342241,0.20399503,1
3868000,-0.0054220497,-0.006813367,-0.009353563,0.9790095,-0.008325099,-0.01812027,0.20283724,0.9789518,0.0045391005,-0.004342241,0.20399503,1
3904000,-0.0038884662,-0.009563792,0.0017319638,0.9790166,-0.008411933,-0.018206067,0.20279166,0.9789518,0.0045391005,-0.004342241,0.20399503,1
3932000,-0.001032213,-0.0037788637,0.0041582496,0.9790202,-0.008435093,-0.018264316,0.20276788,0.9789518,0.0045391005,-0.004342241,0.20399503,1
3964000,0.0018118254,-0.008007229,-0.00012552511,0.97902274,-0.0084320735,-0.018367525,0.20274629,0.9789518,0.0045391005,-0.004342241,0.20399503,1
3996000,0.0005840746,-0.003337111,-0.0013878591,0.9790244,-0.008457987,-0.018447783,0.20273015,0.9789518,0.0045391005,-0.004342241,0.20399503,1
4031999,0.0014013255,-0.0070477193,-0.0014893954,0.9790284,-0.008442295,-0.018544063,0.20270209,0.9789518,0.0045391005,-0.004342241,0.20399503,1
4060000,-0.0070472653,-0.009685708,0.0018100087,0.9790422,-0.008447408,-0.018613352,0.20262952,0.9789518,0.0045391005,-0.004342241,0.20399503,1
4092000,-0.002095147,-0.005174896,-0.005359761,0.9790524,-0.008392845,-0.0187091,0.20257315,0.9789518,0.0045391005,-0.004342241,0.20399503,1
4124000,0.00486069,-0.0057541966,-0.00033913934,0.9790591,-0.008369097,-0.018794961,0.20253389,0.9789518,0.0045391005,-0.004342241,0.20399503,1
4156000,0.00024237877,-0.009497304,-0.0031366155,0.97907066,-0.008339914,-0.01890967,0.2024687,0.9789518,0.0045391005,-0.004342241,0.20399503,1
4188000,-0.004895382,-0.0047383835,-0.003739211,0.97908413,-0.008373142,-0.018967044,0.2023967,0.9789518,0.0045391005,-0.004342241,0.20399503,1
4220000,-0.0025479435,-0.009388964,0.0046646344,0.9790871,-0.008401861,-0.019058624,0.20237257,0.9789518,0.0045391005,-0.004342241,0.20399503,1
4256000,-0.003195987,-0.003721549,-0.0007293504,0.9790891,-0.008422078,-0.019157274,0.20235288,0.9789518,0.0045391005,-0.004342241,0.20399503,1
4284000,-0.00089554186,-0.0054604737,0.0037785375,0.979097,-0.008414433,-0.019194566,0.20231141,0.9789518,0.0045391005,-0.004342241,0.20399503,1
4316000,-0.000353557,-0.0075380066,0.0024354255,0.97909623,-0.008389511,-0.019224336,0.20231332,0.9789518,0.0045391005,-0.004342241,0.20399503,1
4348000,-0.00095557765,-0.003923268,0.0031821816,0.97908074,-0.008389188,-0.019311862,0.20237994,0.9789518,0.0045391005,-0.004342241,0.20399503,1
4384000,0.0003375475,-0.013941318,0.0076396903,0.9790637,-0.0083929775,-0.019421315,0.20245184,0.9789518,0.0045391005,-0.004342241,0.20399503,1
4412000,-0.0019236014,-0.0073479265,0.0014689848,0.9790637,-0.008399536,-0.019476468,0.20244637,0.9789518,0.0045391005,-0.004342241,0.20399503,1
4444000,-0.0003372908,-0.0111177275,-0.0027269912,0.97905177,-0.008372593,-0.01957865,0.20249505,0.9789518,0.0045391005,-0.004342241,0.20399503,1
4476000,-0.003971464,-0.0016018855,-0.004240607,0.9790463,-0.008427474,-0.019625068,0.20251466,0.9789518,0.0045391005,-0.004342241,0.20399503,1
4508000,-0.005318913,-0.0045046853,0.0007479302,0.97905225,-0.008432656,-0.019649923,0.2024835,0.9789518,0.0045391005,-0.004342241,0.20399503,1
4540000,-0.0016485348,0.0020559493,0.0041771703,0.9790372,-0.008448542,-0.019675035,0.20255275,0.9789518,0.0045391005,-0.004342241,0.20399503,1
4572000,0.0024913829,-0.009641406,0.00091293355,0.97904015,-0.008432284,-0.01968608,0.20253868,0.9789518,0.0045391005,-0.004342241,0.20399503,1
4604000,0.0041462835,-0.009814912,-0.00086969417,0.9790429,-0.008351747,-0.01969734,0.20252748,0.9789518,0.0045391005,-0.004342241,0.20399503,1
4636000,0.0039690803,-0.001767064,0.0006497488,0.97904664,-0.008308018,-0.019733116,0.20250773,0.9789518,0.0045391005,-0.004342241,0.20399503,1
4668000,0.0038355507,-0.0030991945,-0.005792956,0.97904474,-0.008243514,-0.019737346,0.2025191,0.9789518,0.0045391005,-0.004342241,0.20399503,1
4700000,0.004493746,-0.0032483737,0.003447849,0.97903574,-0.008225516,-0.019768633,0.20256023,0.9789518,0.0045391005,-0.004342241,0.20399503,1
4732000,-0.0039049364,-0.003796221,-0.007121351,0.9790351,-0.008168704,-0.019807816,0.20256181,0.9789518,0.0045391005,-0.004342241,0.20399503,1
4764000,0.0039981976,-0.010494025,0.0068311654,0.97903335,-0.008184444,-0.01979224,0.20257115,0.9789518,0.0045391005,-0.004342241,0.20399503,1
4796000,0.00034526477,-0.0011796317,0.0024607182,0.97902334,-0.008193457,-0.019794576,0.20261888,0.9789518,0.0045391005,-0.004342241,0.20399503,1
4828000,0.0062914677,-0.0055879406,-0.003820235,0.9790286,-0.008158049,-0.019774798,0.2025969,0.9789518,0.0045391005,-0.004342241,0.20399503,1
4860000,0.0014059389,-0.004561062,0.0005932809,0.9790256,-0.008138986,-0.019741079,0.2026154,0.9789518,0.0045391005,-0.004342241,0.20399503,1
4892000,0.0021720277,-0.007539831,0.0019509654,0.97902733,-0.008103876,-0.019768713,0.20260558,0.9789518,0.0045391005,-0.004342241,0.20399503,1
4924000,-0.006381923,-0.002538545,-0.0044242917,0.97902435,-0.008121944,-0.019753847,0.20262069,0.9789518,0.0045391005,-0.004342241,0.20399503,1
4956000,-0.0018601292,-0.003279347,-0.005426345,0.9790234,-0.008131597,-0.019755408,0.20262505,0.9789518,0.0045391005,-0.004342241,0.20399503,1
4988000,-0.001180507,-0.0087229675,0.0017032119,0.9790054,-0.008115644,-0.019802919,0.20270784,0.9789518,0.0045391005,-0.004342241,0.20399503,1
5020000,0.0020298786,-0.005828416,-0.0032103995,0.979005,-0.008102966,-0.019830167,0.20270768,0.9789518,0.0045391005,-0.004342241,0.20399503,1
5052000,-0.0013055222,0.0037064734,0.0033414322,0.97898483,-0.0081279855,-0.019831644,0.20280373,0.9789518,0.0045391005,-0.004342241,0.20399503,1
5084000,-0.0026369933,-0.0041760276,-0.0099432375,0.9789804,-0.008057739,-0.019855749,0.20282565,0.9789518,0.0045391005,-0.004342241,0.20399503,1
5116000,0.001150867,-0.002372065,-0.0074519524,0.9789835,-0.008019867,-0.019840786,0.20281343,0.9789518,0.0045391005,-0.004342241,0.20399503,1
5148000,-0.00972541,-0.013891147,0.01327417,0.97895694,-0.008017426,-0.019842712,0.20294146,0.9789518,0.0045391005,-0.004342241,0.20399503,1
5180000,0.0037087605,-0.0048690042,-0.0033625837,0.9789498,-0.007978679,-0.01985357,0.20297693,0.9789518,0.0045391005,-0.004342241,0.20399503,1
5212000,0.0040502427,-0.0030656676,8.687549e-05,0.97893745,-0.007949962,-0.01986319,0.20303656,0.9789518,0.0045391005,-0.004342241,0.20399503,1
5244000,-0.0024725695,-0.0026838658,0.0018076043,0.97893447,-0.007924509,-0.01985421,0.20305295,0.9789518,0.0045391005,-0.004342241,0.20399503,1
5280000,0.0011781477,-0.0072889063,-0.0039112684,0.9789265,-0.007960754,-0.019866118,0.20308886,0.9789518,0.0045391005,-0.004342241,0.20399503,1
5308000,-0.004590547,-0.0016624626,0.0070646033,0.97892326,-0.007969059,-0.019823816,0.20310801,0.9789518,0.0045391005,-0.004342241,0.20399503,1
5340000,0.0022918393,-0.0017496373,0.0060802833,0.97892,-0.007936479,-0.01978777,0.20312867,0.9789518,0.0045391005,-0.004342241,0.20399503,1
5372000,-0.0048634303,-0.0044403356,0.002196725,0.9789182,-0.00790938,-0.019732596,0.20314361,0.9789518,0.0045391005,-0.004342241,0.20399503,1
5404000,-0.00025282882,-0.0042485893,-0.00023182415,0.978913,-0.007906959,-0.019752093,0.20316674,0.9789518,0.0045391005,-0.004342241,0.20399503,1
5440000,-0.0075941933,-0.0009347028,-0.0024439697,0.9789228,-0.007942238,-0.019725138,0.20312117,0.9789518,0.0045391005,-0.004342241,0.20399503,1
5468000,-0.0054898676,-0.0004787863,0.0029617166,0.9789206,-0.007959531,-0.01970676,0.20313302,0.9789518,0.0045391005,-0.004342241,0.20399503,1
5504000,-0.0013781328,-0.0032358472,-0.0052684443,0.9789201,-0.007977196,-0.019620918,0.20314263,0.9789518,0.0045391005,-0.004342241,0.20399503,1
5532000,-0.0031822037,-0.005196796,-0.0008138881,0.9789171,-0.007987956,-0.01964011,0.20315427,0.9789518,0.0045391005,-0.004342241,0.20399503,1
5564000,-0.0024106093,-0.0059494553,-0.0025321585,0.9789115,-0.0079850545,-0.019620031,0.20318362,0.9789518,0.0045391005,-0.004342241,0.20399503,1
5596000,-0.0049012243,-0.003925523,-8.2034516e-05,0.97890073,-0.008006281,-0.01962815,0.20323405,0.9789518,0.0045391005,-0.004342241,0.20399503,1
5628000,0.0040128445,-0.0144794425,-0.0021464722,0.9788989,-0.007985916,-0.019621195,0.20324409,0.9789518,0.0045391005,-0.004342241,0.20399503,1
5660000,0.0015639353,-0.007663489,-0.007365726,0.978901,-0.007916212,-0.019649114,0.20323414,0.9789518,0.0045391005,-0.004342241,0.20399503,1
5692000,-0.00013019977,-0.0011503412,-0.0006667763,0.9788917,-0.007901768,-0.019605478,0.2032836,0.9789518,0.0045391005,-0.004342241,0.20399503,1
5724000,0.0004417207,-0.0010435614,0.001905869,0.97888744,-0.007884811,-0.019552657,0.20330983,0.9789518,0.0045391005,-0.004342241,0.20399503,1
5756000,-0.009056266,-0.005044327,0.003301641,0.97888106,-0.007927635,-0.019539086,0.20334043,0.9789518,0.0045391005,-0.004342241,0.20399503,1
5792000,0.0012037413,-0.0012003647,0.0008366807,0.9788715,-0.007934012,-0.019502938,0.20338948,0.9789518,0.0045391005,-0.004342241,0.20399503,1
5820000,0.0018015117,-0.00193116,0.0033227862,0.97886753,-0.007919014,-0.019500913,0.20340979,0.9789518,0.0045391005,-0.004342241,0.20399503,1
5852000,0.00083366694,-0.0010366542,0.004985899,0.978852,-0.007888492,-0.019472927,0.20348808,0.9789518,0.0045391005,-0.004342241,0.20399503,1
5884000,-0.00075282797,-0.010756653,-0.00588676,0.9788597,-0.007901655,-0.019473357,0.20345062,0.9789518,0.0045391005,-0.004342241,0.20399503,1
5916000,-0.004000722,0.0016257169,0.0038324448,0.9788656,-0.007872875,-0.019443054,0.20342638,0.9789518,0.0045391005,-0.004342241,0.20399503,1
5948000,0.00072378246,0.0009568399,-0.0062653883,0.978874,-0.00789456,-0.019375283,0.20339124,0.9789518,0.0045391005,-0.004342241,0.20399503,1
5984000,0.0038636678,-0.0071470654,-0.014232671,0.97888494,-0.007852672,-0.019349543,0.20334277,0.9789518,0.0045391005,-0.004342241,0.20399503,1
6012000,0.0016310879,-0.0067634406,0.009339787,0.9788831,-0.007809623,-0.019364657,0.20335166,0.9789518,0.0045391005,-0.004342241,0.20399503,1
6048000,0.006483523,-0.003915932,0.0002764224,0.97888553,-0.0077516604,-0.019293724,0.20334898,0.9789518,0.0045391005,-0.004342241,0.20399503,1
6080000,-0.00021092535,0.0005812049,-0.0019967188,0.9788756,-0.007686923,-0.019307915,0.20339821,0.9789518,0.0045391005,-0.004342241,0.20399503,1
6108000,-0.0004623591,-0.007058328,0.0060045784,0.9788676,-0.007687736,-0.019300528,0.20343706,0.9789518,0.0045391005,-0.004342241,0.20399503,1
6144000,-0.0034166637,0.0031518445,0.0034137173,0.97886676,-0.0076666162,-0.01928437,0.20344329,0.9789518,0.0045391005,-0.004342241,0.20399503,1
6172000,-0.002176281,0.00030212174,0.00089018967,0.9788609,-0.0076452843,-0.019238822,0.20347661,0.9789518,0.0045391005,-0.004342241,0.20399503,1
6204000,-0.0010461941,-0.0108141955,-0.0025304358,0.97886556,-0.007616876,-0.019245699,0.20345485,0.9789518,0.0045391005,-0.004342241,0.20399503,1
6236000,-0.0018560687,-0.002115573,-0.0032342332,0.97887254,-0.0075761373,-0.019179972,0.203429,0.9789518,0.0045391005,-0.004342241,0.20399503,1
6268000,0.0025965048,-0.00054956134,-0.00038913236,0.9788654,-0.0075817197,-0.01909497,0.20347121,0.9789518,0.0045391005,-0.004342241,0.20399503,1
6300000,0.0005349007,3.126799e-05,-0.0027778347,0.9788757,-0.0075666434,-0.019056432,0.20342545,0.9789518,0.0045391005,-0.004342241,0.20399503,1
6332000,0.0016895536,-0.0025673928,0.0002826535,0.978881,-0.007506387,-0.019012466,0.20340644,0.9789518,0.0045391005,-0.004342241,0.20399503,1
6364000,0.0032709788,-0.0071939025,-0.0068509434,0.9788754,-0.007436182,-0.018938612,0.20344278,0.9789518,0.0045391005,-0.004342241,0.20399503,1
6396000,-0.0015574784,-0.006544139,-0.0037658163,0.978871,-0.0074190367,-0.018859116,0.2034723,0.9789518,0.0045391005,-0.004342241,0.20399503,1
6432000,-0.0001694219,-0.0011836588,0.0028803977,0.9788594,-0.007363159,-0.018824773,0.20353293,0.9789518,0.0045391005,-0.004342241,0.20399503,1
6460000,0.004045751,-0.0038425392,-0.0039117755,0.9788631,-0.0073073613,-0.018790303,0.20352061,0.9789518,0.0045391005,-0.004342241,0.20399503,1
6492000,0.0008382722,-0.004262994,-0.0036524436,0.9788583,-0.0073020267,-0.018727455,0.20354956,0.9789518,0.0045391005,-0.004342241,0.20399503,1
6524000,0.0065544248,0.003649511,-0.0042874496,0.9788617,-0.0072527314,-0.01867691,0.20353986,0.9789518,0.0045391005,-0.004342241,0.20399503,1
6556000,-0.004779114,0.00033179414,-0.0006190483,0.97886556,-0.0072304453,-0.01860393,0.20352863,0.9789518,0.0045391005,-0.004342241,0.20399503,1
6588000,0.00018788036,-0.00023344858,0.0035924762,0.97885144,-0.007203571,-0.018528631,0.20360473,0.9789518,0.0045391005,-0.004342241,0.20399503,1
6620000,-0.0024417248,-0.003963217,0.0032344894,0.9788577,-0.007178694,-0.018484242,0.2035791,0.9789518,0.0045391005,-0.004342241,0.20399503,1
6652000,0.0006021123,-0.0030876792,-0.001994453,0.97885966,-0.007131117,-0.018412635,0.20357786,0.9789518,0.0045391005,-0.004342241,0.20399503,1
6684000,-0.0019631768,-0.010200851,0.0007409638,0.9788457,-0.0070966897,-0.01835869,0.20365119,0.9789518,0.0045391005,-0.004342241,0.20399503,1
6716000,0.0027263393,-0.012630753,0.002483086,0.97884166,-0.007122348,-0.018385926,0.20366697,0.9789518,0.0045391005,-0.004342241,0.20399503,1
6748000,0.00062019686,-0.0017975539,-0.003349242,0.978838,-0.007114191,-0.018346032,0.20368844,0.9789518,0.0045391005,-0.004342241,0.20399503,1
6780000,-0.00021885091,-0.002474594,-0.001860563,0.97884095,-0.0071133464,-0.018267881,0.2036815,0.9789518,0.0045391005,-0.004342241,0.20399503,1
6816000,0.0011731908,-0.007618936,0.0026402734,0.9788429,-0.00706476,-0.01822584,0.20367767,0.9789518,0.0045391005,-0.004342241,0.20399503,1
6848000,-0.0058649806,-0.0033861685,0.0034401012,0.97884375,-0.007070229,-0.018162658,0.20367932,0.9789518,0.0045391005,-0.004342241,0.20399503,1
6880000,-0.0071108816,-0.0024123697,0.00064599735,0.97884876,-0.0071234154,-0.018111404,0.20365754,0.9789518,0.0045391005,-0.004342241,0.20399503,1
6912000,-0.0022637532,0.002980543,-0.0076578427,0.9788622,-0.007092181,-0.018027632,0.20360154,0.9789518,0.0045391005,-0.004342241,0.20399503,1
6940000,0.002310453,-0.0055374363,-0.004251017,0.97886974,-0.0070498786,-0.017947298,0.2035738,0.9789518,0.0045391005,-0.004342241,0.20399503,1
6972000,-0.0071245143,0.0025746417,0.0031010949,0.97886586,-0.0070686163,-0.01790405,0.20359543,0.9789518,0.0045391005,-0.004342241,0.20399503,1
7004000,0.0013119878,0.0038241325,0.000906509,0.9788682,-0.0070525953,-0.017785018,0.2035954,0.9789518,0.0045391005,-0.004342241,0.20399503,1
7040000,0.00933173,-0.0007565797,-9.557542e-05,0.9788723,-0.007049549,-0.017727451,0.20358074,0.9789518,0.0045391005,-0.004342241,0.20399503,1
7068000,0.007855435,-0.0010804215,-0.00011022776,0.97887295,-0.0069516194,-0.017679462,0.20358501,0.9789518,0.0045391005,-0.004342241,0.20399503,1
7104000,0.0023379512,0.0044403444,0.00785938,0.9788663,-0.006914768,-0.017550346,0.20362957,0.9789518,0.0045391005,-0.004342241,0.20399503,1
7132000,-0.010353025,-0.0069698216,0.0040853694,0.9788571,-0.006904228,-0.017500151,0.20367877,0.9789518,0.0045391005,-0.004342241,0.20399503,1
7164000,-0.0032038619,-0.008414092,0.0032009357,0.97884995,-0.0069421926,-0.017482737,0.20371339,0.9789518,0.0045391005,-0.004342241,0.20399503,1
7196000,0.0055064526,-0.0029152571,0.0018185651,0.97884446,-0.006957243,-0.017453514,0.20374146,0.9789518,0.0045391005,-0.004342241,0.20399503,1
7228000,-0.00051754655,-0.0030093663,-0.0005133825,0.97883576,-0.00696816,-0.017452858,0.20378284,0.9789518,0.0045391005,-0.004342241,0.20399503,1
7260000,0.0094797965,-0.0061572916,-0.0016270675,0.97884154,-0.0069217626,-0.017425276,0.2037592,0.9789518,0.0045391005,-0.004342241,0.20399503,1
7292000,-0.004664721,-0.0039142272,0.00055255846,0.97883946,-0.0069603035,-0.017400375,0.20377031,0.9789518,0.0045391005,-0.004342241,0.20399503,1
7324000,-0.00027721212,-0.00014415383,-0.0057223975,0.97885066,-0.007013105,-0.01731016,0.20372197,0.9789518,0.0045391005,-0.004342241,0.20399503,1
7356000,0.0035999485,-0.0005368893,0.0046303268,0.97885907,-0.0069837957,-0.017231701,0.20368925,0.9789518,0.0045391005,-0.004342241,0.20399503,1
7388000,0.0008008307,0.0009970614,-0.009486054,0.9788733,-0.006988153,-0.017160267,0.20362657,0.9789518,0.0045391005,-0.004342241,0.20399503,1
7420000,-0.0035246485,0.0017202226,0.0051482497,0.9788722,-0.0070155915,-0.017119974,0.20363484,0.9789518,0.0045391005,-0.004342241,0.20399503,1
7452000,0.009153103,0.0051120482,0.00082129927,0.9788734,-0.007011231,-0.017007219,0.20363857,0.9789518,0.0045391005,-0.004342241,0.20399503,1
7484000,-0.002146515,0.0015075852,0.00040812377,0.9788681,-0.007049506,-0.016912721,0.20366997,0.9789518,0.0045391005,-0.004342241,0.20399503,1
7520000,0.0007362332,-0.00031845504,0.0015137282,0.97885275,-0.007069114,-0.016894178,0.20374493,0.9789518,0.0045391005,-0.004342241,0.20399503,1
7548000,-0.0009742753,-0.001851982,0.006123255,0.9788475,-0.007074837,-0.016811138,0.2037766,0.9789518,0.0045391005,-0.004342241,0.20399503,1
7580000,0.0014168329,-0.00280943,-0.0038081915,0.97884214,-0.007074195,-0.016770259,0.20380606,0.9789518,0.0045391005,-0.004342241,0.20399503,1
7612000,-0.0012179799,0.009957952,0.0008987263,0.97884315,-0.0070329458,-0.016645366,0.20381233,0.9789518,0.0045391005,-0.004342241,0.20399503,1
7644000,-0.00343164,-0.002982256,-0.0025658552,0.9788325,-0.0070228255,-0.016568733,0.20387039,0.9789518,0.0045391005,-0.004342241,0.20399503,1
7680000,8.348934e-05,-0.0021475307,-0.0020623535,0.97882265,-0.007029883,-0.016490944,0.20392367,0.9789518,0.0045391005,-0.004342241,0.20399503,1
7708000,0.0026916452,-0.0060083144,-0.008893494,0.97883093,-0.0070287427,-0.016441558,0.20388778,0.9789518,0.0045391005,-0.004342241,0.20399503,1
7740000,-0.00060147187,-0.0031275596,-0.0020120072,0.9788323,-0.007025364,-0.016398786,0.20388488,0.9789518,0.0045391005,-0.004342241,0.20399503,1
7772000,-0.0023224954,-0.0023055333,0.0011223784,0.9788198,-0.0070646754,-0.016349688,0.20394813,0.9789518,0.0045391005,-0.004342241,0.20399503,1
7804000,-0.0011715674,-0.0026431666,-0.005207004,0.9788176,-0.007084018,-0.016276063,0.20396361,0.9789518,0.0045391005,-0.004342241,0.20399503,1
7836000,0.0017006373,-0.007035373,-0.0049753236,0.9788246,-0.007103378,-0.016182281,0.20393637,0.9789518,0.0045391005,-0.004342241,0.20399503,1
7868000,-0.002194273,0.0075685945,-0.0041464907,0.9788236,-0.0071216235,-0.016084509,0.20394845,0.9789518,0.0045391005,-0.004342241,0.20399503,1
7900000,0.004530751,-0.0007754308,-0.003176225,0.97883236,-0.0071149757,-0.016014602,0.20391186,0.9789518,0.0045391005,-0.004342241,0.20399503,1
7932000,-0.0018131187,0.0034631933,0.0021036183,0.97883224,-0.0071431245,-0.015911879,0.20391962,0.9789518,0.0045391005,-0.004342241,0.20399503,1
7964000,0.002073855,-0.008430794,-0.0020411229,0.97883743,-0.0071159364,-0.01587793,0.20389871,0.9789518,0.0045391005,-0.004342241,0.20399503,1
8000000,-0.002106579,0.0066127335,0.00042718335,0.9788319,-0.007149624,-0.015761958,0.20393285,0.9789518,0.0045391005,-0.004342241,0.20399503,1
8028000,-0.00015199475,0.0016837285,-0.00078957994,0.9788266,-0.0071691275,-0.015686404,0.20396382,0.9789518,0.0045391005,-0.004342241,0.20399503,1
8060000,0.0050151907,0.00027005048,-0.00083468296,0.97883713,-0.007200201,-0.015617092,0.20391709,0.9789518,0.0045391005,-0.004342241,0.20399503,1
8092000,-0.0021565729,-0.001700392,0.0034554366,0.9788346,-0.0072349384,-0.015560782,0.2039321,0.9789518,0.0045391005,-0.004342241,0.20399503,1
8128000,0.0030871439,-0.00060201064,0.0001073498,0.9788284,-0.0072096875,-0.015436963,0.20397238,0.9789518,0.0045391005,-0.004342241,0.20399503,1
8156000,0.0026584018,-0.00079786824,-0.008365906,0.9788362,-0.0071658785,-0.015337338,0.20394382,0.9789518,0.0045391005,-0.004342241,0.20399503,1
8188000,0.0072842212,0.00084941974,0.000324519,0.97883743,-0.007119558,-0.015269791,0.2039449,0.9789518,0.0045391005,-0.004342241,0.20399503,1
8220000,-0.0002175027,-0.0054889163,-0.00051808753,0.97884417,-0.0071085636,-0.015241315,0.20391496,0.9789518,0.0045391005,-0.004342241,0.20399503,1
8252000,0.003408641,-0.0020249682,0.0026822542,0.9788332,-0.007118988,-0.015143622,0.2039748,0.9789518,0.0045391005,-0.004342241,0.20399503,1
8284000,-0.007014998,-0.0016007354,0.0028817968,0.97882754,-0.007145054,-0.0150572695,0.2040075,0.9789518,0.0045391005,-0.004342241,0.20399503,1
8320000,-0.0013324844,-0.0010834541,0.0057227807,0.97882193,-0.0071556633,-0.014958555,0.20404086,0.9789518,0.0045391005,-0.004342241,0.20399503,1
8348000,0.0069727013,0.001697167,0.0029374734,0.9788153,-0.0071466113,-0.014899148,0.2040773,0.9789518,0.0045391005,-0.004342241,0.20399503,1
8380000,0.0010078637,0.0011617127,-0.005744042,0.97881407,-0.007135565,-0.014828629,0.2040892,0.9789518,0.0045391005,-0.004342241,0.20399503,1
8412000,0.003056455,0.0009660865,0.0036158306,0.9788059,-0.0071004736,-0.014758984,0.20413443,0.9789518,0.0045391005,-0.004342241,0.20399503,1
8444000,-0.0050027682,-0.0060940473,-0.0007316643,0.978799,-0.00712585,-0.014768969,0.20416611,0.9789518,0.0045391005,-0.004342241,0.20399503,1
8476000,-0.0009233083,0.0032286267,0.0033076159,0.9787992,-0.0071151536,-0.014748517,0.20416655,0.9789518,0.0045391005,-0.004342241,0.20399503,1
8508000,-0.00024459453,0.002852652,-0.0018435491,0.97879803,-0.007124892,-0.014677953,0.20417741,0.9789518,0.0045391005,-0.004342241,0.20399503,1
8540000,-0.003119242,-0.0024139425,0.005957856,0.97878623,-0.007146829,-0.014634277,0.2042363,0.9789518,0.0045391005,-0.004342241,0.20399503,1
8572000,-0.0016419623,0.00018510409,-0.00620841,0.9787924,-0.007157062,-0.014567567,0.20421062,0.9789518,0.0045391005,-0.004342241,0.20399503,1
8604000,0.0036991972,-0.0006743884,-0.00033521227,0.9787888,-0.007198887,-0.014496726,0.20423156,0.9789518,0.0045391005,-0.004342241,0.20399503,1
8636000,0.00017781963,-1.6807113e-05,0.0010207793,0.97879267,-0.007207324,-0.014481943,0.20421399,0.9789518,0.0045391005,-0.004342241,0.20399503,1
8668000,-0.0045965696,0.0052050115,-0.00010850385,0.97878945,-0.0071965163,-0.014383541,0.20423657,0.9789518,0.0045391005,-0.004342241,0.20399503,1
8700000,0.007866,-0.00075554755,0.0010589722,0.97878766,-0.007143886,-0.014365413,0.20424822,0.9789518,0.0045391005,-0.004342241,0.20399503,1
8732000,0.0009577174,-0.0012257337,0.0027824729,0.9787865,-0.007201171,-0.014339513,0.20425387,0.9789518,0.0045391005,-0.004342241,0.20399503,1
8764000,0.0060268957,0.0009832676,0.002301632,0.97877944,-0.0072053964,-0.014284013,0.20429097,0.9789518,0.0045391005,-0.004342241,0.20399503,1
8796000,-0.0030994306,-0.0007573832,-0.00023325824,0.9787761,-0.0071820966,-0.014252157,0.20431042,0.9789518,0.0045391005,-0.004342241,0.20399503,1
8828000,-0.0033502067,-0.0027857944,0.0022204893,0.9787789,-0.0072625885,-0.014167998,0.20429969,0.9789518,0.0045391005,-0.004342241,0.20399503,1
8860000,-0.0033399127,-0.0027960157,-0.0023432532,0.9787817,-0.007267305,-0.014110592,0.20429055,0.9789518,0.0045391005,-0.004342241,0.20399503,1
8896000,-0.0022237995,0.0011784108,0.0001508322,0.9787784,-0.007296466,-0.014049924,0.2043093,0.9789518,0.0045391005,-0.004342241,0.20399503,1
8924000,0.005755133,0.0034870845,-0.0071960404,0.97878486,-0.007318634,-0.013962308,0.20428349,0.9789518,0.0045391005,-0.004342241,0.20399503,1
8956000,-0.0034889532,-0.002541368,0.0032602176,0.97878706,-0.0073673814,-0.013989923,0.20426911,0.9789518,0.0045391005,-0.004342241,0.20399503,1
8988000,0.0023342385,0.0023707615,-0.0013746237,0.97879446,-0.0073467246,-0.014011239,0.20423321,0.9789518,0.0045391005,-0.004342241,0.20399503,1
9024000,0.00321686,0.0014328337,-0.007944847,0.9788121,-0.007377436,-0.013942276,0.20415258,0.9789518,0.0045391005,-0.004342241,0.20399503,1
9052000,0.0076031704,0.0014829147,0.0053821234,0.97880167,-0.0073525324,-0.01391579,0.20420493,0.9789518,0.0045391005,-0.004342241,0.20399503,1
9084000,0.008277138,0.0053698528,0.0048027253,0.9788053,-0.0073003513,-0.013904928,0.20419039,0.9789518,0.0045391005,-0.004342241,0.20399503,1
9116000,-0.003933968,0.0050230855,0.0042520873,0.9787968,-0.007307508,-0.013869527,0.20423318,0.9789518,0.0045391005,-0.004342241,0.20399503,1
9148000,-0.0038837676,-0.0018024854,0.0019745214,0.97880775,-0.007339808,-0.013852267,0.20418051,0.9789518,0.0045391005,-0.004342241,0.20399503,1
9180000,0.0054234676,-0.007150194,-0.002473203,0.97880524,-0.0073629855,-0.013882891,0.20418954,0.9789518,0.0045391005,-0.004342241,0.20399503,1
9212000,-0.00029396487,0.0038763448,0.008445138,0.9787944,-0.007373297,-0.013802015,0.20424652,0.9789518,0.0045391005,-0.004342241,0.20399503,1
9244000,-0.0019258403,-0.0003916407,0.0002817749,0.9787909,-0.0073907105,-0.01370311,0.20426962,0.9789518,0.0045391005,-0.004342241,0.20399503,1
9280000,0.0062782657,0.0018251312,-0.0010284965,0.97880024,-0.007383842,-0.013676028,0.2042272,0.9789518,0.0045391005,-0.004342241,0.20399503,1
9308000,-0.0067241383,-0.0009146719,-0.0013903878,0.9788034,-0.0073822583,-0.01363571,0.20421419,0.9789518,0.0045391005,-0.004342241,0.20399503,1
9340000,0.0036132513,8.145161e-05,0.002066292,0.9788099,-0.0073878057,-0.013585058,0.20418659,0.9789518,0.0045391005,-0.004342241,0.20399503,1
9372000,0.005456264,0.0004534521,0.0012997807,0.97881603,-0.007342851,-0.013546997,0.20416096,0.9789518,0.0045391005,-0.004342241,0.20399503,1
9404000,0.0010264344,-0.0041644373,0.008184457,0.9788091,-0.007317509,-0.013539135,0.20419574,0.9789518,0.0045391005,-0.004342241,0.20399503,1
9436000,-0.0018175995,0.000471666,0.0042236648,0.9788172,-0.0073548155,-0.013468158,0.20416035,0.9789518,0.0045391005,-0.004342241,0.20399503,1
9468000,5.15437e-05,0.011470357,0.0027497367,0.97881144,-0.007410697,-0.013411647,0.20418991,0.9789518,0.0045391005,-0.004342241,0.20399503,1
9500000,-0.003991262,0.003995707,0.0017241027,0.9788226,-0.0074928063,-0.013345018,0.20413788,0.9789518,0.0045391005,-0.004342241,0.20399503,1
9532000,0.0056671235,-0.002720646,0.0043299436,0.9788188,-0.0075087333,-0.013281529,0.20415938,0.9789518,0.0045391005,-0.004342241,0.20399503,1
9564000,0.004168518,0.00062473817,-0.005006636,0.978831,-0.0075041777,-0.0132750375,0.20410158,0.9789518,0.0045391005,-0.004342241,0.20399503,1
9596000,-0.00359292,-0.0048400494,2.6908616e-05,0.9788365,-0.007520856,-0.013271508,0.20407464,0.9789518,0.0045391005,-0.004342241,0.20399503,1
9628000,0.0023134002,-0.00033542514,-0.0073137786,0.97884357,-0.007536826,-0.013235826,0.2040427,0.9789518,0.0045391005,-0.004342241,0.20399503,1
9660000,0.005233751,-0.0007873168,-0.0009114233,0.97883624,-0.0075513753,-0.013214206,0.20407864,0.9789518,0.0045391005,-0.004342241,0.20399503,1
9692000,0.006497349,-0.0031473292,-0.0049915197,0.97883606,-0.007539015,-0.013176543,0.20408209,0.9789518,0.0045391005,-0.004342241,0.20399503,1
9724000,0.004265103,-0.004372799,0.00078537164,0.97884244,-0.0075216824,-0.013130016,0.20405522,0.9789518,0.0045391005,-0.004342241,0.20399503,1
9756000,-0.00029750157,-0.007869596,-0.0008423774,0.9788316,-0.0075071948,-0.013133001,0.20410806,0.9789518,0.0045391005,-0.004342241,0.20399503,1
9788000,0.0010381625,0.0028963338,0.0014596921,0.97883356,-0.0075020283,-0.013111548,0.20410004,0.9789518,0.0045391005,-0.004342241,0.20399503,1
9820000,-0.0043140417,-0.009338116,-0.0009104784,0.97883207,-0.0075184028,-0.013134574,0.2041047,0.9789518,0.0045391005,-0.004342241,0.20399503,1
9852000,-0.0030109696,-0.0059314375,-0.0023519557,0.97884125,-0.0075272173,-0.013123496,0.20406127,0.9789518,0.0045391005,-0.004342241,0.20399503,1
9884000,0.0043109106,-0.0040989835,-0.0069967397,0.97885066,-0.007552608,-0.013122892,0.20401521,0.9789518,0.0045391005,-0.004342241,0.20399503,1
9916000,-0.00082325726,0.0018489824,0.000115603005,0.97885776,-0.007567574,-0.013116132,0.2039811,0.9789518,0.0045391005,-0.004342241,0.20399503,1
9952000,-0.0055891117,-0.009107373,0.00050734007,0.9788704,-0.0076133576,-0.013115811,0.20391856,0.9789518,0.0045391005,-0.004342241,0.20399503,1
9984000,-0.00045831,0.0042392854,-5.348641e-05,0.978872,-0.0076694153,-0.013107977,0.20390932,0.9789518,0.0045391005,-0.004342241,0.20399503,1
10012000,0.00018980779,-0.00088266516,0.0050844257,0.9788771,-0.0076865135,-0.013049279,0.20388761,0.9789518,0.0045391005,-0.004342241,0.20399503,1
10044000,-0.0035696356,-0.002594117,0.0009323228,0.9788829,-0.0077055674,-0.013034739,0.20386052,0.9789518,0.0045391005,-0.004342241,0.20399503,1
10080000,0.00676375,0.0013199938,0.0033299308,0.9788976,-0.0076762172,-0.012997516,0.20379335,0.9789518,0.0045391005,-0.004342241,0.20399503,1
10108000,-0.0049975333,0.0031292608,-0.0009147292,0.97890925,-0.0077572153,-0.012914964,0.20373935,0.9789518,0.0045391005,-0.004342241,0.20399503,1
10140000,-0.003561392,-0.0021887831,0.000822122,0.9789192,-0.007788764,-0.012850546,0.20369457,0.9789518,0.0045391005,-0.004342241,0.20399503,1
10172000,-0.008136396,-0.0014134324,0.0014045541,0.97892165,-0.007822616,-0.012867527,0.20368025,0.9789518,0.0045391005,-0.004342241,0.20399503,1
10204000,0.0034880373,0.0007619909,-0.0045296676,0.9789263,-0.007867441,-0.012859617,0.20365702,0.9789518,0.0045391005,-0.004342241,0.20399503,1
10240000,0.0004472548,0.007346168,-5.9349113e-05,0.9789313,-0.007894296,-0.012787532,0.20363648,0.9789518,0.0045391005,-0.004342241,0.20399503,1
10272000,0.0061364193,-0.0032094582,-0.006905028,0.9789313,-0.007866913,-0.012780396,0.20363793,0.9789518,0.0045391005,-0.004342241,0.20399503,1
10300000,0.0031956148,-0.004162075,0.00081673043,0.97893196,-0.007870821,-0.01273402,0.20363726,0.9789518,0.0045391005,-0.004342241,0.20399503,1
10332000,-0.00075787003,0.00071539497,-0.0036705106,0.97894156,-0.007908936,-0.01275367,0.2035887,0.9789518,0.0045391005,-0.004342241,0.20399503,1
10364000,-0.0045978194,-0.002346571,-0.0025290817,0.97895,-0.007957906,-0.012735391,0.20354672,0.9789518,0.0045391005,-0.004342241,0.20399503,1
10396000,0.0033656359,-0.00414002,0.0038586664,0.97895795,-0.00793828,-0.012758907,0.20350848,0.9789518,0.0045391005,-0.004342241,0.20399503,1
10432000,0.0019840377,-0.0016797846,0.002415222,0.9789642,-0.007904232,-0.012768336,0.2034788,0.9789518,0.0045391005,-0.004342241,0.20399503,1
10460000,0.00021310576,0.0011274512,0.0010173921,0.97897685,-0.007915814,-0.012741468,0.20341961,0.9789518,0.0045391005,-0.004342241,0.20399503,1
10492000,0.005351443,0.0025969339,-0.0042971466,0.9789902,-0.007984544,-0.012748183,0.2033517,0.9789518,0.0045391005,-0.004342241,0.20399503,1
10524000,0.0028318805,-0.0002228315,-0.0020100272,0.9790143,-0.007952879,-0.012655298,0.20324276,0.9789518,0.0045391005,-0.004342241,0.20399503,1
10556000,0.0038281716,0.002777865,0.00084219803,0.97902113,-0.007933666,-0.012598352,0.20321397,0.9789518,0.0045391005,-0.004342241,0.20399503,1
10592000,4.8607122e-05,-0.0022830986,0.0062267706,0.97902447,-0.007962278,-0.0125402035,0.20320082,0.9789518,0.0045391005,-0.004342241,0.20399503,1
10620000,3.5112374e-05,-0.0068968716,-0.0013777653,0.97903454,-0.007952183,-0.012526829,0.20315328,0.9789518,0.0045391005,-0.004342241,0.20399503,1
10652000,0.0041023423,-0.006927243,0.0023376727,0.9790439,-0.007918267,-0.012533322,0.20310926,0.9789518,0.0045391005,-0.004342241,0.20399503,1
10684000,0.0015027605,-0.00074767787,-0.0012332833,0.9790594,-0.007937382,-0.012539673,0.20303333,0.9789518,0.0045391005,-0.004342241,0.20399503,1
10716000,-0.002533052,0.0017595212,-0.00088358397,0.97907513,-0.00795358,-0.012524891,0.20295782,0.9789518,0.0045391005,-0.004342241,0.20399503,1
10748000,0.0026020296,0.0018781377,0.003668686,0.97908694,-0.008006678,-0.012531541,0.2028982,0.9789518,0.0045391005,-0.004342241,0.20399503,1
10780000,0.005984322,-0.0024817097,-0.0011202304,0.9791091,-0.007990958,-0.012550881,0.20279078,0.9789518,0.0045391005,-0.004342241,0.20399503,1
10812000,0.0032946367,0.010816108,0.002301323,0.9791226,-0.007986364,-0.012556313,0.20272559,0.9789518,0.0045391005,-0.004342241,0.20399503,1
10844000,0.0023221397,0.0003995467,-0.0044945404,0.9791364,-0.008008758,-0.012502005,0.20266151,0.9789518,0.0045391005,-0.004342241,0.20399503,1
10876000,-0.0012726964,-0.0017119348,0.00606241,0.97913903,-0.0080889305,-0.012518213,0.2026443,0.9789518,0.0045391005,-0.004342241,0.20399503,1
10908000,-0.0033430185,-0.0053966558,-0.005244001,0.9791446,-0.008145274,-0.012548951,0.20261295,0.9789518,0.0045391005,-0.004342241,0.20399503,1
10940000,-0.0033675162,-0.0032418687,-0.0006442523,0.97916013,-0.008128591,-0.012536412,0.20253977,0.9789518,0.0045391005,-0.004342241,0.20399503,1
10972000,-0.002755478,0.005857492,-0.0040399525,0.97917104,-0.008159085,-0.012506326,0.20248723,0.9789518,0.0045391005,-0.004342241,0.20399503,1
11004000,-0.0013733343,-0.0018764585,0.0017760565,0.9791901,-0.008210238,-0.012443795,0.20239735,0.9789518,0.0045391005,-0.004342241,0.20399503,1
11040000,-0.0021013988,0.0021684377,-0.0023152616,0.9792054,-0.008218989,-0.012415385,0.20232454,0.9789518,0.0045391005,-0.004342241,0.20399503,1
11068000,-0.0013215661,0.0060225474,0.002979276,0.97920597,-0.008257285,-0.01237771,0.20232283,0.9789518,0.0045391005,-0.004342241,0.20399503,1
11100000,-0.0007143117,0.0049189264,0.0075556086,0.97966444,-0.008301566,-0.012257781,0.20009574,0.9999974,-4.8194546e-05,4.8605143e-05,-0.0022946,2
11132000,-0.0028815481,0.0062656016,-0.00027660973,0.9796631,-0.008347413,-0.012218671,0.20010343,0.9999974,-4.8194546e-05,4.8605143e-05,-0.0022946,2
11164000,-0.0010896215,0.0046976074,-0.0046376283,0.9796685,-0.008337559,-0.01221533,0.20007719,0.9999974,-4.8194546e-05,4.8605143e-05,-0.0022946,2
11196000,-0.0034017996,0.0025627387,-0.00044801226,0.97966087,-0.008334041,-0.01223404,0.20011367,0.9999974,-4.8194546e-05,4.8605143e-05,-0.0022946,2
11228000,-0.004993339,-0.0018052561,0.0036750082,0.97963935,-0.008362049,-0.012250152,0.2002171,0.9999974,-4.8194546e-05,4.8605143e-05,-0.0022946,2
11260000,-0.0077840565,-0.0025430475,0.0021223915,0.9796109,-0.008379678,-0.012277159,0.20035355,0.9999974,-4.8194546e-05,4.8605143e-05,-0.0022946,2
11292000,-0.0018481299,0.0009500757,-0.0016151908,0.97958565,-0.008405396,-0.012257017,0.20047708,0.9999974,-4.8194546e-05,4.8605143e-05,-0.0022946,2
11324000,-0.0061995895,-0.002234512,-0.0013711639,0.9795631,-0.008391121,-0.012334608,0.20058344,0.9999974,-4.8194546e-05,4.8605143e-05,-0.0022946,2
11356000,-0.00067088334,-0.0044024647,-0.003060764,0.9795528,-0.008416337,-0.0123441825,0.20063215,0.9999974,-4.8194546e-05,4.8605143e-05,-0.0022946,2
11388000,0.0018967956,-0.0040021096,0.0005231198,0.9795319,-0.008367228,-0.012355974,0.20073503,0.9999974,-4.8194546e-05,4.8605143e-05,-0.0022946,2
11424000,-0.0052523683,-0.001209287,-0.0032697637,0.97950846,-0.008350299,-0.012335883,0.20085154,0.9999974,-4.8194546e-05,4.8605143e-05,-0.0022946,2
11456000,-0.0024378803,0.0004676371,0.0019427498,0.97948664,-0.008338976,-0.012344299,0.20095788,0.9999974,-4.8194546e-05,4.8605143e-05,-0.0022946,2
11484000,-0.0078338925,-0.0004366627,-0.0036304242,0.9794779,-0.008357895,-0.0123394625,0.20100033,0.9999974,-4.8194546e-05,4.8605143e-05,-0.0022946,2
11516000,-0.0030522337,0.00092289597,0.0046452875,0.9794512,-0.00840252,-0.0123461485,0.2011282,0.9999974,-4.8194546e-05,4.8605143e-05,-0.0022946,2
11548000,-0.0071033207,0.00040365942,-0.0013103242,0.9794329,-0.008429352,-0.01232941,0.20121706,0.9999974,-4.8194546e-05,4.8605143e-05,-0.0022946,2
11580000,0.008745039,0.007817032,-0.0027727145,0.97941697,-0.008387876,-0.012274859,0.20129941,0.9999974,-4.8194546e-05,4.8605143e-05,-0.0022946,2
11612000,-0.0022408515,0.0042057442,0.0017303948,0.9793926,-0.008415856,-0.012230089,0.20141926,0.9999974,-4.8194546e-05,4.8605143e-05,-0.0022946,2
11644000,1.8216437e-05,-0.00082404586,-0.0025683257,0.9793606,-0.008434162,-0.012240032,0.20157361,0.9999974,-4.8194546e-05,4.8605143e-05,-0.0022946,2
11676000,-0.0010356819,0.0040038126,-0.006213261,0.97934216,-0.008410819,-0.012191272,0.20166682,0.9999974,-4.8194546e-05,4.8605143e-05,-0.0022946,2
11712000,-0.005472454,-0.0067350124,-0.003495998,0.9793196,-0.008406469,-0.012198584,0.20177619,0.9999974,-4.8194546e-05,4.8605143e-05,-0.0022946,2
11740000,0.0045826603,0.0061960774,0.0036903627,0.9793023,-0.008390166,-0.012193268,0.20186187,0.9999974,-4.8194546e-05,4.8605143e-05,-0.0022946,2
11772000,0.002547783,-0.004931012,-0.0006230457,0.97930384,-0.0083349645,-0.012183661,0.20185684,0.9999974,-4.8194546e-05,4.8605143e-05,-0.0022946,2
11804000,-0.0006029459,0.00446808,-0.0036600858,0.9792964,-0.008354592,-0.012114209,0.2018964,0.9999974,-4.8194546e-05,4.8605143e-05,-0.0022946,2
11836000,0.0010834154,-0.0014743335,0.0022537299,0.9792926,-0.008325637,-0.012102499,0.20191659,0.9999974,-4.8194546e-05,4.8605143e-05,-0.0022946,2
11868000,-0.00035757187,-0.0030454681,-0.00094971614,0.9792852,-0.0082995305,-0.012099073,0.2019538,0.9999974,-4.8194546e-05,4.8605143e-05,-0.0022946,2
11900000,0.0007470114,-0.0031940793,0.003329667,0.97927564,-0.008286714,-0.012107362,0.20200017,0.9999974,-4.8194546e-05,4.8605143e-05,-0.0022946,2
11932000,-0.0006946856,-0.0052339593,-0.0045766057,0.9792827,-0.0082963845,-0.012090629,0.20196626,0.9999974,-4.8194546e-05,4.8605143e-05,-0.0022946,2
11964000,-0.0005221716,-0.0023773857,-0.0007640452,0.9792891,-0.008250483,-0.012124526,0.20193525,0.9999974,-4.8194546e-05,4.8605143e-05,-0.0022946,2
11996000,-0.0020957775,-0.0065441416,-0.0011813178,0.9792975,-0.008244855,-0.012148201,0.20189285,0.9999974,-4.8194546e-05,4.8605143e-05,-0.0022946,2
12028000,0.0024154477,-0.0016494193,-0.0039971084,0.9793119,-0.008235977,-0.012179112,0.20182231,0.9999974,-4.8194546e-05,4.8605143e-05,-0.0022946,2
12064000,-0.0044201543,-0.0033168416,0.006889791,0.9793188,-0.008232815,-0.0121986,0.20178749,0.9999974,-4.8194546e-05,4.8605143e-05,-0.0022946,2
12092000,-0.0011221751,-0.0015815212,-0.006264433,0.97933054,-0.008233703,-0.012256607,0.201727,0.9999974,-4.8194546e-05,4.8605143e-05,-0.0022946,2
12124000,0.0076382,0.008025325,0.0011186325,0.9793423,-0.008216333,-0.012256246,0.20167086,0.9999974,-4.8194546e-05,4.8605143e-05,-0.0022946,2
12156000,-0.0028157742,-0.006234724,0.004700858,0.9793491,-0.008235548,-0.012298384,0.20163469,0.9999974,-4.8194546e-05,4.8605143e-05,-0.0022946,2
12188000,0.0053018406,-0.0007864274,-0.0010350484,0.979346,-0.008199403,-0.012286715,0.2016517,0.9999974,-4.8194546e-05,4.8605143e-05,-0.0022946,2
12224000,0.00599028,0.006540473,-0.0022282123,0.9793673,-0.008183133,-0.0122816,0.20154871,0.9999974,-4.8194546e-05,4.8605143e-05,-0.0022946,2
12252000,0.00081933005,-0.0013846648,-0.0029084685,0.9793766,-0.0081851985,-0.012323683,0.20150118,0.9999974,-4.8194546e-05,4.8605143e-05,-0.0022946,2
12284000,-0.0014102935,-0.0041375114,0.001399878,0.9793742,-0.008189788,-0.012389398,0.20150879,0.9999974,-4.8194546e-05,4.8605143e-05,-0.0022946,2
12316000,-0.009028521,0.005170417,0.001061589,0.9793773,-0.008265937,-0.01236042,0.20149173,0.9999974,-4.8194546e-05,4.8605143e-05,-0.0022946,2
12348000,0.0005027149,-0.00014837412,-0.0023180388,0.9793832,-0.008273912,-0.012344492,0.20146412,0.9999974,-4.8194546e-05,4.8605143e-05,-0.0022946,2
12380000,-0.0019015262,-0.004351772,-0.0016950303,0.9793919,-0.008318661,-0.012350042,0.20141992,0.9999974,-4.8194546e-05,4.8605143e-05,-0.0022946,2
12412000,0.0034637859,0.0046331575,-0.0070007094,0.97941244,-0.008282111,-0.012355793,0.20132065,0.9999974,-4.8194546e-05,4.8605143e-05,-0.0022946,2
12444000,0.005735929,-0.00011842372,-0.007839971,0.9794339,-0.008272924,-0.012326258,0.20121865,0.9999974,-4.8194546e-05,4.8605143e-05,-0.0022946,2
12480000,0.00031722436,0.0011170544,-0.0018225911,0.9794402,-0.00829321,-0.012340398,0.2011859,0.9999974,-4.8194546e-05,4.8605143e-05,-0.0022946,2
12508000,-0.001132681,-0.0068204002,0.006091531,0.9794434,-0.008309939,-0.012393345,0.20116667,0.9999974,-4.8194546e-05,4.8605143e-05,-0.0022946,2
12540000,-0.011709119,0.006011182,0.0036515726,0.9794532,-0.008324487,-0.01239249,0.20111848,0.9999974,-4.8194546e-05,4.8605143e-05,-0.0022946,2
12572000,-0.00019517296,-0.007322684,0.002710918,0.9794583,-0.008307514,-0.012409226,0.20109315,0.9999974,-4.8194546e-05,4.8605143e-05,-0.0022946,2
12604000,0.0034303148,-0.0028085797,0.01054184,0.97944516,-0.00829397,-0.012407914,0.20115796,0.9999974,-4.8194546e-05,4.8605143e-05,-0.0022946,2
12636000,0.0008531682,-0.0007118727,-0.005049859,0.9794531,-0.0082645975,-0.012381902,0.20112187,0.9999974,-4.8194546e-05,4.8605143e-05,-0.0022946,2
12668000,0.001527265,-0.0018993379,-0.005713162,0.9794471,-0.0082265325,-0.012406365,0.20115091,0.9999974,-4.8194546e-05,4.8605143e-05,-0.0022946,2
12700000,0.005143374,-0.002479279,-0.006418844,0.97944427,-0.008190691,-0.012417851,0.20116596,0.9999974,-4.8194546e-05,4.8605143e-05,-0.0022946,2
12732000,0.0038866869,-0.008913005,-0.0029022354,0.9794346,-0.008155387,-0.012389021,0.20121616,0.9999974,-4.8194546e-05,4.8605143e-05,-0.0022946,2
12764000,-0.003726324,-0.00016640918,-0.004367751,0.9794346,-0.008146788,-0.012372555,0.20121719,0.9999974,-4.8194546e-05,4.8605143e-05,-0.0022946,2
12796000,-0.000131474,0.0018064245,-0.0049894922,0.97943634,-0.008152336,-0.012373825,0.20120868,0.9999974,-4.8194546e-05,4.8605143e-05,-0.0022946,2
12828000,-0.0041897474,0.0015313164,-0.0013673946,0.97942793,-0.008178895,-0.012362903,0.20124917,0.9999974,-4.8194546e-05,4.8605143e-05,-0.0022946,2
12860000,-0.0043247505,0.003927396,-0.0016747905,0.97942024,-0.008212131,-0.012352836,0.2012857,0.9999974,-4.8194546e-05,4.8605143e-05,-0.0022946,2
12896000,0.0035880278,0.005704757,-0.009724119,0.97942007,-0.008223641,-0.012343167,0.20128696,0.9999974,-4.8194546e-05,4.8605143e-05,-0.0022946,2
12924000,0.0034276787,0.0032059946,0.0052491114,0.9794112,-0.008167567,-0.0123234745,0.20133395,0.9999974,-4.8194546e-05,4.8605143e-05,-0.0022946,2
12956000,-6.5483386e-05,0.008441844,-0.0009774388,0.97940403,-0.00814525,-0.01236966,0.20136662,0.9999974,-4.8194546e-05,4.8605143e-05,-0.0022946,2
12988000,0.0012301917,8.160528e-05,0.0059712157,0.97940254,-0.008135601,-0.012334427,0.2013765,0.9999974,-4.8194546e-05,4.8605143e-05,-0.0022946,2
13020000,-0.00626721,-0.000102897175,-0.0052688452,0.9794017,-0.008189702,-0.0123325065,0.20137829,0.9999974,-4.8194546e-05,4.8605143e-05,-0.0022946,2
13056000,-0.0036653164,0.001858715,-0.0005588863,0.9793963,-0.008198198,-0.012296543,0.20140617,0.9999974,-4.8194546e-05,4.8605143e-05,-0.0022946,2
13088000,-0.0048366114,-0.002278151,-0.002002685,0.97939545,-0.008204959,-0.012346905,0.20140712,0.9999974,-4.8194546e-05,4.8605143e-05,-0.0022946,2
13116000,-0.0032234725,0.0016114572,-0.0003277911,0.9794024,-0.008203936,-0.012334585,0.20137434,0.9999974,-4.8194546e-05,4.8605143e-05,-0.0022946,2
13148000,0.000416747,-0.0034089168,-0.0011645638,0.9794086,-0.008256708,-0.012345835,0.20134097,0.9999974,-4.8194546e-05,4.8605143e-05,-0.0022946,2
13180000,-0.0022572894,0.010029132,0.011855017,0.97940266,-0.0082730055,-0.012314271,0.2013713,0.9999974,-4.8194546e-05,4.8605143e-05,-0.0022946,2
13212000,0.0006531329,0.000935005,0.00047670695,0.9794092,-0.008279992,-0.0122865345,0.20134073,0.9999974,-4.8194546e-05,4.8605143e-05,-0.0022946,2
13244000,-0.0054285694,0.0010092575,-0.0013324262,0.9794181,-0.008313821,-0.012324134,0.2012937,0.9999974,-4.8194546e-05,4.8605143e-05,-0.0022946,2
13276000,-0.0046254904,-0.0018946077,-0.003483124,0.97942084,-0.008349606,-0.012321827,0.20127961,0.9999974,-4.8194546e-05,4.8605143e-05,-0.0022946,2
13312000,0.0035523595,-0.003148872,0.00044682113,0.9794235,-0.008325313,-0.012342853,0.20126624,0.9999974,-4.8194546e-05,4.8605143e-05,-0.0022946,2
13340000,-0.0032925215,-0.0015691672,0.003216134,0.9794242,-0.00832638,-0.012391902,0.20125951,0.9999974,-4.8194546e-05,4.8605143e-05,-0.0022946,2
13372000,0.0021089832,-0.0021337438,0.0022616377,0.9794229,-0.008326605,-0.012403771,0.20126471,0.9999974,-4.8194546e-05,4.8605143e-05,-0.0022946,2
13404000,0.0015338594,-0.0027980288,0.0032093327,0.9794267,-0.008290538,-0.01236713,0.20125031,0.9999974,-4.8194546e-05,4.8605143e-05,-0.0022946,2
13436000,-0.0052872924,-0.0058633843,-0.0010735261,0.9794292,-0.0082481345,-0.012380213,0.20123935,0.9999974,-4.8194546e-05,4.8605143e-05,-0.0022946,2
13468000,0.0023545583,0.00011263648,0.001998839,0.97944164,-0.008209585,-0.012381112,0.2011799,0.9999974,-4.8194546e-05,4.8605143e-05,-0.0022946,2
13500000,0.0010907702,0.0006379443,0.0036657306,0.97944736,-0.008179755,-0.012394056,0.20115279,0.9999974,-4.8194546e-05,4.8605143e-05,-0.0022946,2
13532000,-0.003303317,0.0035717527,0.0056583136,0.97944236,-0.008187904,-0.012390055,0.20117736,0.9999974,-4.8194546e-05,4.8605143e-05,-0.0022946,2
13564000,-0.0003275663,-0.0014728648,-0.009573758,0.9794478,-0.0082067745,-0.012394593,0.2011493,0.9999974,-4.8194546e-05,4.8605143e-05,-0.0022946,2
13600000,-0.00077085546,0.0017268471,-0.0024671264,0.9794591,-0.008270199,-0.012403608,0.20109122,0.9999974,-4.8194546e-05,4.8605143e-05,-0.0022946,2
13628000,-0.0012968186,0.00024022395,-3.9809976e-05,0.979456,-0.008271666,-0.012388732,0.20110713,0.9999974,-4.8194546e-05,4.8605143e-05,-0.0022946,2
13660000,-0.000990241,-0.0025537028,-0.00073032593,0.9794633,-0.008232801,-0.012408021,0.20107198,0.9999974,-4.8194546e-05,4.8605143e-05,-0.0022946,2
13692000,-0.005963978,-0.0010810592,0.0023810368,0.97946316,-0.008274641,-0.012395323,0.20107202,0.9999974,-4.8194546e-05,4.8605143e-05,-0.0022946,2
13724000,0.0035468678,-0.00048612757,-0.0031805192,0.9794589,-0.008306612,-0.01242298,0.20108944,0.9999974,-4.8194546e-05,4.8605143e-05,-0.0022946,2
13760000,-0.0009523643,-0.0021329056,-0.0022660356,0.97945005,-0.00826004,-0.012420247,0.20113471,0.9999974,-4.8194546e-05,4.8605143e-05,-0.0022946,2
13788000,-0.007680307,0.00013379985,-0.0009462246,0.97943807,-0.008281186,-0.012402807,0.20119338,0.9999974,-4.8194546e-05,4.8605143e-05,-0.0022946,2
13820000,0.00080708927,-1.8664636e-05,0.0030611868,0.9794284,-0.008253301,-0.0123915905,0.20124212,0.9999974,-4.8194546e-05,4.8605143e-05,-0.0022946,2
13852000,-0.0065544173,0.0016084653,-0.003906795,0.9794203,-0.008290457,-0.012394802,0.2012799,0.9999974,-4.8194546e-05,4.8605143e-05,-0.0022946,2
13884000,-0.006381011,-0.0019458439,0.003918163,0.97941065,-0.008289755,-0.012358853,0.2013288,0.9999974,-4.8194546e-05,4.8605143e-05,-0.0022946,2
13916000,0.002232846,-0.00037491927,-0.007658206,0.97940755,-0.008254162,-0.0123514095,0.20134597,0.9999974,-4.8194546e-05,4.8605143e-05,-0.0022946,2
13948000,0.0058394107,0.00085115293,-0.0004962749,0.9794049,-0.008269846,-0.0123413745,0.20135882,0.9999974,-4.8194546e-05,4.8605143e-05,-0.0022946,2
13980000,-0.001796217,-0.0027465988,0.0013792999,0.9793994,-0.0082758125,-0.012340605,0.20138516,0.9999974,-4.8194546e-05,4.8605143e-05,-0.0022946,2
14012000,0.00023086497,-0.0042055426,0.002905411,0.9793976,-0.008218949,-0.01234719,0.20139655,0.9999974,-4.8194546e-05,4.8605143e-05,-0.0022946,2
14048000,0.005978278,0.0009602173,-0.003758722,0.9794038,-0.008289801,-0.012347737,0.20136295,0.9999974,-4.8194546e-05,4.8605143e-05,-0.0022946,2
14076000,-0.002083221,0.0037668494,-0.0034878375,0.97939765,-0.008344757,-0.012300793,0.20139372,0.9999974,-4.8194546e-05,4.8605143e-05,-0.0022946,2
14108000,-0.00046197104,-0.0020151571,-0.0037853466,0.9794024,-0.008331278,-0.012243668,0.20137423,0.9999974,-4.8194546e-05,4.8605143e-05,-0.0022946,2
14140000,0.0010047845,0.00015557976,0.0026646694,0.9793986,-0.008384433,-0.012233327,0.20139131,0.9999974,-4.8194546e-05,4.8605143e-05,-0.0022946,2
14172000,0.0050700232,0.006024167,-0.00014671872,0.9793952,-0.008356006,-0.012223778,0.2014093,0.9999974,-4.8194546e-05,4.8605143e-05,-0.0022946,2
14204000,-0.0048778877,-0.00060192775,-0.0015464711,0.97939867,-0.008355083,-0.012204789,0.201394,0.9999974,-4.8194546e-05,4.8605143e-05,-0.0022946,2
14236000,-0.0013903833,0.0038346737,-0.0050702454,0.97940123,-0.0083782,-0.012235606,0.20137858,0.9999974,-4.8194546e-05,4.8605143e-05,-0.0022946,2
14268000,-0.0018275385,0.004947577,0.0014827824,0.9794098,-0.008363055,-0.01218784,0.20134076,0.9999974,-4.8194546e-05,4.8605143e-05,-0.0022946,2
14300000,0.004012361,-0.0042990753,0.0059782537,0.97940975,-0.008379606,-0.012220321,0.20133814,0.9999974,-4.8194546e-05,4.8605143e-05,-0.0022946,2
14332000,0.0047424114,-1.346739e-05,0.006563627,0.9794103,-0.00835868,-0.012187666,0.20133854,0.9999974,-4.8194546e-05,4.8605143e-05,-0.0022946,2
14364000,0.0030490854,0.0008420404,-0.0034578072,0.97941035,-0.008384397,-0.012116812,0.2013412,0.9999974,-4.8194546e-05,4.8605143e-05,-0.0022946,2
14396000,0.00066264404,-0.0013696565,-0.00017726173,0.9794111,-0.008386792,-0.012111695,0.20133764,0.9999974,-4.8194546e-05,4.8605143e-05,-0.0022946,2
14428000,0.0031146836,-0.0017875172,0.0034442905,0.97941715,-0.008373054,-0.012110057,0.20130901,0.9999974,-4.8194546e-05,4.8605143e-05,-0.0022946,2
14460000,0.00062141503,-0.004567068,0.00624005,0.9794119,-0.008358326,-0.012146192,0.20133314,0.9999974,-4.8194546e-05,4.8605143e-05,-0.0022946,2
14492000,0.002549955,0.009509356,0.008523139,0.9794107,-0.00836627,-0.012114825,0.20134021,0.9999974,-4.8194546e-05,4.8605143e-05,-0.0022946,2
14524000,0.0062924083,0.0011455612,0.0017453029,0.97942287,-0.008311967,-0.012096579,0.20128465,0.9999974,-4.8194546e-05,4.8605143e-05,-0.0022946,2
14556000,-0.0015423866,0.007244743,0.004421794,0.97941995,-0.008342734,-0.012067628,0.20129924,0.9999974,-4.8194546e-05,4.8605143e-05,-0.0022946,2
14592000,-0.005454287,-0.001210622,0.005083589,0.9794309,-0.0083782915,-0.01206474,0.20124435,0.9999974,-4.8194546e-05,4.8605143e-05,-0.0022946,2
14624000,0.003348934,0.00020367093,-0.0019623924,0.9794327,-0.008393993,-0.012083405,0.20123427,0.9999974,-4.8194546e-05,4.8605143e-05,-0.0022946,2
14652000,0.008741229,0.0021587752,0.0009858891,0.9794422,-0.008329819,-0.012065892,0.20119157,0.9999974,-4.8194546e-05,4.8605143e-05,-0.0022946,2
14684000,-0.00060296385,-0.00196843,0.0005020798,0.9794521,-0.008336614,-0.012146968,0.2011385,0.9999974,-4.8194546e-05,4.8605143e-05,-0.0022946,2
14720000,0.0041811103,-0.00026416732,-0.0018078488,0.9794608,-0.0083241165,-0.012127506,0.20109785,0.9999974,-4.8194546e-05,4.8605143e-05,-0.0022946,2
14748000,0.0018197556,-0.0059168474,-0.0024945787,0.979462,-0.008305779,-0.012132082,0.20109227,0.9999974,-4.8194546e-05,4.8605143e-05,-0.0022946,2
14780000,-0.00033649022,-0.004918697,0.0021211219,0.97946906,-0.00834368,-0.01215445,0.20105535,0.9999974,-4.8194546e-05,4.8605143e-05,-0.0022946,2
14812000,0.0041537927,-0.004400949,0.001437767,0.97947395,-0.008316107,-0.012148566,0.20103262,0.9999974,-4.8194546e-05,4.8605143e-05,-0.0022946,2
14844000,-0.0029395767,0.006878023,-0.0041287597,0.97946966,-0.008334102,-0.012144255,0.20105284,0.9999974,-4.8194546e-05,4.8605143e-05,-0.0022946,2
14880000,-0.0036902502,0.006783841,0.009610045,0.97946274,-0.0083162235,-0.012139645,0.20108792,0.9999974,-4.8194546e-05,4.8605143e-05,-0.0022946,2
14912000,-5.9825135e-05,-0.00049739936,-0.0014920827,0.97946167,-0.008325211,-0.012094232,0.20109542,0.9999974,-4.8194546e-05,4.8605143e-05,-0.0022946,2
14940000,0.0048036594,0.004128206,0.0017577548,0.9794628,-0.008325862,-0.0120773595,0.20109086,0.9999974,-4.8194546e-05,4.8605143e-05,-0.0022946,2
14976000,0.002673564,0.0019784477,0.0001377412,0.97945935,-0.008259591,-0.012026636,0.20111348,0.9999974,-4.8194546e-05,4.8605143e-05,-0.0022946,2
15004000,-0.0018168977,-0.0012045107,0.00237552,0.97946763,-0.008246487,-0.011993237,0.2010757,0.9999974,-4.8194546e-05,4.8605143e-05,-0.0022946,2
15036000,0.0055847047,0.0014877319,-0.0011067744,0.97946894,-0.0082204845,-0.012040655,0.2010672,0.9999974,-4.8194546e-05,4.8605143e-05,-0.0022946,2
15068000,-0.0057040476,0.00223771,0.002003921,0.97947025,-0.008222713,-0.012012653,0.20106252,0.9999974,-4.8194546e-05,4.8605143e-05,-0.0022946,2
15100000,-0.0024120673,0.0017110747,-0.0053930287,0.9794676,-0.008251563,-0.012006757,0.20107481,0.9999974,-4.8194546e-05,4.8605143e-05,-0.0022946,2
15132000,0.0039117266,-0.001791399,0.006593099,0.9794654,-0.008211863,-0.011981415,0.20108862,0.9999974,-4.8194546e-05,4.8605143e-05,-0.0022946,2
15164000,-0.003499733,-0.0028121714,-0.0040368615,0.9794587,-0.008161384,-0.011982802,0.20112349,0.9999974,-4.8194546e-05,4.8605143e-05,-0.0022946,2
15196000,-0.0022494155,0.005874549,-0.0045475876,0.9794545,-0.008187521,-0.011958071,0.201144,0.9999974,-4.8194546e-05,4.8605143e-05,-0.0022946,2
15228000,-0.0008997973,0.0003474024,-0.002408934,0.9794461,-0.008170875,-0.011927079,0.20118707,0.9999974,-4.8194546e-05,4.8605143e-05,-0.0022946,2
15264000,0.0027350695,0.006142548,-0.0051322603,0.9794448,-0.008205818,-0.011874531,0.20119537,0.9999974,-4.8194546e-05,4.8605143e-05,-0.0022946,2
15292000,0.0015115394,0.001715126,-0.0025159835,0.9794421,-0.008196177,-0.011821107,0.2012122,0.9999974,-4.8194546e-05,4.8605143e-05,-0.0022946,2
15324000,-0.0020554939,-0.0046174508,-0.0011979905,0.97943914,-0.008197133,-0.011815767,0.201227,0.9999974,-4.8194546e-05,4.8605143e-05,-0.0022946,2
15356000,-0.0012893006,-0.0033612964,-0.0029873808,0.97944236,-0.008183731,-0.011777173,0.20121378,0.9999974,-4.8194546e-05,4.8605143e-05,-0.0022946,2
15388000,-0.00091751805,-0.0018878104,0.0020075901,0.9794399,-0.008209959,-0.011754991,0.20122638,0.9999974,-4.8194546e-05,4.8605143e-05,-0.0022946,2
15420000,-0.004108634,0.006201182,0.005608495,0.97943306,-0.008205059,-0.011789503,0.20125745,0.9999974,-4.8194546e-05,4.8605143e-05,-0.0022946,2
15452000,0.0023105864,0.0048318235,0.005192123,0.9794402,-0.00823198,-0.011748592,0.20122379,0.9999974,-4.8194546e-05,4.8605143e-05,-0.0022946,2
15488000,0.0036108596,0.00019932725,0.001644509,0.9794375,-0.00822609,-0.011716477,0.20123935,0.9999974,-4.8194546e-05,4.8605143e-05,-0.0022946,2
15520000,-0.0043523367,-0.003164492,-0.0034177336,0.97943294,-0.008205105,-0.011705513,0.20126319,0.9999974,-4.8194546e-05,4.8605143e-05,-0.0022946,2
15552000,-0.0033084773,0.0041342466,0.002662137,0.9794282,-0.008223714,-0.011673405,0.2012876,0.9999974,-4.8194546e-05,4.8605143e-05,-0.0022946,2
15580000,0.0013110455,0.0006022565,-0.005765167,0.9794315,-0.008180149,-0.011663951,0.20127346,0.9999974,-4.8194546e-05,4.8605143e-05,-0.0022946,2
15612000,-0.0029352542,-0.00052595604,-0.0026467992,0.9794341,-0.008166172,-0.011664241,0.20126183,0.9999974,-4.8194546e-05,4.8605143e-05,-0.0022946,2
15644000,-0.004237234,0.008644772,-0.0056474563,0.979427,-0.008191527,-0.0116173215,0.20129804,0.9999974,-4.8194546e-05,4.8605143e-05,-0.0022946,2
15676000,-0.0015982845,-0.0011463412,0.005840755,0.97941726,-0.008241048,-0.011607043,0.20134379,0.9999974,-4.8194546e-05,4.8605143e-05,-0.0022946,2
15712000,-0.0024234806,0.007905152,0.0045898515,0.97940403,-0.008285682,-0.011580738,0.20140736,0.9999974,-4.8194546e-05,4.8605143e-05,-0.0022946,2
15744000,0.0065870984,0.0015880126,-0.00067596434,0.97939706,-0.00827812,-0.011585846,0.20144175,0.9999974,-4.8194546e-05,4.8605143e-05,-0.0022946,2
15772000,0.0015008389,0.0069219917,-0.0067959945,0.979397,-0.0082990285,-0.011537667,0.20144373,0.9999974,-4.8194546e-05,4.8605143e-05,-0.0022946,2
15804000,0.0020496834,0.0021478925,0.0028650144,0.97940254,-0.0083198575,-0.011507678,0.20141776,0.9999974,-4.8194546e-05,4.8605143e-05,-0.0022946,2
15836000,0.0009814474,-0.000235565,0.001108334,0.9793924,-0.008327934,-0.011471039,0.20146872,0.9999974,-4.8194546e-05,4.8605143e-05,-0.0022946,2
15868000,-0.0027695608,-0.0045540133,-0.0022569336,0.9793903,-0.008366173,-0.011440225,0.20147903,0.9999974,-4.8194546e-05,4.8605143e-05,-0.0022946,2
15900000,0.002539566,-0.0027910615,0.0006018441,0.979389,-0.008416557,-0.011437652,0.20148341,0.9999974,-4.8194546e-05,4.8605143e-05,-0.0022946,2
15932000,0.0039396826,-0.0051365597,0.002813527,0.97939366,-0.008363481,-0.011427676,0.20146354,0.9999974,-4.8194546e-05,4.8605143e-05,-0.0022946,2
15964000,-0.005023241,0.0070290733,0.0008569006,0.97938395,-0.008429002,-0.011405605,0.20150931,0.9999974,-4.8194546e-05,4.8605143e-05,-0.0022946,2
15996000,-0.003987336,0.0011345772,-0.0056016594,0.97938585,-0.008439436,-0.011445001,0.20149745,0.9999974,-4.8194546e-05,4.8605143e-05,-0.0022946,2
16028000,0.004409612,-0.005642265,-0.0042986027,0.9793888,-0.0084635345,-0.01142633,0.20148323,0.9999974,-4.8194546e-05,4.8605143e-05,-0.0022946,2
16060000,-0.004356951,1.49626285e-05,-0.0024353964,0.9793907,-0.008503421,-0.011448962,0.20147085,0.9999974,-4.8194546e-05,4.8605143e-05,-0.0022946,2
16092000,-0.008403547,-0.0023737503,0.0040385863,0.97938067,-0.008495327,-0.011434672,0.20152098,0.9999974,-4.8194546e-05,4.8605143e-05,-0.0022946,2
16124000,0.0024234746,0.002577632,0.0069932207,0.97937864,-0.008477015,-0.011371982,0.20153517,0.9999974,-4.8194546e-05,4.8605143e-05,-0.0022946,2
16156000,0.0049614157,-0.0014727903,0.00084369536,0.9793768,-0.008452221,-0.011379617,0.2015447,0.9999974,-4.8194546e-05,4.8605143e-05,-0.0022946,2
16188000,0.0031078747,0.0011384715,-0.0013517423,0.9793753,-0.008397084,-0.011335444,0.20155673,0.9999974,-4.8194546e-05,4.8605143e-05,-0.0022946,2
16220000,-0.003053743,0.003129983,0.00470761,0.9793697,-0.008435982,-0.011346153,0.20158152,0.9999974,-4.8194546e-05,4.8605143e-05,-0.0022946,2
16252000,-0.00030933484,0.0070878784,-0.00015894396,0.97937024,-0.008465333,-0.011333396,0.20157865,0.9999974,-4.8194546e-05,4.8605143e-05,-0.0022946,2
16288000,0.0010544611,-0.0016348227,-0.009528854,0.97936964,-0.008457545,-0.011284845,0.20158453,0.9999974,-4.8194546e-05,4.8605143e-05,-0.0022946,2
