timestamp,x,y,z,yaw,yawspeed,vx,vy,vz,acc_x,acc_y,acc_z,jerk_x,jerk_y,jerk_z,thrust[0],thrust[1],thrust[2]
253172000,-0.024166754,-0.0050589177,-0.84274125,0.41969922,nan,-8.5433385e-06,-0.0006875491,-1.5027124,-0.0062990612,-0.013050266,0.31593132,0.0,0.81439626,-10.0,nan,nan,nan
253364000,-0.024136234,-0.0052453633,-1.1291218,0.41969922,nan,0.00085414486,-0.0011108451,-1.4996237,0.067086995,0.020309657,-0.08877953,0.0,-1.2662767,5.5352716,nan,nan,nan
253556000,-0.023947395,-0.005449338,-1.4143598,0.41969922,nan,-0.0011733755,-0.0004407757,-1.5014865,-0.07021217,0.06012655,-0.019204102,10.0,0.0,0.0,nan,nan,nan
253772000,-0.023705961,-0.005510746,-1.7342955,0.41969922,nan,0.0008940665,-0.00014856382,-1.4997308,-0.07054491,-0.019777846,0.061501004,0.0,0.0,0.0,nan,nan,nan
253964000,-0.023740062,-0.0057054623,-2.0184884,0.41969922,nan,0.0011623558,-0.00022899026,-1.5002793,-0.03603229,-0.01763548,-0.0093871495,2.2361515,1.0944518,0.0,nan,nan,nan
254176000,-0.023649292,-0.005814372,-2.3305943,0.41969922,nan,0.0012919537,-0.00035400863,-1.500095,-0.06945443,-0.012871062,0.0,-2.0000002,0.0,0.0,nan,nan,nan
254372000,-0.023593076,-0.005980365,-2.6178071,0.41969922,nan,-0.0006708176,4.594298e-05,-1.500095,0.020969618,0.02434626,0.0,0.0,0.0,0.0,nan,nan,nan
254564000,-0.023587806,-0.006092039,-2.8994536,0.41969922,nan,0.00033677858,-0.0008361981,-1.500095,-0.014134502,-0.009306203,0.0,0.87376004,0.0,0.0,nan,nan,nan
254776000,-0.02358279,-0.006193844,-3.2094955,0.41969922,nan,0.0003352029,4.245013e-05,-1.500095,0.020695565,-0.018349638,0.0,0.0,-2.0000002,0.0,nan,nan,nan
254972000,-0.023546305,-0.0062574665,-3.4940035,0.41969922,nan,0.000894665,-0.00043097674,-1.500095,-0.015072906,-0.06819573,0.0,0.0,0.0,0.0,nan,nan,nan
255164000,-0.023554854,-0.0065313205,-3.7744944,0.41969922,nan,-0.00015246244,-0.0024669105,-1.500095,-0.04778284,-0.0797766,0.0,0.0,10.0,0.0,nan,nan,nan
255376000,-0.023581292,-0.006574248,-4.084974,0.41969922,nan,-0.00088794087,0.0022438776,-1.500095,-0.015053781,0.0015199408,0.0,0.0,-2.0000002,0.0,nan,nan,nan
255572000,-0.023570199,-0.0066604684,-4.3683105,0.41969922,nan,0.00016105062,0.00021450894,-1.500095,0.018890556,0.033160426,0.0,-1.1637955,0.0,0.0,nan,nan,nan
255764000,-0.023532663,-0.0067296275,-4.6454396,0.41969922,nan,0.0016076622,-1.0980598e-05,-1.500095,-0.008191291,-0.00050297007,0.0,0.0,0.0,0.0,nan,nan,nan
255976000,-0.02358161,-0.006742613,-4.9551253,0.41969922,nan,0.0028007464,-0.00011481524,-1.500095,0.001469776,-0.00050297007,0.0,-2.0000002,0.0,0.0,nan,nan,nan
256172000,-0.023581704,-0.006773518,-5.237415,0.41969922,nan,0.0017508537,-0.0002104095,-1.4526767,0.048875645,-0.00050297007,0.4251305,0.0,0.0,0.0,nan,nan,nan
256364000,-0.023570562,-0.006820901,-5.4977765,0.41969922,nan,0.0011448273,-0.00030342067,-1.3690166,-0.08605051,-0.0005076637,0.46263078,0.0,0.0,-10.0,nan,nan,nan
256556000,-0.023672555,-0.0068867602,-5.7470117,0.41969922,nan,0.0026157731,-0.00039926506,-1.288032,-0.07108638,-0.0005124316,0.46263772,2.9619324,0.0,-10.0,nan,nan,nan
256772000,-0.023714062,-0.006981138,-6.0075245,0.41969922,nan,0.00088048365,-0.0005055531,-1.216309,-0.03370476,-0.00050900376,0.37526634,2.074754,0.0,0.0,nan,nan,nan
256984000,-0.023723895,-0.007095473,-6.2486167,0.41969922,nan,-0.0002964195,-0.00060989946,-1.135648,-0.07708655,-0.00050900376,0.41283566,-2.0000002,0.0,2.0000002,nan,nan,nan
257180000,-0.023704614,-0.0071385507,-6.458223,0.41969922,nan,0.0019155031,0.0005062511,-1.07029,-0.046599254,-0.0075029247,0.2928313,0.0,0.0,-10.0,nan,nan,nan
257371999,-0.023693569,-0.0071841013,-6.652366,0.41969922,nan,0.0021992484,7.045037e-06,-1.0122981,-0.014797915,-0.00982656,0.29280394,0.0,0.0,-10.0,nan,nan,nan
257587999,-0.023639848,-0.0072678667,-6.8563046,0.41969922,nan,-0.00051486783,-0.00019455359,-0.9475266,-0.07125556,-0.00942731,0.2905487,0.0,0.5891332,-10.0,nan,nan,nan
257780000,-0.023548929,-0.0072963685,-7.028412,0.41969922,nan,0.0020921803,0.0004042609,-0.89608437,-0.024873648,-0.013094361,0.29057452,0.0,0.0,-10.0,nan,nan,nan
257996000,-0.023661556,-0.007502817,-7.211518,0.41969922,nan,-0.003159129,-0.002359926,-0.84626204,-0.024872214,-0.013089529,0.29058263,4.967054e-05,4.967054e-05,10.0,nan,nan,nan
258188000,-0.023783298,-0.008084365,-7.3662996,0.41969922,nan,-0.0033070138,-0.0010851984,-0.79278666,0.034843564,0.06336062,0.2506093,0.0,0.0,-10.0,nan,nan,nan
258400000,-0.023660252,-0.007973834,-7.5256763,0.41969922,nan,0.0014949151,-8.728508e-05,-0.74473435,0.079898,0.028006833,0.2490241,0.0,2.0000002,2.0000002,nan,nan,nan
258596000,-0.0234675,-0.007930043,-7.6640325,0.41969922,nan,-0.00042491392,0.00045422828,-0.7059566,-0.08433469,0.0020316541,0.17054534,10.0,0.0,-10.0,nan,nan,nan
258787999,-0.023524389,-0.007902236,-7.794538,0.41969922,nan,0.000827932,-0.0005492669,-0.6678662,-0.05595138,0.00822911,0.21055631,0.0,0.0,-10.0,nan,nan,nan
259003999,-0.023472564,-0.007975673,-7.9312954,0.41969922,nan,-0.0010547645,0.00024313186,-0.62154907,-0.06560676,0.051859833,0.16943815,0.0,0.0,-10.0,nan,nan,nan
259196000,-0.023534434,-0.007958249,-8.046088,0.41969922,nan,-0.000785392,0.0003829022,-0.5892073,-0.07944551,0.013281099,0.15143046,0.0,0.0,-9.464404,nan,nan,nan
259412000,-0.023563745,-0.008221857,-8.168144,0.41969922,nan,0.0037438013,-0.0039812736,-0.5490715,0.040553395,-0.026711838,0.19452256,-4.967054e-05,4.967054e-05,4.967054e-05,nan,nan,nan
259604000,-0.023535565,-0.008279821,-8.269469,0.41969922,nan,0.0010265812,0.0016362922,-0.5236972,0.046384692,-0.03255658,0.19452256,0.0,0.0,-8.105106,nan,nan,nan
259816000,-0.023376616,-0.008261684,-8.374834,0.41969922,nan,0.00075978023,0.00034633547,-0.48759165,0.011719238,-0.024690596,0.15882748,-2.0000002,-2.0000002,2.0000002,nan,nan,nan
260012000,-0.023374384,-0.008304171,-8.466662,0.41969922,nan,0.0009979005,-0.0014329838,-0.46069083,-0.030951872,0.018391374,0.13871077,0.0,0.0,-8.618614,nan,nan,nan
260204000,-0.023341583,-0.008354149,-8.551184,0.41969922,nan,0.00078125385,-0.00047052288,-0.4339129,0.009160875,0.044502035,0.125052,0.0,-2.764866,-10.0,nan,nan,nan
260419999,-0.023281539,-0.0083099045,-8.640377,0.41969922,nan,-0.0009877196,0.00025756203,-0.40738836,-0.048721656,-0.017279666,0.12389769,0.0,1.0798441,-7.7426376,nan,nan,nan
260612000,-0.023380248,-0.0082993265,-8.715696,0.41969922,nan,-0.0012025799,2.591624e-05,-0.3849732,0.01801711,-0.019483767,0.09744243,0.0,0.0,-6.0897717,nan,nan,nan
260828000,-0.023455992,-0.008319795,-8.79519,0.41969922,nan,-0.0023186305,-0.0013475851,-0.36073142,-0.017784838,-0.025634907,0.1109913,4.967054e-05,4.967054e-05,4.967054e-05,nan,nan,nan
261020000,-0.02406764,-0.008636259,-8.862404,0.41969922,nan,0.0029075395,0.005251299,-0.33942026,0.22222233,-0.025628954,0.111000836,-10.0,0.0,-10.0,nan,nan,nan
261232000,-0.023848927,-0.0082892915,-8.931087,0.41969922,nan,0.00052049244,-0.0024329817,-0.32002375,0.060262572,0.0155832395,0.1351964,0.0,2.0000002,2.0000002,nan,nan,nan
261428000,-0.0237608,-0.008254234,-8.990476,0.41969922,nan,0.0015217098,-0.0010025922,-0.3013406,0.0263362,-0.009771373,0.071950614,0.0,0.0,-10.0,nan,nan,nan
261620000,-0.023852304,-0.008289123,-9.046054,0.41969922,nan,0.0011545555,-0.00055028935,-0.28455216,0.06409229,0.01882593,0.07197444,0.0,-1.1669383,-10.0,nan,nan,nan
261835999,-0.023734307,-0.0083108535,-9.104307,0.41969922,nan,0.001217445,-9.793697e-05,-0.2671456,0.0043123662,0.016172348,0.07197629,0.0,-1.0021676,0.0,nan,nan,nan
262027999,-0.023760805,-0.00827956,-9.1531,0.41969922,nan,0.00036520057,0.0005897329,-0.2522462,-0.028567724,0.017775103,0.071977906,1.7699891,0.0,0.0,nan,nan,nan
262240000,-0.023773206,-0.008214692,-9.203927,0.438068,nan,0.0018700131,0.0026523531,-0.23972657,0.25425887,0.22320205,-0.16801973,10.0,10.0,-10.0,nan,nan,nan
262436000,-0.0077773384,0.0073777083,-9.249915,0.592006,nan,0.2271121,0.22204527,-0.23807223,2.1376364,2.1065795,0.025109189,0.0,10.0,0.0,nan,nan,nan
262648000,0.07864758,0.10150599,-9.295668,0.7585104,nan,0.6492193,0.7546948,-0.22267991,2.1737487,2.9713943,0.064527415,2.0000002,0.0,2.0000002,nan,nan,nan
262844000,0.21951772,0.2710787,-9.332224,0.8977782,nan,1.0214676,1.2559054,-0.2110819,2.209502,2.9713943,0.06087848,0.0,0.0,0.0,nan,nan,nan
263036000,0.39916667,0.49482566,-9.363429,0.897804,nan,1.3568729,1.7049865,-0.20173983,2.240549,2.9713943,0.082116134,0.0,0.0,0.0,nan,nan,nan
263251999,0.64029145,0.79974216,-9.394422,0.89784557,nan,1.7092711,2.172334,-0.19236335,2.240549,2.9713943,0.05427197,0.0,0.0,0.0,nan,nan,nan
263443999,0.8872027,1.1146383,-9.419484,0.89787155,nan,2.006998,2.567176,-0.18527961,2.240549,2.9713943,0.058901194,0.0,0.0,-3.4013975,nan,nan,nan
263656000,1.1981221,1.5134149,-9.44543,0.89785206,nan,2.328982,2.9933653,-0.17692757,2.267606,2.9713943,0.059229214,0.0,0.0,0.0,nan,nan,nan
263852000,1.5263261,1.9357432,-9.468376,0.89778435,nan,2.6291888,3.3867457,-0.16952258,2.267609,2.9713972,0.059238933,0.0,0.0,0.0,nan,nan,nan
264068000,1.939041,2.46551,-9.492752,0.8976317,nan,2.9597998,3.7632964,-0.16077949,2.1026816,1.9864349,0.0592316,0.0,-10.0,-4.967054e-05,nan,nan,nan
264260000,2.3510525,2.9847462,-9.514021,0.89743453,nan,3.1873822,3.9863431,-0.15811084,1.2387269,1.1484691,0.052850977,-10.0,-10.0,-3.0640361,nan,nan,nan
264452000,2.7974434,3.5403209,-9.535165,0.8972449,nan,3.2631447,4.049674,-0.15000288,-0.13856539,-0.22882333,0.04436085,-10.0,-10.0,0.0,nan,nan,nan
264668000,3.3110883,4.179888,-9.558579,0.8970893,nan,3.1378026,3.9362724,-0.14291078,-0.87028,-0.87645483,0.04436085,10.0,0.0,0.0,nan,nan,nan
264859999,3.7668743,4.7529383,-9.57914,0.89697635,nan,3.0953903,3.8898106,-0.13650563,0.2933466,0.35220218,0.058459956,0.0,0.0,0.0,nan,nan,nan
265075999,4.2943892,5.4148393,-9.601713,0.89682114,nan,3.114116,3.9077063,-0.12974507,-0.09281416,0.03555192,0.046175968,0.0,0.0,0.0,nan,nan,nan
265268000,4.7670975,6.007734,-9.620985,0.8967078,nan,3.1173058,3.9099905,-0.12416023,-0.07640715,-0.011182345,0.039080456,3.1836312,0.46593106,0.0,nan,nan,nan
265484000,5.30265,6.6796713,-9.641749,0.89655364,nan,3.1150904,3.908069,-0.11744182,-0.0767778,-0.011174754,0.03908709,0.0,4.967054e-05,-4.967054e-05,nan,nan,nan
265676000,5.780672,7.2790575,-9.659322,0.89640504,nan,3.1151655,3.9076846,-0.11276987,-0.03304626,0.0529913,-0.021162778,0.0,0.0,1.2539482,nan,nan,nan
265868000,6.2597513,7.880254,-9.676231,0.8962862,nan,3.1164644,3.9079783,-0.10798681,-0.0071100653,-0.056876518,-0.038876902,0.4216613,0.0,0.0,nan,nan,nan
266084000,6.799552,8.557398,-9.694465,0.89619863,nan,3.1167467,3.9094305,-0.10227814,-0.033022724,0.059639372,0.017225184,1.957291,-3.534887,-1.0209544,nan,nan,nan
266275999,7.276747,9.156197,-9.70974,0.8960675,nan,3.116674,3.9096189,-0.0974617,-0.005698597,0.037916664,0.0070680343,0.0,0.0,0.0,nan,nan,nan
266491999,7.8104944,9.825906,-9.726011,0.8958961,nan,3.1157997,3.9102848,-0.092374474,-0.0048125912,0.03518621,0.055001397,0.0,0.0,0.0,nan,nan,nan
266684000,8.282943,10.418721,-9.739731,0.8957434,nan,3.116058,3.9102461,-0.08853737,0.0191766,0.005578897,0.03585782,-1.1339554,0.0,-2.1203532,nan,nan,nan
266900000,8.815461,11.086791,-9.754557,0.89559287,nan,3.1150324,3.9071789,-0.08591937,-0.010567375,-0.022063505,0.0074461005,4.967054e-05,4.967054e-05,4.967054e-05,nan,nan,nan
267092000,9.2900505,11.682184,-9.767563,0.895479,nan,3.1134226,3.9129012,-0.08478405,-0.010559806,0.168496,0.0074536703,0.0,-10.0,0.0,nan,nan,nan
267304000,9.815621,12.341801,-9.780735,0.8953851,nan,3.1174326,3.9085655,-0.07740317,-0.056108247,0.05580279,-0.0061310194,-2.0000002,2.0000002,2.0000002,nan,nan,nan
267500000,10.304548,12.95532,-9.792423,0.89529943,nan,3.1160495,3.910208,-0.07283565,-0.04122281,0.033196848,0.0071209166,2.4472766,-1.970799,-0.42274782,nan,nan,nan
267692000,10.78674,13.560384,-9.803394,0.8952279,nan,3.115688,3.9103584,-0.06920618,-0.008166321,0.004201303,0.00601146,0.0,0.0,0.0,nan,nan,nan
267907999,11.332906,14.245705,-9.815226,0.8951723,nan,3.1160126,3.9096994,-0.06516506,0.018861944,-0.025610337,0.026515707,-1.1229926,0.0,0.0,nan,nan,nan
268099999,11.821714,14.859064,-9.825285,0.89514005,nan,3.1167104,3.9096167,-0.06264158,0.019327534,0.01020452,0.006299313,0.0,0.0,0.0,nan,nan,nan
268316000,12.375384,15.553797,-9.836111,0.89511126,nan,3.115843,3.909398,-0.0586401,-0.010380051,-0.02582703,0.031586427,4.967054e-05,4.967054e-05,-4.967054e-05,nan,nan,nan
268508000,12.87011,16.174429,-9.845088,0.8950915,nan,3.1158888,3.9103901,-0.056732446,0.01905146,0.0889269,-0.05683224,-1.1386936,-5.3151035,3.3968263,nan,nan,nan
268700000,13.367404,16.798592,-9.853957,0.8951023,nan,3.1157458,3.9099805,-0.053824276,0.017975677,0.029570017,-0.030430846,-1.0760809,-1.7701548,1.8216867,nan,nan,nan
268912000,13.920707,17.49291,-9.863317,0.89513165,nan,3.1162555,3.910347,-0.051263858,-0.021048874,-0.037354488,0.0065861903,-2.0000002,-2.0000002,0.0,nan,nan,nan
269108000,14.435367,18.138683,-9.871566,0.89516336,nan,3.1155782,3.910363,-0.048689246,-0.009010043,0.002551511,0.031679004,0.0,0.0,-1.9019878,nan,nan,nan
269300000,14.94281,18.775473,-9.879304,0.89521873,nan,3.1164732,3.9103394,-0.04645425,-0.013410371,0.00543869,0.0042894576,0.0,0.0,-0.25791964,nan,nan,nan
269512000,15.507454,19.484072,-9.887469,0.8953069,nan,3.1156554,3.910526,-0.044107996,0.0154455565,-0.03162199,0.005562987,2.0000002,-2.0000002,0.0,nan,nan,nan
269708000,16.03346,20.144096,-9.894691,0.8954105,nan,3.1170447,3.9105847,-0.04156058,0.018609233,0.0056385696,0.03896255,0.0,0.0,0.0,nan,nan,nan
269900000,16.55274,20.795721,-9.901441,0.89552444,nan,3.1172385,3.910497,-0.039352458,-0.0074150823,0.0073287487,-0.03095984,0.0,0.0,1.8705138,nan,nan,nan
270112000,17.130444,21.520777,-9.908641,0.8956453,nan,3.1178403,3.9105947,-0.03747035,-0.012274656,0.010069262,0.052223295,-2.0000002,0.0,2.0000002,nan,nan,nan
270308000,17.667635,22.194878,-9.91491,0.89576393,nan,3.1167154,3.9105968,-0.035844155,-0.026412997,-0.029547893,-0.015384572,0.0,0.0,0.0,nan,nan,nan
270500000,18.197023,22.859089,-9.920794,0.8958899,nan,3.1182563,3.9104843,-0.03315039,-0.026628654,0.004836599,0.016357522,0.0,0.0,0.0,nan,nan,nan
270712000,18.784916,23.596909,-9.927001,0.8960308,nan,3.1162546,3.9102092,-0.0306064,-0.04873228,0.010303577,-0.02578988,-2.0000002,0.0,-2.0000002,nan,nan,nan
270908000,19.33069,24.281794,-9.932492,0.89617205,nan,3.1155074,3.9102497,-0.030392017,-0.04590316,0.040615357,0.03857043,0.0,-2.4655282,-2.3413923,nan,nan,nan
271100000,19.867605,24.955603,-9.937592,0.89630973,nan,3.1158292,3.9105456,-0.029485945,-0.008240539,0.05735976,0.0032089949,0.0,-3.4838166,0.0,nan,nan,nan
271312000,20.462788,25.70259,-9.942944,0.89645916,nan,3.115379,3.9118693,-0.027241211,-0.01087106,-0.0058544204,-0.00898377,0.0,-2.0000002,0.0,nan,nan,nan
271508000,21.014435,26.394827,-9.947641,0.8966048,nan,3.1156313,3.9113972,-0.02583699,-0.012937809,-0.011594854,0.036362197,0.0,0.0,-2.2103555,nan,nan,nan
271700000,21.55656,27.075218,-9.952003,0.8967398,nan,3.1155205,3.9106376,-0.024872867,0.01606905,-0.011439744,0.008716047,-0.9771579,0.6956501,0.0,nan,nan,nan
271912000,22.156866,27.828617,-9.956608,0.89687777,nan,3.1168609,3.9104264,-0.023970794,0.06279059,-0.05078716,-0.0038088486,0.0,-2.0000002,2.0000002,nan,nan,nan
272108000,22.711859,28.525177,-9.960601,0.89699405,nan,3.1137595,3.9112449,-0.021589397,0.041113514,-0.047335006,0.027337704,0.0,0.0,0.0,nan,nan,nan
272300000,23.255123,29.206898,-9.964302,0.8971079,nan,3.1141155,3.910842,-0.020700075,-0.0011387803,-0.008402556,0.0022030491,0.0,0.0,0.0,nan,nan,nan
272512000,23.850569,29.954094,-9.968156,0.8972247,nan,3.1147525,3.9108043,-0.019120999,0.008583106,-0.011950307,0.00822882,2.0000002,-2.0000002,-2.0000002,nan,nan,nan
272708000,24.394932,30.637283,-9.971484,0.897332,nan,3.116658,3.9110322,-0.018762361,0.035274714,-0.014284737,0.00025133727,0.0,0.0,0.0,nan,nan,nan
272900000,24.92468,31.302134,-9.974571,0.8974179,nan,3.1167865,3.9106126,-0.018045755,0.02214938,0.016260684,-0.041450225,0.0,0.0,0.0,nan,nan,nan
273112000,25.50856,32.034893,-9.977817,0.89750385,nan,3.11594,3.9102304,-0.016617833,-0.04578212,-0.025465917,0.0016526645,-2.0000002,0.0,-0.738791,nan,nan,nan
273308000,26.048426,32.712444,-9.980634,0.8976029,nan,3.1152694,3.9100082,-0.015668927,0.03505757,0.013052389,0.042872284,0.0,0.0,0.0,nan,nan,nan
273500000,26.578999,33.37822,-9.983272,0.89770794,nan,3.1140244,3.9091368,-0.015557722,0.0119543895,0.015166916,0.027402692,0.0,0.0,-1.6571504,nan,nan,nan
273712000,27.167229,34.116455,-9.986125,0.89781404,nan,3.1160994,3.9110937,-0.015367195,0.028358966,0.0390981,0.071063146,0.0,0.0,2.0000002,nan,nan,nan
273908000,27.712948,34.801296,-9.988522,0.89788073,nan,3.1154678,3.9114962,-0.014810793,-0.0051230267,0.026114706,0.03869731,0.0,0.0,0.0,nan,nan,nan
274100000,28.250364,35.47589,-9.990787,0.8979228,nan,3.1152163,3.9107182,-0.012468111,0.0256298,-0.038074803,-0.008272797,0.0,0.0,0.0,nan,nan,nan
274312000,28.847273,36.22487,-9.99322,0.8979602,nan,3.1164963,3.9100049,-0.013360212,-0.008393012,0.041287415,0.016760487,-2.0000002,2.0000002,2.0000002,nan,nan,nan
274508000,29.401127,36.92,-9.995302,0.89800227,nan,3.1158886,3.9106305,-0.010683042,0.02969206,0.03870582,0.010281749,-1.8044902,0.0,0.0,nan,nan,nan
274700000,29.946253,37.60413,-9.997259,0.89802843,nan,3.1163774,3.9108784,-0.00876275,-0.0058406126,-0.03454732,0.0057729892,0.0,0.0,0.0,nan,nan,nan
274912000,30.55073,38.362743,-9.999276,0.89806795,nan,3.1154723,3.9100664,-0.008026837,-0.003943972,0.039484587,0.008107107,0.0,2.0000002,-2.0000002,nan,nan,nan
275108000,31.110868,39.065712,-10.001037,0.89810544,nan,3.1154046,3.9115884,-0.008699214,-0.0014803968,0.026669495,0.0097202435,0.0,0.0,0.0,nan,nan,nan
275300000,31.66097,39.756195,-10.002671,0.8981642,nan,3.1147969,3.91078,-0.0068422784,0.00020128489,-0.038796805,0.005351547,0.0,0.0,0.0,nan,nan,nan
275512000,32.269997,40.52057,-10.004341,0.89823514,nan,3.115966,3.910224,-0.0061665624,0.06217842,-0.005469158,0.0078617,2.0000002,0.0,-2.0000002,nan,nan,nan
275708000,32.833817,41.228043,-10.005901,0.89831835,nan,3.1165655,3.9095392,-0.007270202,-0.0031832121,-0.011175007,0.030865245,0.0,0.0,0.0,nan,nan,nan
275900000,33.387142,41.922462,-10.007291,0.89837337,nan,3.1161704,3.9095886,-0.007927188,-0.033231087,0.025318023,-0.034944944,2.0274518,-1.5446701,2.1320152,nan,nan,nan
276112000,33.999172,42.69051,-10.008811,0.8984365,nan,3.115206,3.9113536,-0.007990455,0.010007232,0.0047569387,0.0022540353,2.0000002,-2.0000002,2.0000002,nan,nan,nan
276308000,34.56575,43.40151,-10.010107,0.8984848,nan,3.1154296,3.9115636,-0.0068388805,-0.025075575,-0.009622686,0.0021977164,0.0,0.0,0.0,nan,nan,nan
276500000,35.12207,44.09969,-10.011295,0.89854556,nan,3.115917,3.9102383,-0.0064464966,0.016843133,-0.04816376,0.0021977164,0.0,2.942318,0.0,nan,nan,nan
276712000,35.737503,44.87207,-10.012561,0.8986185,nan,3.116452,3.909663,-0.00627848,0.015841685,0.03148292,0.035238244,0.0,2.0000002,2.0000002,nan,nan,nan
276908000,36.306595,45.58627,-10.013691,0.89868796,nan,3.1170886,3.9112563,-0.006455525,-0.028119244,0.01968449,0.02593476,0.0,0.0,-1.5853043,nan,nan,nan
277100000,36.864635,46.286736,-10.014782,0.8987174,nan,3.1181924,3.9117067,-0.0077098366,0.031496257,0.024342477,0.034911055,0.0,0.0,0.0,nan,nan,nan
277312000,37.482445,47.062073,-10.015853,0.8987494,nan,3.1149626,3.9109085,-0.0034278375,0.105689555,-0.01007854,-0.0062777773,10.0,0.0,-2.0000002,nan,nan,nan
277508000,38.05373,47.779114,-10.016749,0.89878756,nan,3.117795,3.9103603,-0.004304858,0.05224159,-0.010096064,-0.026240312,0.0,0.6177676,1.605617,nan,nan,nan
277700000,38.612797,48.480633,-10.0175905,0.89879805,nan,3.115685,3.9111788,-0.0030769228,0.033728495,-0.01902929,-0.03475361,0.0,0.0,0.0,nan,nan,nan
277912000,39.22515,49.24907,-10.018471,0.8988034,nan,3.1167662,3.909794,-0.0051312023,-0.033302743,-0.0046787187,0.026144464,-2.0000002,0.0,2.0000002,nan,nan,nan
278108000,39.786568,49.95359,-10.019202,0.89881223,nan,3.1157472,3.9106522,-0.004356374,-0.0204103,0.017774606,-0.009584131,0.0,0.0,0.0,nan,nan,nan
278300000,40.33429,50.641003,-10.019931,0.89881694,nan,3.1142595,3.910341,-0.004841107,-0.010159563,-0.015918247,-0.0064416565,0.0,0.0,0.0,nan,nan,nan
278512000,40.938408,51.399193,-10.020754,0.89881665,nan,3.1148026,3.9092872,-0.0059483056,0.025643416,0.027158074,0.033513844,2.0000002,2.0000002,2.0000002,nan,nan,nan
278708000,41.497047,52.100296,-10.021451,0.8988338,nan,3.1163406,3.9077563,-0.0020373282,0.015165711,-0.0107068755,0.03026066,0.0,0.0,0.0,nan,nan,nan
278900000,42.04593,52.78915,-10.022019,0.898838,nan,3.1161213,3.9094884,-0.0023991342,0.015664339,-0.031637765,0.0050504617,0.0,0.0,0.0,nan,nan,nan
279112000,42.65422,53.552658,-10.022625,0.8988346,nan,3.116358,3.9084241,-0.0014807272,0.016039021,-0.02559485,-0.03487467,0.0,2.0000002,-2.0000002,nan,nan,nan
279308000,43.2187,54.26102,-10.023152,0.89881635,nan,3.1162403,3.9099317,-0.0038528854,0.056121886,-0.027677199,-0.011223201,0.0,0.0,0.0,nan,nan,nan
279500000,43.77434,54.958355,-10.0236435,0.89879686,nan,3.1166565,3.909906,-0.0027533625,0.016980454,-0.024158847,-0.009813155,0.0,0.0,0.599496,nan,nan,nan
279712000,44.390686,55.7318,-10.0241995,0.8987718,nan,3.1159399,3.9100432,-0.0013373187,-0.0679945,0.017705452,-0.009897813,-2.0000002,0.0,-2.0000002,nan,nan,nan
279908000,44.962177,56.44911,-10.024796,0.8987369,nan,3.1151595,3.9108844,-0.0010517905,0.014381945,0.013539327,0.022898987,0.0,0.0,0.0,nan,nan,nan
280100000,45.524063,57.154263,-10.0253725,0.8986771,nan,3.1164243,3.9109933,-0.0017121523,-0.026929844,-0.019791665,0.09530901,0.0,0.0,0.0,nan,nan,nan
280312000,46.146767,57.935734,-10.025791,0.8985946,nan,3.115978,3.9095774,-0.0024714796,-0.020366516,-0.017593753,-0.07514709,0.0,2.0000002,-2.0000002,nan,nan,nan
280508000,46.72339,58.659378,-10.026311,0.89852774,nan,3.114837,3.910122,-0.0026909153,0.021238327,0.0148492865,-0.003932979,0.0,0.0,0.0,nan,nan,nan
280700000,47.289696,59.37014,-10.026687,0.8984814,nan,3.1157935,3.9107344,-0.00070258096,0.0125816,0.054998774,0.0226744,-0.7716779,0.0,0.0,nan,nan,nan
280912000,47.91638,60.15665,-10.026996,0.8984319,nan,3.1168635,3.9108179,-0.0010456124,-0.020831522,-0.015393067,-0.04969965,-2.0000002,0.0,-2.0000002,nan,nan,nan
281108000,48.49617,60.884304,-10.027427,0.8983738,nan,3.1157098,3.9100752,0.00013949699,0.021074008,-0.05554261,-0.0149712525,-1.2935663,0.0,0.0,nan,nan,nan
281300000,49.065693,61.59903,-10.027831,0.89832073,nan,3.115559,3.9091249,-0.00023651078,-0.0594065,-0.066638805,0.019918222,0.0,0.0,0.0,nan,nan,nan
281512000,49.696087,62.39,-10.028075,0.89824957,nan,3.1159198,3.910841,-0.00052723486,-0.019818736,0.11420666,-0.046230026,0.0,2.0000002,-2.0000002,nan,nan,nan
281708000,50.27922,63.12188,-10.028455,0.89815205,nan,3.1162965,3.9093974,-0.0015423509,-0.018959824,0.043054048,-0.04240176,1.1651149,-2.645748,2.6056638,nan,nan,nan
281900000,50.851254,63.83985,-10.028728,0.8980665,nan,3.1166155,3.9089184,-0.0011765399,-0.019720878,0.018087883,0.0011746641,0.0,0.0,0.0,nan,nan,nan
282116000,51.495235,64.647995,-10.02904,0.89799505,nan,3.1163023,3.9107678,-0.0010944933,-0.045782782,0.014646747,0.0012322906,2.814324,0.0,0.0,nan,nan,nan
282308000,52.06823,65.36722,-10.029314,0.8979249,nan,3.1156797,3.9105237,-0.0010395807,-0.013137447,-0.047117062,0.0011867154,0.0,2.8972642,0.0,nan,nan,nan
282500000,52.641983,66.08737,-10.029556,0.89787173,nan,3.115089,3.9112906,-0.0017957208,0.024018068,-0.05998035,0.0011658147,0.0,0.0,0.0,nan,nan,nan
282712000,53.27615,66.88321,-10.0298,0.8978315,nan,3.1162672,3.9092023,-0.0012168128,0.022423932,-0.02585812,-0.037405632,0.0,2.0000002,-2.0000002,nan,nan,nan
282908000,53.86171,67.61802,-10.030032,0.89782614,nan,3.1156118,3.9107158,-0.0007984205,-0.017893719,0.04829187,0.0011426248,0.0,0.0,0.0,nan,nan,nan
283100000,54.431847,68.33349,-10.030246,0.89781356,nan,3.115607,3.9113712,-0.0010403142,-0.014294815,0.0051657185,0.032210387,0.0,0.0,-1.9762971,nan,nan,nan
283312000,55.055428,69.116104,-10.030456,0.8977876,nan,3.1148536,3.9105256,-0.0005996262,0.029621199,-0.017817117,0.0017853845,2.0000002,0.0,-1.6135267,nan,nan,nan
283508000,55.627064,69.833565,-10.030622,0.89776385,nan,3.1142948,3.9095771,-0.00052093616,0.037923917,-0.017483594,-0.005289264,0.0,0.0,0.0,nan,nan,nan
283700000,56.1857,70.534744,-10.03069,0.89768976,nan,3.1161773,3.910191,-0.0012266742,0.05728408,0.038608298,-0.07743663,0.0,-2.3603487,0.0,nan,nan,nan
283912000,56.803055,71.309494,-10.030865,0.89755046,nan,3.1161475,3.9113667,-0.0010105128,-0.01318676,0.023462508,-0.08116412,-2.0000002,-2.0000002,-2.0000002,nan,nan,nan
284108000,57.37457,72.026794,-10.031165,0.89748317,nan,3.115427,3.9122553,-0.0017636052,-0.012840619,-0.0047576465,-0.0014945827,0.0,0.0,0.0,nan,nan,nan
284300000,57.936348,72.731834,-10.031266,0.8974288,nan,3.1157155,3.9106266,-0.0025202308,-0.014123894,-0.029941304,0.0003537722,0.0,1.8334527,0.0,nan,nan,nan
284512000,58.559216,73.51358,-10.031403,0.8972506,nan,3.116367,3.9102185,-0.00062932144,-0.026345544,0.037471153,-0.03655589,-2.0000002,2.0000002,-2.0000002,nan,nan,nan
284708000,59.13641,74.237976,-10.031524,0.8971081,nan,3.1162024,3.9107275,-0.0009100276,-0.04864563,0.030678213,-0.04377664,2.9835422,0.0,0.0,nan,nan,nan
284900000,59.70417,74.950516,-10.031582,0.8969657,nan,3.1164248,3.9098685,-0.0023592976,-0.04397513,-0.0060310815,-0.040667962,2.6997566,0.0,0.0,nan,nan,nan
285112000,60.33387,75.74083,-10.031723,0.89681166,nan,3.115838,3.911945,-0.0024010045,-0.0038199734,-0.012091141,-0.044466086,0.0,-2.0000002,2.0000002,nan,nan,nan
285308000,60.917423,76.47315,-10.032004,0.8966337,nan,3.1163588,3.9119601,-0.0011867022,0.028169764,0.021896787,0.030187331,0.0,0.0,-1.8565568,nan,nan,nan
285500000,61.490967,77.19294,-10.032096,0.89652264,nan,3.1163197,3.9119174,-0.0018959614,0.02451722,0.010594845,0.039077517,0.0,0.0,0.0,nan,nan,nan
285712000,62.126072,77.98997,-10.032166,0.8964004,nan,3.116577,3.9113686,-0.0009744365,-0.01656609,-0.027153403,0.00095431134,-2.0000002,-2.0000002,2.0000002,nan,nan,nan
285908000,62.714108,78.72806,-10.032267,0.8962633,nan,3.1163964,3.9125087,-0.000953736,-0.024174424,-0.03672609,0.0010429174,0.0,0.0,0.0,nan,nan,nan
286100000,63.29197,79.45334,-10.032362,0.89613825,nan,3.1151428,3.9132226,-0.0009466218,-0.018869687,0.005865056,0.00095976144,0.0,0.0,0.0,nan,nan,nan
286312000,63.931526,80.25622,-10.032455,0.89595044,nan,3.1155493,3.909253,-0.0009338646,0.01621788,-0.036873512,0.0009130798,0.0,2.0000002,2.0000002,nan,nan,nan
286508000,64.52365,80.99925,-10.032529,0.8958409,nan,3.1157925,3.9087336,-3.8919585e-05,0.014634752,-0.008347169,0.0008353591,-0.90399104,0.0,0.0,nan,nan,nan
286700000,65.10514,81.729065,-10.032615,0.89572006,nan,3.1160927,3.9080427,-0.00036946702,0.012635833,-0.049100026,0.03223288,0.0,0.0,-1.9926372,nan,nan,nan
286912000,65.74836,82.53623,-10.032644,0.8955784,nan,3.1153612,3.9082267,-0.00044109102,-0.028858777,-0.013831064,-0.00085666403,0.0,2.0000002,1.8571512,nan,nan,nan
287108000,66.34297,83.28252,-10.032647,0.8954006,nan,3.1158617,3.9088228,-0.0004143173,0.008260482,-0.042185877,-0.00073941424,-0.5111596,0.0,0.0,nan,nan,nan
287300000,66.92574,84.01392,-10.032641,0.8952127,nan,3.114626,3.9075203,-0.00037466787,-0.06336399,-0.2519868,-0.0007418059,-10.0,0.0,0.0,nan,nan,nan
287512000,67.56728,84.81724,-10.032649,0.89506555,nan,2.9668553,3.718277,-0.0009825389,-0.97260433,-1.1270459,0.0077112764,0.0,-2.0000002,2.0000002,nan,nan,nan
287708000,68.127594,85.52151,-10.032722,0.89487183,nan,2.7771075,3.5012455,-0.00089576957,-0.97260433,-1.0961276,-3.7252903e-09,0.0,10.0,0.0,nan,nan,nan
287900000,68.642876,86.17327,-10.032718,0.8949586,nan,2.5903666,3.2894282,-7.656969e-05,-0.97260433,-1.0561277,-0.031999998,0.0,10.0,2.0,nan,nan,nan
288112000,69.17287,86.84844,-10.0327425,0.8951015,nan,2.4316943,3.0846493,-0.0003005697,-0.49260423,-1.0161277,0.0,0.0,-2.0000002,0.0,nan,nan,nan
288308000,69.63977,87.434105,-10.032754,0.8950466,nan,2.3245027,2.8949287,-0.0006525697,-0.7726042,-0.8561276,-0.032,0.0,10.0,0.0,nan,nan,nan
288500000,70.071175,87.97444,-10.032818,0.894984,nan,2.1688836,2.7339928,1.0470307e-05,-0.81260425,-0.8161276,0.0,0.0,10.0,0.0,nan,nan,nan
288712000,70.51343,88.53523,-10.032818,0.89498955,nan,2.0174115,2.561294,1.0470307e-05,-0.41260418,-0.7361277,0.0,0.0,-2.0000002,0.0,nan,nan,nan
288908000,70.901535,89.0227,-10.032818,0.89477897,nan,1.9375006,2.4106922,1.0470307e-05,-0.65260416,-0.7761277,0.0,0.0,10.0,0.0,nan,nan,nan
289100000,71.26084,89.471214,-10.032818,0.89453536,nan,1.8049203,2.2647152,1.0470307e-05,-0.6926042,-0.69612765,0.0,0.0,10.0,0.0,nan,nan,nan
289312000,71.62961,89.936005,-10.032818,0.89460033,nan,1.6932881,2.1278563,1.0470307e-05,-0.29260415,-0.5361277,0.0,0.0,-2.0000002,0.0,nan,nan,nan
289508000,71.95434,90.34168,-10.032818,0.8949608,nan,1.6050575,2.0052545,1.0470307e-05,-0.61260414,-0.65612775,0.0,0.0,10.0,0.0,nan,nan,nan
289700000,72.25129,90.71453,-10.032818,0.8955869,nan,1.4905573,1.881278,1.0470307e-05,-0.4926041,-0.6161277,0.0,10.0,0.0,0.0,nan,nan,nan
289912000,72.56088,91.101944,-10.032818,0.8964232,nan,1.4216454,1.7740191,1.0470307e-05,-0.4926041,-0.53612775,0.0,0.0,-2.0000002,0.0,nan,nan,nan
290108000,72.83008,91.43976,-10.032818,0.89727235,nan,1.3250953,1.6728584,1.0470307e-05,-0.4926041,-0.49612775,0.0,0.0,10.0,0.0,nan,nan,nan
290300000,73.07701,91.75074,-10.032818,0.8981937,nan,1.2549154,1.5700017,1.0470307e-05,-0.29260415,-0.45612782,0.0,0.0,10.0,0.0,nan,nan,nan
290512000,73.33545,92.072914,-10.032818,0.89892495,nan,1.1772834,1.4690628,1.0470307e-05,-0.41260412,-0.4961278,0.0,0.0,-2.0000002,0.0,nan,nan,nan
290708000,73.55843,92.35216,-10.032818,0.89958954,nan,1.102493,1.3866218,1.0470307e-05,-0.25260416,-0.29612783,0.0,10.0,0.0,0.0,nan,nan,nan
290900000,73.76546,92.61163,-10.032818,0.8999443,nan,1.0534331,1.3111254,1.0470307e-05,-0.29260415,-0.49612778,0.0,0.0,0.0,0.0,nan,nan,nan
291112000,73.98026,92.87945,-10.032818,0.900319,nan,0.97228104,1.2205862,1.0470307e-05,-0.33260414,-0.3761278,0.0,0.0,0.0,0.0,nan,nan,nan
291308000,74.166435,93.112045,-10.032818,0.90115887,nan,0.9251936,1.1536769,1.0470307e-05,-0.3780833,-0.34090224,0.0,10.0,0.0,0.0,nan,nan,nan
291500000,74.33776,93.32715,-10.032818,0.9026677,nan,0.86748147,1.0901438,1.0470307e-05,-0.1380833,-0.3409022,0.0,10.0,0.0,0.0,nan,nan,nan
291712000,74.51731,93.55001,-10.032818,0.9045938,nan,0.8156477,1.0157924,1.0470307e-05,-0.3780833,-0.26090223,0.0,0.0,0.0,0.0,nan,nan,nan
291908000,74.67213,93.7435,-10.032818,0.90706104,nan,0.7686633,0.9594555,1.0470307e-05,-0.2580833,-0.22090222,0.0,0.0,10.0,0.0,nan,nan,nan
292100000,74.81527,93.923,-10.032818,0.9098033,nan,0.72599125,0.90632236,1.0470307e-05,-0.1780833,-0.30090222,0.0,0.0,10.0,0.0,nan,nan,nan
292312000,74.96397,94.10912,-10.032818,0.91332304,nan,0.68095756,0.8562911,1.0470307e-05,-0.1380833,-0.22090225,0.0,0.0,-2.0000002,0.0,nan,nan,nan
292508000,75.09392,94.271355,-10.032818,0.90924966,nan,0.6378132,0.79843426,1.0470307e-05,-0.2580833,-0.30090225,0.0,10.0,0.0,0.0,nan,nan,nan
292700000,75.217384,94.413925,-10.032818,0.7741612,nan,0.6696213,0.629141,1.0470307e-05,0.34191665,-1.8209021,0.0,0.0,-10.0,0.0,nan,nan,nan
292912000,75.36702,94.49198,-10.032818,0.60765684,nan,0.7421077,0.06446968,1.0470307e-05,0.34191665,-2.9809022,0.0,0.0,0.0,0.0,nan,nan,nan
293108000,75.519035,94.44737,-10.032818,0.45371884,nan,0.80912346,-0.5197872,1.0470307e-05,0.34191665,-2.9809022,0.0,0.0,0.0,0.0,nan,nan,nan
293300000,75.55832,94.41894,-10.032818,0.30292243,nan,0.8255625,-0.66310555,1.0470307e-05,0.34191665,-2.9809022,0.0,0.0,0.0,0.0,nan,nan,nan
293512000,75.58048,94.40017,-10.032818,0.13641796,nan,0.83469135,-0.74269456,1.0470307e-05,0.34191665,-2.9809022,0.0,0.0,0.0,0.0,nan,nan,nan
293708000,75.597755,94.38423,-10.032818,-0.017520083,nan,0.8417405,-0.8041519,1.0470307e-05,0.34191665,-2.9809022,0.0,0.0,0.0,0.0,nan,nan,nan
293900000,75.6281,94.35354,-10.032818,-0.16831656,nan,0.8539727,-0.91079515,1.0470307e-05,0.34191665,-2.9809022,0.0,0.0,0.0,0.0,nan,nan,nan
294112000,75.675064,94.2996,-10.032818,-0.334821,nan,0.87257254,-1.0729523,1.0470307e-05,0.34191665,-2.9809022,0.0,0.0,0.0,0.0,nan,nan,nan
294308000,75.72159,94.238815,-10.032818,-0.48875898,nan,0.8906213,-1.2303047,1.0470307e-05,0.34191665,-2.9809022,0.0,0.0,0.0,0.0,nan,nan,nan
294500000,75.7725,94.164474,-10.032818,-0.6395554,nan,0.90995735,-1.3988806,1.0470307e-05,0.34191665,-2.9809022,0.0,0.0,0.0,0.0,nan,nan,nan
294712000,75.823784,94.08181,-10.032818,-0.8060598,nan,0.92902946,-1.5651557,1.0470307e-05,0.34191665,-2.9809022,0.0,0.0,0.0,0.0,nan,nan,nan
294908000,75.89347,93.957825,-10.032818,-0.9599978,nan,0.95433336,-1.7857604,1.0470307e-05,0.34191665,-2.9809022,0.0,0.0,0.0,0.0,nan,nan,nan
295100000,75.969864,93.80757,-10.032818,-1.1107945,nan,0.98132306,-2.0210612,1.0470307e-05,0.34191665,-2.9809022,0.0,0.0,0.0,0.0,nan,nan,nan
295312000,76.067406,93.59583,-10.032818,-1.2772994,nan,1.0147368,-2.3123693,1.0470307e-05,0.34191665,-2.9809022,0.0,0.0,0.0,0.0,nan,nan,nan
295508000,76.15451,93.38947,-10.032818,-1.4312379,nan,1.0436742,-2.564652,1.0470307e-05,0.34191665,-2.9809022,0.0,0.0,0.0,0.0,nan,nan,nan
295700000,76.26072,93.11772,-10.032818,-1.4455687,nan,1.0779117,-2.8631434,1.0470307e-05,0.34191665,-2.9809022,0.0,0.0,0.0,0.0,nan,nan,nan
295912000,76.395546,92.74341,-10.032818,-1.4458431,nan,1.1092954,-3.2294157,1.0470307e-05,0.035307195,-2.9809022,0.0,-2.0000002,0.0,0.0,nan,nan,nan
296108000,76.51391,92.38158,-10.032818,-1.4460832,nan,1.1059558,-3.5477161,1.0470307e-05,-0.053524747,-2.9809022,0.0,0.0,0.0,0.0,nan,nan,nan
296300000,76.63395,91.97767,-10.032818,-1.4462771,nan,1.0985134,-3.8722458,1.0470307e-05,-0.084767744,-2.9809022,0.0,0.0,0.0,0.0,nan,nan,nan
296512000,76.76276,91.49978,-10.032818,-1.446393,nan,1.0824937,-4.2241507,1.0470307e-05,-0.17572401,-2.9809022,0.0,0.0,0.0,0.0,nan,nan,nan
296708000,76.88849,90.983696,-10.032818,-1.446411,nan,1.0590687,-4.566525,1.0470307e-05,-0.2418539,-2.5961607,0.0,0.0,10.0,0.0,nan,nan,nan
296900000,77.013336,90.42057,-10.032818,-1.446376,nan,1.0264118,-4.827435,1.0470307e-05,-0.33587465,-1.6001015,0.0,0.0,10.0,0.0,nan,nan,nan
297112000,77.15608,89.71813,-10.032818,-1.4462805,nan,0.96469486,-4.9540257,1.0470307e-05,-0.47112727,-0.16884935,0.0,0.0,10.0,0.0,nan,nan,nan
297308000,77.288536,89.02644,-10.032818,-1.4461106,nan,0.94371825,-4.9150944,1.0470307e-05,-0.08214982,0.32130983,0.0,0.0,-10.0,0.0,nan,nan,nan
297500000,77.42118,88.330215,-10.032818,-1.4458957,nan,0.9276308,-4.927115,1.0470307e-05,-0.16214983,0.08743859,0.0,0.0,0.0,0.0,nan,nan,nan
297712000,77.56365,87.56879,-10.032818,-1.4456562,nan,0.91445196,-4.9280605,1.0470307e-05,-0.14114206,0.15059397,0.0,0.0,10.0,0.0,nan,nan,nan
297908000,77.69119,86.87508,-10.032818,-1.4454811,nan,0.8985493,-4.9260135,1.0470307e-05,-0.052351546,-0.0604159,0.0,0.0,0.0,0.0,nan,nan,nan
298100000,77.81762,86.17729,-10.032818,-1.4453818,nan,0.8860939,-4.927861,1.0470307e-05,-0.069550656,-0.03876433,0.0,0.0,0.0,0.0,nan,nan,nan
298312000,77.95465,85.40928,-10.032818,-1.4452484,nan,0.87273425,-4.928852,1.0470307e-05,-0.050123703,0.0042563314,0.0,2.0000002,0.0,0.0,nan,nan,nan
298508000,78.07753,84.7111,-10.032818,-1.4451072,nan,0.862197,-4.9304447,1.0470307e-05,-0.067810185,-0.0069468226,0.0,0.0,0.39589146,0.0,nan,nan,nan
298700000,78.19336,84.044044,-10.032818,-1.4449679,nan,0.8512963,-4.930751,1.0470307e-05,-0.055748418,-0.00691662,0.0,0.0,0.0,0.0,nan,nan,nan
298912000,78.3279,83.25931,-10.032818,-1.4448328,nan,0.8395233,-4.933598,1.0470307e-05,-0.095369756,0.01681164,0.0,0.0,2.0000002,0.0,nan,nan,nan
299108000,78.44898,82.54327,-10.032818,-1.4447514,nan,0.8304659,-4.9338655,1.0470307e-05,-0.02872729,-0.0023135412,0.0,0.0,0.0,0.0,nan,nan,nan
299300000,78.568726,81.82706,-10.032818,-1.4447217,nan,0.819338,-4.935734,1.0470307e-05,-0.07452224,-0.01759535,0.0,0.0,1.0225917,0.0,nan,nan,nan
299512000,78.70034,81.02958,-10.032818,-1.4447172,nan,0.8098136,-4.936795,1.0470307e-05,-0.0015815981,-0.026747301,0.0,2.0000002,-2.0000002,0.0,nan,nan,nan
299708000,78.81866,80.30444,-10.032818,-1.4447454,nan,0.8004847,-4.936974,1.0470307e-05,-0.021934891,-0.008844359,0.0,0.0,0.0,0.0,nan,nan,nan
299900000,78.93502,79.583855,-10.032818,-1.4448006,nan,0.7928698,-4.9388337,1.0470307e-05,-0.07762653,0.025656242,0.0,0.0,0.0,0.0,nan,nan,nan
300112000,79.067024,78.75664,-10.032818,-1.4448793,nan,0.7832169,-4.9402943,1.0470307e-05,-0.038734335,0.021949062,0.0,2.0000002,0.0,0.0,nan,nan,nan
300308000,79.18548,78.00669,-10.032818,-1.4449663,nan,0.7756216,-4.941287,1.0470307e-05,-0.06761199,-0.009548627,0.0,0.0,0.561854,0.0,nan,nan,nan
300500000,79.30145,77.26563,-10.032818,-1.4450556,nan,0.77005106,-4.9423285,1.0470307e-05,-0.04743519,-0.00421168,0.0,2.7954526,0.24820292,0.0,nan,nan,nan
300712000,79.43234,76.420364,-10.032818,-1.445162,nan,0.76085794,-4.9438577,1.0470307e-05,-0.10499596,0.0011435654,0.0,0.0,0.0,0.0,nan,nan,nan
300908000,79.54972,75.65432,-10.032818,-1.4452688,nan,0.75555885,-4.945304,1.0470307e-05,-0.07588303,0.019765293,0.0,0.0,0.0,0.0,nan,nan,nan
301100000,79.66438,74.899506,-10.032818,-1.4453797,nan,0.748631,-4.946292,1.0470307e-05,-0.045892376,0.0045465976,0.0,0.0,0.0,0.0,nan,nan,nan
301312000,79.79017,74.06443,-10.032818,-1.4455005,nan,0.7431453,-4.947677,1.0470307e-05,-0.052026976,0.022313233,0.0,-2.0000002,2.0000002,0.0,nan,nan,nan
301508000,79.90613,73.287636,-10.032818,-1.4456242,nan,0.73686,-4.9476495,1.0470307e-05,-0.014472913,-0.024154551,0.0,0.0,0.0,0.0,nan,nan,nan
301700000,80.02241,72.502686,-10.032818,-1.4457556,nan,0.7305855,-4.9474063,1.0470307e-05,-0.018491179,-0.016194947,0.0,1.0953568,0.95933557,0.0,nan,nan,nan
301912000,80.14617,71.66059,-10.032818,-1.4459033,nan,0.72429717,-4.948431,1.0470307e-05,-0.05440183,0.013984241,0.0,0.0,2.0000002,0.0,nan,nan,nan
302108000,80.26016,70.879265,-10.032818,-1.4460498,nan,0.7188512,-4.948755,1.0470307e-05,-0.072374076,0.0070988303,0.0,0.0,-0.42083097,0.0,nan,nan,nan
302300000,80.374245,70.09185,-10.032818,-1.4462034,nan,0.71428835,-4.9491143,1.0470307e-05,-0.05285192,0.04784417,0.0,0.0,0.0,0.0,nan,nan,nan
302512000,80.49874,69.22678,-10.032818,-1.4463513,nan,0.710651,-4.948957,1.0470307e-05,-0.012897441,-0.019995332,0.0,0.0,-2.0000002,0.0,nan,nan,nan
302708000,80.61059,68.4442,-10.032818,-1.4464685,nan,0.7061361,-4.95041,1.0470307e-05,-0.016943797,-0.010690291,0.0,1.0048656,0.6339964,0.0,nan,nan,nan
302900000,80.72286,67.654366,-10.032818,-1.4465647,nan,0.7025141,-4.952004,1.0470307e-05,-0.048106145,0.009040147,0.0,0.0,0.0,0.0,nan,nan,nan
303112000,80.84568,66.78493,-10.032818,-1.4466779,nan,0.6979818,-4.9518785,1.0470307e-05,-0.07152912,0.011065636,0.0,-2.0000002,0.0,0.0,nan,nan,nan
303308000,80.9591,65.97749,-10.032818,-1.4468106,nan,0.69325244,-4.9519153,1.0470307e-05,-0.043659404,0.016866952,0.0,0.0,0.0,0.0,nan,nan,nan
303500000,81.06407,65.226616,-10.032818,-1.44691,nan,0.6898503,-4.952324,1.0470307e-05,-0.026017409,0.020379083,0.0,0.0,0.0,0.0,nan,nan,nan
303712000,81.182304,64.376114,-10.032818,-1.447024,nan,0.68791115,-4.952763,1.0470307e-05,0.0031812117,-0.014632746,0.0,-2.0000002,0.0,0.0,nan,nan,nan
303908000,81.29148,63.58734,-10.032818,-1.4471138,nan,0.6846995,-4.9537935,1.0470307e-05,0.010707525,-0.055122864,0.0,0.0,0.0,0.0,nan,nan,nan
304100000,81.39545,62.833126,-10.032818,-1.4471849,nan,0.6809458,-4.9539466,1.0470307e-05,0.019143239,0.006660601,0.0,0.0,0.0,0.0,nan,nan,nan
304312000,81.512764,61.97827,-10.032818,-1.4472703,nan,0.6792243,-4.9533634,1.0470307e-05,-0.0097310655,0.009009816,0.0,-2.0000002,-2.0000002,0.0,nan,nan,nan
304508000,81.62114,61.18518,-10.032818,-1.4473495,nan,0.6758189,-4.9539237,1.0470307e-05,-0.03632842,0.008337707,0.0,2.1601462,0.0,0.0,nan,nan,nan
304700000,81.729904,60.386333,-10.032818,-1.4474094,nan,0.67380714,-4.954945,1.0470307e-05,-0.029992035,-0.040662877,0.0,1.7837788,0.0,0.0,nan,nan,nan
304912000,81.84655,59.52638,-10.032818,-1.4474753,nan,0.67133385,-4.9559007,1.0470307e-05,-0.01723185,0.019985605,0.0,0.0,2.0000002,0.0,nan,nan,nan
305108000,81.95699,58.70899,-10.032818,-1.4475498,nan,0.6699433,-4.956078,1.0470307e-05,0.0029581785,0.019614499,0.0,0.0,0.0,0.0,nan,nan,nan
305300000,82.06514,57.90592,-10.032818,-1.4475906,nan,0.6674132,-4.955579,1.0470307e-05,0.044423778,-0.013160969,0.0,0.0,0.0,0.0,nan,nan,nan
305512000,82.18391,57.021244,-10.032818,-1.4476464,nan,0.66397226,-4.9553432,1.0470307e-05,0.06641285,-0.049734563,0.0,2.0000002,-2.0000002,0.0,nan,nan,nan
305708000,82.29412,56.198647,-10.032818,-1.4476886,nan,0.66178226,-4.9559083,1.0470307e-05,0.110618666,-0.007944819,0.0,-6.594924,0.47365856,0.0,nan,nan,nan
305900000,82.40191,55.39053,-10.032818,-1.4477404,nan,0.661176,-4.956146,1.0470307e-05,0.076581016,-0.023035694,0.0,0.0,1.3739461,0.0,nan,nan,nan
306112000,82.52057,54.500195,-10.032818,-1.4477822,nan,0.65909183,-4.956439,1.0470307e-05,0.02686013,-0.050837606,0.0,0.0,-2.0000002,0.0,nan,nan,nan
306308000,82.632904,53.653976,-10.032818,-1.4478159,nan,0.6576794,-4.95639,1.0470307e-05,0.0014432328,0.05773884,0.0,0.0,0.0,0.0,nan,nan,nan
306500000,82.7406,52.84084,-10.032818,-1.4478632,nan,0.6561885,-4.95625,1.0470307e-05,-0.022775922,0.021377914,0.0,1.3606625,0.0,0.0,nan,nan,nan
306712000,82.86131,51.927208,-10.032818,-1.4479105,nan,0.6539773,-4.9572296,1.0470307e-05,-0.048728045,-0.008576885,0.0,-2.0000002,0.0,0.0,nan,nan,nan
306908000,82.973305,51.077084,-10.032818,-1.4479407,nan,0.6526025,-4.95759,1.0470307e-05,0.010860441,0.019643089,0.0,-0.64935106,-1.1744698,0.0,nan,nan,nan
307100000,83.08091,50.25907,-10.032818,-1.4479598,nan,0.65207905,-4.9567075,1.0470307e-05,-0.011371005,0.013790306,0.0,0.0,0.0,0.0,nan,nan,nan
307312000,83.20161,49.339764,-10.032818,-1.447976,nan,0.65004516,-4.957474,1.0470307e-05,-0.006485427,0.04117904,0.0,0.0,2.0000002,0.0,nan,nan,nan
307508000,83.31369,48.48423,-10.032818,-1.448,nan,0.6489259,-4.957915,1.0470307e-05,-0.006485427,0.006297267,0.0,0.0,-0.37728122,0.0,nan,nan,nan
307700000,83.4236,47.64377,-10.032818,-1.4480327,nan,0.64782655,-4.9580564,1.0470307e-05,-0.006485427,-0.033239137,0.0,0.0,0.0,0.0,nan,nan,nan
307912000,83.54427,46.7195,-10.032818,-1.4480615,nan,0.6466177,-4.958343,1.0470307e-05,-0.006485427,-4.0911138e-05,0.0,0.0,2.0000002,0.0,nan,nan,nan
308108000,83.656425,45.859447,-10.032818,-1.4480735,nan,0.6464743,-4.95837,1.0470307e-05,-0.027756855,0.030904105,0.0,1.6656424,-1.8545035,0.0,nan,nan,nan
308300000,83.76634,45.014652,-10.032818,-1.4481001,nan,0.6452699,-4.9584126,1.0470307e-05,-0.0073854625,0.036995105,0.0,0.0,0.0,0.0,nan,nan,nan
308512000,83.8872,44.08511,-10.032818,-1.448113,nan,0.64419544,-4.9573436,1.0470307e-05,-0.050801214,0.070645556,0.0,-2.0000002,0.0,0.0,nan,nan,nan
308708000,83.995384,43.251934,-10.032818,-1.4481071,nan,0.6437325,-4.957343,1.0470307e-05,-0.046625074,0.07644045,0.0,0.0,-10.0,0.0,nan,nan,nan
308900000,84.10158,42.433014,-10.032818,-1.4481089,nan,0.64267385,-4.957874,1.0470307e-05,-0.009438397,0.079926156,0.0,0.5676182,0.0,0.0,nan,nan,nan
309112000,84.218765,41.527897,-10.032818,-1.44811,nan,0.6412117,-4.9566975,1.0470307e-05,-0.007846249,0.055758208,0.0,0.0,-2.0000002,0.0,nan,nan,nan
309308000,84.327515,40.68745,-10.032818,-1.4481062,nan,0.64149374,-4.9592023,1.0470307e-05,-0.043472078,0.06282726,0.0,2.6177387,-3.783241,0.0,nan,nan,nan
309500000,84.43424,39.86172,-10.032818,-1.4481113,nan,0.64113164,-4.959562,1.0470307e-05,-0.009431697,0.036439057,0.0,0.0,0.0,0.0,nan,nan,nan
309716000,84.55616,38.917797,-10.032818,-1.4481146,nan,0.63974065,-4.9592605,1.0470307e-05,-0.0610925,0.022817254,0.0,3.6832416,-1.3756428,0.0,nan,nan,nan
309908000,84.665085,38.07357,-10.032818,-1.448107,nan,0.63882357,-4.9589276,1.0470307e-05,-0.050722957,0.025002802,0.0,0.0,-1.5083009,0.0,nan,nan,nan
310100000,84.77413,37.227394,-10.032818,-1.4481063,nan,0.63853174,-4.95851,1.0470307e-05,-0.01423413,-0.006694395,0.0,0.0,0.0,0.0,nan,nan,nan
310312000,84.89607,36.280308,-10.032818,-1.4481091,nan,0.6380101,-4.958739,1.0470307e-05,-0.0074646473,-0.074679464,0.0,0.0,-2.0000002,0.0,nan,nan,nan
310508000,85.00939,35.399963,-10.032818,-1.4481018,nan,0.63774043,-4.9579177,1.0470307e-05,-0.0068871444,-0.036952406,0.0,0.0,0.0,0.0,nan,nan,nan
310700000,85.120605,34.535034,-10.032818,-1.4480786,nan,0.6372179,-4.95962,1.0470307e-05,-0.04277871,-0.07328275,0.0,2.5866885,0.0,0.0,nan,nan,nan
310912000,85.24313,33.581444,-10.032818,-1.4480433,nan,0.6364855,-4.9594703,1.0470307e-05,-0.047807913,-0.08126077,0.0,0.0,-2.0000002,0.0,nan,nan,nan
311108000,85.35696,32.694572,-10.032818,-1.4480076,nan,0.6363719,-4.95938,1.0470307e-05,-0.012883399,-0.047493488,0.0,0.0,2.8768144,0.0,nan,nan,nan
311300000,85.468796,31.823004,-10.032818,-1.4479952,nan,0.6352309,-4.9596634,1.0470307e-05,-0.050903734,0.020580253,0.0,0.0,-1.2474428,0.0,nan,nan,nan
311512000,85.59352,30.850637,-10.032818,-1.4479765,nan,0.6344784,-4.958979,1.0470307e-05,-0.039772168,0.020606551,0.0,2.0000002,0.0,0.0,nan,nan,nan
311708000,85.70944,29.946707,-10.032818,-1.4479728,nan,0.6351564,-4.9587293,1.0470307e-05,-0.09229666,-0.023016639,0.0,0.0,0.0,0.0,nan,nan,nan
311900000,85.82156,29.070608,-10.032818,-1.4480009,nan,0.6367558,-4.9587483,1.0470307e-05,-0.03349705,0.013530666,0.0,0.0,0.0,0.0,nan,nan,nan
312112000,85.94794,28.083328,-10.032818,-1.4480352,nan,0.6351552,-4.9592147,1.0470307e-05,-0.060565416,-0.025007777,0.0,-2.0000002,-2.0000002,0.0,nan,nan,nan
312308000,86.06397,27.17702,-10.032818,-1.448054,nan,0.63532877,-4.9595094,1.0470307e-05,-0.0506204,-0.022860233,0.0,3.0743093,1.3883617,0.0,nan,nan,nan
312500000,86.17766,26.28733,-10.032818,-1.4480755,nan,0.6363809,-4.960489,1.0470307e-05,-0.017522387,-0.02336541,0.0,0.0,0.0,0.0,nan,nan,nan
312712000,86.302765,25.30853,-10.032818,-1.4480869,nan,0.631534,-4.959898,1.0470307e-05,-0.0073859096,0.013148557,0.0,2.0000002,0.0,0.0,nan,nan,nan
312908000,86.41901,24.399374,-10.032818,-1.4481015,nan,0.6332219,-4.959858,1.0470307e-05,0.06503639,-0.020452585,0.0,-3.9550705,0.0,0.0,nan,nan,nan
313100000,86.53313,23.50681,-10.032818,-1.448107,nan,0.6327484,-4.9602666,1.0470307e-05,0.040484857,0.019608324,0.0,0.0,0.0,0.0,nan,nan,nan
313312000,86.660034,22.513842,-10.032818,-1.448091,nan,0.63202244,-4.9604354,1.0470307e-05,0.04473458,0.030935999,0.0,2.0000002,2.0000002,0.0,nan,nan,nan
313508000,86.77665,21.60075,-10.032818,-1.4480486,nan,0.6336038,-4.959578,1.0470307e-05,-0.01558727,-0.020060202,0.0,0.0,0.0,0.0,nan,nan,nan
313700000,86.887344,20.733263,-10.032818,-1.4480262,nan,0.6327882,-4.959528,1.0470307e-05,0.009616447,-0.020789284,0.0,-0.5861582,1.2671843,0.0,nan,nan,nan
313912000,87.00976,19.774035,-10.032818,-1.4480072,nan,0.6330191,-4.959422,1.0470307e-05,-0.034672707,0.013808925,0.0,-2.0000002,0.0,0.0,nan,nan,nan
314108000,87.12319,18.884825,-10.032818,-1.4480089,nan,0.63109636,-4.9594183,1.0470307e-05,-0.032920048,-0.01772248,0.0,0.0,1.0811627,0.0,nan,nan,nan
314300000,87.234566,18.012365,-10.032818,-1.448032,nan,0.63270104,-4.9597497,1.0470307e-05,-0.07105543,-0.017293582,0.0,4.335788,1.0552509,0.0,nan,nan,nan
314512000,87.3575,17.049015,-10.032818,-1.4480913,nan,0.6317273,-4.9598827,1.0470307e-05,-0.06125752,-0.014179619,0.0,0.0,0.0,0.0,nan,nan,nan
314708000,87.47239,16.147972,-10.032818,-1.4481254,nan,0.6328747,-4.959204,1.0470307e-05,-0.069985315,-0.025120698,0.0,0.0,0.0,0.0,nan,nan,nan
314900000,87.585,15.264046,-10.032818,-1.4481591,nan,0.6337709,-4.9592547,1.0470307e-05,-0.033467114,-0.025132813,0.0,0.0,0.0,0.0,nan,nan,nan
315112000,87.710396,14.280075,-10.032818,-1.4481965,nan,0.6325634,-4.9595704,1.0470307e-05,-0.057285123,-0.027006768,0.0,-2.0000002,-2.0000002,0.0,nan,nan,nan
315308000,87.82664,13.367716,-10.032818,-1.448223,nan,0.63174695,-4.960108,1.0470307e-05,-0.022423599,-0.05843249,0.0,0.0,3.5703146,0.0,nan,nan,nan
315500000,87.94073,12.47258,-10.032818,-1.4482605,nan,0.6311611,-4.960721,1.0470307e-05,-0.048055213,-0.01938809,0.0,0.0,0.0,0.0,nan,nan,nan
315712000,88.067444,11.477484,-10.032818,-1.4483105,nan,0.63110554,-4.960153,1.0470307e-05,0.020906966,0.057246376,0.0,2.0000002,2.0000002,0.0,nan,nan,nan
315908000,88.18501,10.554647,-10.032818,-1.4483491,nan,0.6313379,-4.959137,1.0470307e-05,0.017103096,-0.09402245,0.0,-1.0457736,5.749029,0.0,nan,nan,nan
316100000,88.30036,9.649255,-10.032818,-1.4484076,nan,0.6307418,-4.957719,1.0470307e-05,-0.015308615,-0.031663276,0.0,0.0,0.0,0.0,nan,nan,nan
316312000,88.42837,8.644342,-10.032818,-1.4485052,nan,0.6308148,-4.9583287,1.0470307e-05,0.027992561,-0.035020567,0.0,2.0000002,-2.0000002,0.0,nan,nan,nan
316508000,88.546,7.7201695,-10.032818,-1.4485687,nan,0.63216794,-4.9574084,1.0470307e-05,0.015182211,0.008049894,0.0,0.0,0.0,0.0,nan,nan,nan
316700000,88.66243,6.8056116,-10.032818,-1.4486288,nan,0.631771,-4.9588466,1.0470307e-05,0.019823557,0.0221343,0.0,0.0,0.0,0.0,nan,nan,nan
316912000,88.79154,5.7913237,-10.032818,-1.4486854,nan,0.63145834,-4.9589844,1.0470307e-05,-0.010344105,-0.02922311,0.0,0.0,-2.0000002,0.0,nan,nan,nan
317108000,88.91044,4.8577595,-10.032818,-1.4487835,nan,0.6320063,-4.959501,1.0470307e-05,-0.0552145,-0.015566008,0.0,0.0,0.0,0.0,nan,nan,nan
317300000,89.02799,3.9344256,-10.032818,-1.4488761,nan,0.63156515,-4.9596224,1.0470307e-05,-0.054330654,-0.014468333,0.0,3.325858,0.8856809,0.0,nan,nan,nan
317512000,89.15717,2.9192636,-10.032818,-1.4489753,nan,0.6305785,-4.960099,1.0470307e-05,-0.05165024,0.026453877,0.0,0.0,2.0000002,0.0,nan,nan,nan
317708000,89.277016,1.9771008,-10.032818,-1.4490579,nan,0.6313197,-4.9587264,1.0470307e-05,0.012334183,0.017328631,0.0,0.0,0.0,0.0,nan,nan,nan
317900000,89.39462,1.0528189,-10.032818,-1.4491416,nan,0.63220704,-4.958206,1.0470307e-05,0.011180904,0.016193695,0.0,0.0,0.0,0.0,nan,nan,nan
318112000,89.52493,0.029070526,-10.032818,-1.4492378,nan,0.63099706,-4.960328,1.0470307e-05,-0.021669488,-0.06206285,0.0,0.0,-2.0000002,0.0,nan,nan,nan
318308000,89.64491,-0.91426474,-10.032818,-1.4493093,nan,0.6304326,-4.9615846,1.0470307e-05,-0.020429978,-0.02627213,0.0,0.0,0.0,0.0,nan,nan,nan
318500000,89.761696,-1.8326216,-10.032818,-1.4493761,nan,0.6307612,-4.9604588,1.0470307e-05,0.008710605,0.027586836,0.0,-0.5340798,-1.691452,0.0,nan,nan,nan
318712000,89.88867,-2.8301604,-10.032818,-1.4494131,nan,0.6310494,-4.9614673,1.0470307e-05,-0.030095061,0.06204455,0.0,0.0,2.0000002,0.0,nan,nan,nan
318908000,90.00452,-3.741061,-10.032818,-1.4495219,nan,0.6315278,-4.959955,1.0470307e-05,-0.020004299,0.07364592,0.0,1.227396,-4.518664,0.0,nan,nan,nan
319116000,90.12731,-4.706624,-10.032818,-1.4496585,nan,0.6308296,-4.959197,1.0336302e-05,-0.013301219,-0.0036058165,-1.1094095e-06,0.0,-2.0000002,0.0,nan,nan,nan
319312000,90.24228,-5.610476,-10.032818,-1.4498284,nan,0.6307776,-4.9604874,1.0134131e-05,0.01593552,-0.03336983,-1.1094095e-06,-0.9772256,0.0,0.0,nan,nan,nan
319504000,90.3551,-6.4972515,-10.032818,-1.4499893,nan,0.6314039,-4.9601793,9.93579e-06,0.016211394,0.033557653,-1.1094095e-06,0.0,-2.0592568,0.0,nan,nan,nan
319716000,90.48072,-7.484465,-10.032818,-1.4501127,nan,0.63055557,-4.959365,9.71497e-06,-0.017062292,-0.03899831,-1.1094095e-06,0.0,-2.0000002,0.0,nan,nan,nan
319912000,90.59866,-8.412014,-10.032818,-1.4501348,nan,0.6312541,-4.9597774,9.507506e-06,0.018068608,0.049465843,-1.1094095e-06,0.0,0.0,0.0,nan,nan,nan
320104000,90.71371,-9.316611,-10.032818,-1.4501833,nan,0.6308556,-4.9589515,9.305177e-06,-0.008518938,0.006620601,-1.1094095e-06,0.52364695,0.0,0.0,nan,nan,nan
320312000,90.83836,-10.297014,-10.032818,-1.4502633,nan,0.6308514,-4.960149,8.999628e-06,-0.05168019,-0.062511235,-2.22966e-06,-2.0000002,-2.0000002,0.0,nan,nan,nan
320508000,90.956856,-11.228821,-10.032818,-1.450366,nan,0.62973285,-4.9606338,8.580778e-06,-0.02076922,0.0029486343,-2.22966e-06,0.0,0.0,0.0,nan,nan,nan
320716000,91.08206,-12.212514,-10.032818,-1.4504566,nan,0.6288066,-4.9606566,8.051552e-06,-0.04567457,-0.02648026,-3.3547612e-06,2.0000002,0.0,0.0,nan,nan,nan
320912000,91.202034,-13.157781,-10.032818,-1.4504812,nan,0.6296217,-4.9594154,7.4122318e-06,0.034086917,0.0074767815,-3.3547612e-06,0.0,0.0,0.0,nan,nan,nan
321104000,91.32068,-14.08621,-10.032818,-1.4504756,nan,0.6253066,-4.864694,6.781276e-06,-0.09950867,1.2780622,-3.3547612e-06,0.0,-10.0,0.0,nan,nan,nan
321316000,91.449066,-15.079794,-10.032818,-1.4505348,nan,0.5931111,-4.580121,6.075747e-06,-0.17950869,1.4106575,-3.3547612e-06,0.0,2.0000002,0.0,nan,nan,nan
321512000,91.56136,-15.946784,-10.032818,-1.4506881,nan,0.5580902,-4.307484,5.421256e-06,-0.17950869,1.3797278,-3.3547612e-06,0.0,-10.0,0.0,nan,nan,nan
321704000,91.66521,-16.748032,-10.032818,-1.4510217,nan,0.5236244,-4.038735,4.777141e-06,-0.17950869,1.3797278,-3.3547612e-06,0.0,-10.0,0.0,nan,nan,nan
321896000,91.76243,-17.499168,-10.032818,-1.4514852,nan,0.48915872,-3.7910275,4.133026e-06,-0.17950869,1.179728,-3.3547612e-06,0.0,-10.0,0.0,nan,nan,nan
322112000,91.8639,-18.290705,-10.032818,-1.4521047,nan,0.45038497,-3.5416462,3.4083964e-06,-0.17950869,1.0997281,-3.3547612e-06,0.0,-10.0,0.0,nan,nan,nan
322304000,91.94707,-18.950651,-10.032818,-1.4528549,nan,0.41591942,-3.335458,2.7642814e-06,-0.17950869,1.0197282,-3.3547612e-06,0.0,-10.0,0.0,nan,nan,nan
322516000,92.03197,-19.634916,-10.032818,-1.4537129,nan,0.39106357,-3.122555,2.053071e-06,-0.05950867,0.97972816,-3.3547612e-06,0.0,2.0000002,0.0,nan,nan,nan
322712000,92.107315,-20.228687,-10.032818,-1.4545145,nan,0.37595984,-2.9383688,1.3955377e-06,-0.09950867,0.8997281,-3.3547612e-06,0.0,-10.0,0.0,nan,nan,nan
322904000,92.17731,-20.77641,-10.032818,-1.4553576,nan,0.35149404,-2.7681017,7.514235e-07,-0.13950868,0.8597281,-3.3547612e-06,0.0,-10.0,0.0,nan,nan,nan
323116000,92.24869,-21.344442,-10.032818,-1.4563359,nan,0.321918,-2.5929596,4.0214132e-08,-0.13950868,0.8197281,-3.3547612e-06,0.0,2.0000002,0.0,nan,nan,nan
323312000,92.3102,-21.837519,-10.032818,-1.4574362,nan,0.31009433,-2.439573,-6.173191e-07,-0.05950867,0.77972806,-3.3547612e-06,0.0,0.0,0.0,nan,nan,nan
323504000,92.3684,-22.294224,-10.032818,-1.4586712,nan,0.29426864,-2.312905,-1.2614332e-06,-0.09950867,0.7797282,-3.3547612e-06,0.0,0.0,0.0,nan,nan,nan
323716000,92.42855,-22.767185,-10.032818,-1.4600279,nan,0.2731728,-2.1541631,-1.9726426e-06,-0.09950867,0.69972813,-3.3547612e-06,0.0,2.0000002,0.0,nan,nan,nan
323912000,92.48018,-23.17702,-10.032818,-1.4616508,nan,0.25366908,-2.0282166,-2.6301768e-06,-0.09950867,0.6197281,-3.3547612e-06,0.0,-10.0,0.0,nan,nan,nan
324104000,92.52765,-23.555288,-10.032818,-1.4632902,nan,0.2437634,-1.9116281,-3.2742919e-06,-0.05950867,0.6197281,-3.3547612e-06,0.0,0.0,0.0,nan,nan,nan
324316000,92.57791,-23.948843,-10.032818,-1.4648999,nan,0.2288276,-1.7932056,-3.985502e-06,-0.09950867,0.61972815,-3.3547612e-06,0.0,0.0,0.0,nan,nan,nan
324512000,92.62086,-24.28971,-10.032818,-1.4663545,nan,0.20988388,-1.6873391,-4.6430364e-06,-0.05950867,0.4997281,-3.3547612e-06,0.0,-10.0,0.0,nan,nan,nan
324704000,92.660645,-24.604244,-10.032818,-1.4676881,nan,0.20325822,-1.5899516,-5.2871515e-06,-0.05950867,0.4997281,-3.3547612e-06,0.0,0.0,0.0,nan,nan,nan
324896000,92.698074,-24.901815,-10.032818,-1.4687996,nan,0.18607254,-1.5050442,-5.9312665e-06,-0.05950867,0.4997281,-3.3547612e-06,0.0,-10.0,0.0,nan,nan,nan
325112000,92.737656,-25.215784,-10.032818,-1.4700944,nan,0.17897867,-1.411823,-6.655896e-06,-0.05950867,0.33972812,-3.3547612e-06,0.0,0.0,0.0,nan,nan,nan
325304000,92.77092,-25.47923,-10.032818,-1.4711925,nan,0.16755305,-1.3301152,-7.300011e-06,-0.05950867,0.4197281,-3.3547612e-06,0.0,-10.0,0.0,nan,nan,nan
325516000,92.80512,-25.751482,-10.032818,-1.4726483,nan,0.15629725,-1.2405727,-8.0112195e-06,-0.019508667,0.3797281,-3.3547612e-06,0.0,0.0,0.0,nan,nan,nan
325712000,92.835144,-25.988152,-10.032818,-1.4747338,nan,0.14807357,-1.1778262,-8.66875e-06,-0.05950867,0.2997281,-3.3547612e-06,0.0,-10.0,0.0,nan,nan,nan
325904000,92.86262,-26.207834,-10.032818,-1.4769235,nan,0.14008792,-1.109559,-9.312861e-06,-0.019508667,0.37972808,-3.3547612e-06,0.0,0.0,0.0,nan,nan,nan
326116000,92.8914,-26.435251,-10.032818,-1.4806931,nan,0.12979211,-1.0409766,-1.0024068e-05,-0.05950867,0.33972806,-3.3547612e-06,0.0,2.0000002,0.0,nan,nan,nan
326312000,92.91636,-26.633005,-10.032818,-1.4851139,nan,0.124848396,-0.97559047,-1.0681598e-05,-0.05950867,0.21972805,-3.3547612e-06,0.0,0.0,0.0,nan,nan,nan
326504000,92.939316,-26.815615,-10.032818,-1.4804124,nan,0.11590276,-0.9245228,-9.1325724e-05,-0.019508667,0.33972803,-0.04000336,0.0,10.0,-10.0,nan,nan,nan
326716000,92.963425,-26.988102,-10.049615,-1.4804124,nan,0.11040692,-0.6277805,-0.23329201,-0.05950867,2.459728,-2.1600034,0.0,10.0,-10.0,nan,nan,nan
326912000,92.98377,-27.071724,-10.149381,-1.4804124,nan,0.09530325,-0.27687386,-0.84873265,-0.09950867,0.939728,-4.120003,0.0,-10.0,-10.0,nan,nan,nan
327104000,92.99957,-27.118425,-10.399363,-1.4804124,nan,0.07739758,-0.24172607,-1.7932932,0.020491306,0.059728052,-5.0400023,0.0,0.0,10.0,nan,nan,nan
327316000,93.014854,-27.167467,-10.876921,-1.4804124,nan,0.06529486,-0.2254052,-2.6370542,-0.15960696,0.055782437,-2.9200032,0.0,2.0000002,10.0,nan,nan,nan
327512000,93.02725,-27.21002,-11.437321,-1.4804124,nan,0.062749274,-0.21086432,-3.017295,0.011451565,0.02771249,-0.9600031,0.0,-1.7320307,10.0,nan,nan,nan
327704000,93.0384,-27.24932,-12.022573,-1.4804124,nan,0.055904116,-0.1989902,-3.0207357,0.026529005,0.036935985,0.67999685,0.0,-2.3084993,-10.0,nan,nan,nan
327916000,93.04957,-27.290201,-12.65886,-1.4804124,nan,0.050216373,-0.18718128,-2.9989924,0.005778566,0.041239027,0.015997507,0.0,2.0000002,-2.0000002,nan,nan,nan
328112000,93.058846,-27.325705,-13.246772,-1.4804124,nan,0.045279916,-0.17652297,-2.9994898,-0.013901714,0.0567772,-0.04556928,0.0,-3.5485752,2.8480802,nan,nan,nan
328304000,93.06716,-27.358488,-13.82272,-1.4804124,nan,0.042118803,-0.16502202,-3.0007267,-0.045517683,0.045421753,-0.081964344,2.8448553,0.0,0.0,nan,nan,nan
328496000,93.07471,-27.389471,-14.398792,-1.4804124,nan,0.037211142,-0.1566612,-2.9991708,-0.029131316,-0.0045300797,-0.04605718,0.0,0.0,2.878574,nan,nan,nan
328712000,93.08241,-27.422386,-15.046777,-1.4804124,nan,0.033263482,-0.14821258,-3.0006857,0.025084771,0.040300746,0.018523395,0.0,0.0,0.0,nan,nan,nan
328904000,93.0887,-27.449877,-15.622731,-1.4804124,nan,0.031702057,-0.13912351,-2.999666,-0.015325279,0.07162495,-0.012276022,0.95783,-4.476559,0.7672514,nan,nan,nan
329096000,93.09447,-27.475878,-16.198711,-1.4804124,nan,0.028127486,-0.13027196,-3.0009518,-0.08112654,0.04929996,-0.081820816,0.0,-10.0,0.0,nan,nan,nan
329312000,93.10029,-27.5033,-16.846817,-1.4804124,nan,0.025541842,-0.12386609,-3.0004742,-0.026320985,-0.04056004,-0.04596532,0.0,0.0,0.0,nan,nan,nan
329504000,93.10505,-27.526392,-17.422787,-1.4804124,nan,0.023793641,-0.116261564,-3.0020852,-0.014877074,0.002841577,-0.04221781,0.0,0.0,0.0,nan,nan,nan
329716000,93.10988,-27.550217,-18.05885,-1.4804124,nan,0.020559704,-0.10991796,-3.002153,0.02512293,0.06741861,-0.046219397,2.0000002,2.0000002,2.0000002,nan,nan,nan
329912000,93.113914,-27.570997,-18.646812,-1.4804124,nan,0.017803797,-0.10425813,-2.9997013,0.02512293,0.021934887,0.058419578,0.0,0.0,0.0,nan,nan,nan
330104000,93.11756,-27.590256,-19.222765,-1.4804124,nan,0.01657322,-0.09940721,-3.0005567,0.012098342,0.031638328,-0.05232918,0.0,0.0,0.0,nan,nan,nan
330316000,93.12129,-27.61028,-19.858873,-1.4804124,nan,0.0170616,-0.09170636,-3.0008523,0.0074743507,0.07702306,0.054136667,0.0,2.0000002,2.0000002,nan,nan,nan
330512000,93.12448,-27.62759,-20.444757,-1.4804124,nan,0.015299387,-0.08589711,-2.9457986,-0.018442504,0.008188643,0.79464746,0.0,0.0,-10.0,nan,nan,nan
330704000,93.12731,-27.643621,-20.994766,-1.4804124,nan,0.013494926,-0.08211333,-2.7825856,-0.018203203,0.03663407,0.8346475,0.0,-2.2896295,-10.0,nan,nan,nan
330916000,93.130226,-27.66029,-21.56548,-1.4804124,nan,0.013531964,-0.07550306,-2.6013997,0.063959956,0.0490458,0.8746475,2.0000002,0.0,2.0000002,nan,nan,nan
331112000,93.13277,-27.67478,-22.058956,-1.4804124,nan,0.012907101,-0.071469605,-2.434448,0.0417075,0.077789314,0.79464746,0.0,0.0,-10.0,nan,nan,nan
331304000,93.135025,-27.688154,-22.512115,-1.4804124,nan,0.011531618,-0.067646444,-2.289316,-0.034107205,-0.003014844,0.6746474,0.0,0.0,-10.0,nan,nan,nan
331516000,93.137344,-27.702124,-22.981985,-1.4804124,nan,0.011580893,-0.063220926,-2.1453311,-0.07410721,-0.010411877,0.6746474,-2.0000002,-2.0000002,2.0000002,nan,nan,nan
