timestamp,roll_body,pitch_body,yaw_body,yaw_sp_move_rate,q_d[0],q_d[1],q_d[2],q_d[3],thrust_body[0],thrust_body[1],thrust_body[2],q_d_valid,roll_reset_integral,pitch_reset_integral,yaw_reset_integral,fw_control_yaw,apply_flaps
3232000,0.0,0.0,0.40899074,0.0,0.9791636,0.0,0.0,0.20307307,0.0,0.0,-0.08,1,0,0,0,0,0
3332000,0.0,0.0,0.40900838,0.0,0.9791618,0.0,0.0,0.20308171,0.0,0.0,-0.08,1,0,0,0,0,0
3432000,0.0,0.0,0.40891457,0.0,0.97917134,0.0,0.0,0.20303577,0.0,0.0,-0.08,1,0,0,0,0,0
3532000,0.0,0.0,0.40886268,0.0,0.9791766,0.0,0.0,0.20301038,0.0,0.0,-0.08,1,0,0,0,0,0
3632000,0.0,0.0,0.40885007,0.0,0.9791779,0.0,0.0,0.2030042,0.0,0.0,-0.08,1,0,0,0,0,0
3732000,0.0,0.0,0.40914926,0.0,0.9791475,0.0,0.0,0.20315067,0.0,0.0,-0.08,1,0,0,0,0,0
3832000,0.0,0.0,0.40912983,0.0,0.97914946,0.0,0.0,0.20314117,0.0,0.0,-0.08,1,0,0,0,0,0
3932000,0.0,0.0,0.4088287,0.0,0.97918004,0.0,0.0,0.20299374,0.0,0.0,-0.08,1,0,0,0,0,0
4036000,0.0,0.0,0.40871483,0.0,0.9791916,0.0,0.0,0.20293799,0.0,0.0,-0.08,1,0,0,0,0,0
4140000,0.0,0.0,0.4083383,0.0,0.9792298,0.0,0.0,0.20275365,0.0,0.0,-0.08,1,0,0,0,0,0
4236000,0.0,0.0,0.40805152,0.0,0.97925884,0.0,0.0,0.20261322,0.0,0.0,-0.08,1,0,0,0,0,0
4336000,0.0,0.0,0.40799662,0.0,0.9792644,0.0,0.0,0.20258634,0.0,0.0,-0.08,1,0,0,0,0,0
4432000,0.0,0.0,0.4083753,0.0,0.97922605,0.0,0.0,0.20277175,0.0,0.0,-0.08,1,0,0,0,0,0
4536000,0.0,0.0,0.40842286,0.0,0.9792212,0.0,0.0,0.20279504,0.0,0.0,-0.08,1,0,0,0,0,0
4636000,0.0,0.0,0.40835068,0.0,0.9792285,0.0,0.0,0.2027597,0.0,0.0,-0.08,1,0,0,0,0,0
4736000,0.0,0.0,0.40846798,0.0,0.97921664,0.0,0.0,0.20281713,0.0,0.0,-0.08,1,0,0,0,0,0
4832000,0.0,0.0,0.40853083,0.0,0.97921026,0.0,0.0,0.2028479,0.0,0.0,-0.08,1,0,0,0,0,0
4936000,0.0,0.0,0.40861872,0.0,0.9792013,0.0,0.0,0.20289093,0.0,0.0,-0.08,1,0,0,0,0,0
5032000,0.0,0.0,0.4087631,0.0,0.9791867,0.0,0.0,0.20296162,0.0,0.0,-0.08,1,0,0,0,0,0
5136000,0.0,0.0,0.4090872,0.0,0.9791538,0.0,0.0,0.2031203,0.0,0.0,-0.08,1,0,0,0,0,0
5236000,0.0,0.0,0.40944418,0.0,0.9791175,0.0,0.0,0.20329507,0.0,0.0,-0.08,1,0,0,0,0,0
5336000,0.0,0.0,0.40958738,0.0,0.97910297,0.0,0.0,0.20336516,0.0,0.0,-0.08,1,0,0,0,0,0
5440000,0.0,0.0,0.40960023,0.0,0.97910166,0.0,0.0,0.20337145,0.0,0.0,-0.08,1,0,0,0,0,0
5540000,0.0,0.0,0.4096691,0.0,0.9790946,0.0,0.0,0.20340517,0.0,0.0,-0.08,1,0,0,0,0,0
5636000,0.0,0.0,0.40984145,0.0,0.9790771,0.0,0.0,0.20348954,0.0,0.0,-0.08,1,0,0,0,0,0
5736000,0.0,0.0,0.4099682,0.0,0.9790642,0.0,0.0,0.20355159,0.0,0.0,-0.08,1,0,0,0,0,0
5836000,0.0,0.0,0.41024575,0.0,0.979036,0.0,0.0,0.20368746,0.0,0.0,-0.08,1,0,0,0,0,0
5940000,0.0,0.0,0.41020703,0.0,0.9790399,0.0,0.0,0.2036685,0.0,0.0,-0.08,1,0,0,0,0,0
6040000,0.0,0.0,0.41002843,0.0,0.9790581,0.0,0.0,0.20358108,0.0,0.0,-0.08,1,0,0,0,0,0
6140000,0.0,0.0,0.41022298,0.0,0.9790383,0.0,0.0,0.20367631,0.0,0.0,-0.08,1,0,0,0,0,0
6236000,0.0,0.0,0.41020992,0.0,0.9790396,0.0,0.0,0.20366992,0.0,0.0,-0.08,1,0,0,0,0,0
6336000,0.0,0.0,0.41014448,0.0,0.9790463,0.0,0.0,0.20363788,0.0,0.0,-0.08,1,0,0,0,0,0
6432000,0.0,0.0,0.41038916,0.0,0.9790214,0.0,0.0,0.20375766,0.0,0.0,-0.08,1,0,0,0,0,0
6536000,0.0,0.0,0.41042653,0.0,0.97901756,0.0,0.0,0.20377596,0.0,0.0,-0.08,1,0,0,0,0,0
6640000,0.0,0.0,0.4104457,0.0,0.9790156,0.0,0.0,0.20378533,0.0,0.0,-0.08,1,0,0,0,0,0
6736000,0.0,0.0,0.41062972,0.0,0.9789968,0.0,0.0,0.20387542,0.0,0.0,-0.08,1,0,0,0,0,0
6832000,0.0,0.0,0.41065842,0.0,0.9789939,0.0,0.0,0.20388946,0.0,0.0,-0.08,1,0,0,0,0,0
6932000,0.0,0.0,0.41047254,0.0,0.97901285,0.0,0.0,0.20379847,0.0,0.0,-0.08,1,0,0,0,0,0
7040000,0.0,0.0,0.41043782,0.0,0.9790164,0.0,0.0,0.20378149,0.0,0.0,-0.08,1,0,0,0,0,0
7136000,0.0,0.0,0.4106265,0.0,0.9789972,0.0,0.0,0.20387384,0.0,0.0,-0.08,1,0,0,0,0,0
7240000,0.0,0.0,0.410806,0.0,0.9789789,0.0,0.0,0.2039617,0.0,0.0,-0.08,1,0,0,0,0,0
7332000,0.0,0.0,0.41068992,0.0,0.9789907,0.0,0.0,0.20390488,0.0,0.0,-0.08,1,0,0,0,0,0
7436000,0.0,0.0,0.41051298,0.0,0.97900873,0.0,0.0,0.20381828,0.0,0.0,-0.08,1,0,0,0,0,0
7540000,0.0,0.0,0.41075096,0.0,0.9789845,0.0,0.0,0.20393476,0.0,0.0,-0.08,1,0,0,0,0,0
7636000,0.0,0.0,0.41098368,0.0,0.97896075,0.0,0.0,0.20404868,0.0,0.0,-0.08,1,0,0,0,0,0
7736000,0.0,0.0,0.41101384,0.0,0.97895765,0.0,0.0,0.20406345,0.0,0.0,-0.08,1,0,0,0,0,0
7840000,0.0,0.0,0.4111146,0.0,0.9789474,0.0,0.0,0.20411275,0.0,0.0,-0.08,1,0,0,0,0,0
7936000,0.0,0.0,0.41107267,0.0,0.9789517,0.0,0.0,0.20409223,0.0,0.0,-0.08,1,0,0,0,0,0
8040000,0.0,0.0,0.41116348,0.0,0.9789424,0.0,0.0,0.20413668,0.0,0.0,-0.08,1,0,0,0,0,0
8140000,0.0,0.0,0.41116998,0.0,0.97894174,0.0,0.0,0.20413986,0.0,0.0,-0.08,1,0,0,0,0,0
8236000,0.0,0.0,0.41107348,0.0,0.9789516,0.0,0.0,0.20409264,0.0,0.0,-0.08,1,0,0,0,0,0
8339999,0.0,0.0,0.4113205,0.0,0.97892636,0.0,0.0,0.20421354,0.0,0.0,-0.08,1,0,0,0,0,0
8436000,0.0,0.0,0.41154575,0.0,0.97890335,0.0,0.0,0.2043238,0.0,0.0,-0.08,1,0,0,0,0,0
8540000,0.0,0.0,0.41165197,0.0,0.9788925,0.0,0.0,0.20437577,0.0,0.0,-0.08,1,0,0,0,0,0
8640000,0.0,0.0,0.4116305,0.0,0.9788947,0.0,0.0,0.20436528,0.0,0.0,-0.08,1,0,0,0,0,0
8740000,0.0,0.0,0.41170287,0.0,0.9788873,0.0,0.0,0.20440069,0.0,0.0,-0.08,1,0,0,0,0,0
8844000,0.0,0.0,0.41178405,0.0,0.97887903,0.0,0.0,0.20444043,0.0,0.0,-0.08,1,0,0,0,0,0
8940000,0.0,0.0,0.41176474,0.0,0.978881,0.0,0.0,0.20443098,0.0,0.0,-0.08,1,0,0,0,0,0
9040000,0.0,0.0,0.41152743,0.0,0.97890526,0.0,0.0,0.20431483,0.0,0.0,-0.08,1,0,0,0,0,0
9140000,0.0,0.0,0.4115871,0.0,0.9788991,0.0,0.0,0.20434402,0.0,0.0,-0.08,1,0,0,0,0,0
9240000,0.0,0.0,0.4117163,0.0,0.97888595,0.0,0.0,0.20440727,0.0,0.0,-0.08,1,0,0,0,0,0
9340000,0.0,0.0,0.4115455,0.0,0.9789034,0.0,0.0,0.20432366,0.0,0.0,-0.08,1,0,0,0,0,0
9440000,0.0,0.0,0.41149348,0.0,0.9789087,0.0,0.0,0.20429821,0.0,0.0,-0.08,1,0,0,0,0,0
9540000,0.0,0.0,0.41149217,0.0,0.97890884,0.0,0.0,0.20429757,0.0,0.0,-0.08,1,0,0,0,0,0
9640000,0.0,0.0,0.41131678,0.0,0.9789267,0.0,0.0,0.20421173,0.0,0.0,-0.08,1,0,0,0,0,0
9740000,0.0,0.0,0.41130626,0.0,0.9789278,0.0,0.0,0.20420657,0.0,0.0,-0.08,1,0,0,0,0,0
9840000,0.0,0.0,0.4113091,0.0,0.97892755,0.0,0.0,0.20420796,0.0,0.0,-0.08,1,0,0,0,0,0
9940000,0.0,0.0,0.41103265,0.0,0.97895575,0.0,0.0,0.20407264,0.0,0.0,-0.08,1,0,0,0,0,0
10040000,0.0,0.0,0.41087112,0.0,0.9789722,0.0,0.0,0.20399357,0.0,0.0,-0.08,1,0,0,0,0,0
10140000,0.0,0.0,0.41053653,0.0,0.97900635,0.0,0.0,0.2038298,0.0,0.0,-0.08,1,0,0,0,0,0
10240000,0.0,0.0,0.41041413,0.0,0.9790188,0.0,0.0,0.20376988,0.0,0.0,-0.08,1,0,0,0,0,0
10340000,0.0,0.0,0.41032913,0.0,0.97902745,0.0,0.0,0.20372827,0.0,0.0,-0.08,1,0,0,0,0,0
10440000,0.0,0.0,0.41007245,0.0,0.9790536,0.0,0.0,0.20360263,0.0,0.0,-0.08,1,0,0,0,0,0
10544000,0.0,0.0,0.40957993,0.0,0.97910374,0.0,0.0,0.20336153,0.0,0.0,-0.08,1,0,0,0,0,0
10640000,0.0,0.0,0.40938172,0.0,0.9791239,0.0,0.0,0.20326447,0.0,0.0,-0.08,1,0,0,0,0,0
10740000,0.0,0.0,0.40895247,0.0,0.97916746,0.0,0.0,0.20305434,0.0,0.0,-0.08,1,0,0,0,0,0
10840000,0.0,0.0,0.40846515,0.0,0.97921693,0.0,0.0,0.20281574,0.0,0.0,-0.08,1,0,0,0,0,0
10940000,0.0,0.0,0.4081831,0.0,0.9792455,0.0,0.0,0.20267765,0.0,0.0,-0.08,1,0,0,0,0,0
11040000,0.0,0.0,0.4077449,0.0,0.9792899,0.0,0.0,0.20246309,0.0,0.0,-0.08,1,0,0,0,0,0
11140000,0.0,0.0,0.40318775,0.0,0.97974867,0.0,0.0,0.20023118,0.0,0.0,-0.08,1,0,0,0,0,0
11240000,0.0,0.0,0.4034857,0.0,0.97971886,0.0,0.0,0.20037714,0.0,0.0,-0.08,1,0,0,0,0,0
11340000,0.0,0.0,0.40421885,0.0,0.9796453,0.0,0.0,0.20073627,0.0,0.0,-0.08,1,0,0,0,0,0
11440000,0.0,0.0,0.404819,0.0,0.97958505,0.0,0.0,0.20103022,0.0,0.0,-0.08,1,0,0,0,0,0
11540000,0.0,0.0,0.40539244,0.0,0.97952735,0.0,0.0,0.20131108,0.0,0.0,-0.08,1,0,0,0,0,0
11640000,0.0,0.0,0.40611905,0.0,0.97945416,0.0,0.0,0.20166694,0.0,0.0,-0.08,1,0,0,0,0,0
11740000,0.0,0.0,0.40674627,0.0,0.97939086,0.0,0.0,0.2019741,0.0,0.0,-0.08,1,0,0,0,0,0
11840000,0.0,0.0,0.406889,0.0,0.97937644,0.0,0.0,0.20204398,0.0,0.0,-0.08,1,0,0,0,0,0
11936000,0.0,0.0,0.406986,0.0,0.97936666,0.0,0.0,0.20209149,0.0,0.0,-0.08,1,0,0,0,0,0
12044000,0.0,0.0,0.40666798,0.0,0.9793988,0.0,0.0,0.20193575,0.0,0.0,-0.08,1,0,0,0,0,0
12144000,0.0,0.0,0.4063262,0.0,0.97943324,0.0,0.0,0.20176838,0.0,0.0,-0.08,1,0,0,0,0,0
12172000,0.0,0.0,0.40632188,0.0,0.9794337,0.0,0.0,0.20176627,0.0,0.0,-0.08,1,0,0,0,0,0
252256000,0.0,0.0,0.4199702,0.0,0.978034,0.0,0.0,0.20844533,0.0,0.0,-0.0,1,0,0,0,0,0
252356000,-0.0050554834,-0.011058854,0.4199145,0.0,0.97802466,-0.0013197684,-0.0059347735,0.20840058,0.0,0.0,-0.5037042,1,0,0,0,0,0
252452000,-0.004738434,-0.007733931,0.4199497,0.0,0.978028,-0.0015111525,-0.0042758356,0.20842421,0.0,0.0,-0.530316,1,0,0,0,0,0
252548000,-0.0061877775,-0.008050404,0.42012793,0.0,0.9780076,-0.0021865095,-0.0045818277,0.20850761,0.0,0.0,-0.58770794,1,0,0,0,0,0
252644000,-0.005687894,-0.0047346256,0.42015144,0.0,0.9780099,-0.002287749,-0.002908313,0.20852596,0.0,0.0,-0.6341192,1,0,0,0,0,0
252760000,-0.007549229,-0.010445754,0.42020983,0.0,0.97799283,-0.0026022645,-0.005895192,0.20853892,0.0,0.0,-0.6626809,1,0,0,0,0,0
252856000,-0.010549049,-0.01518215,0.41998196,0.0,0.9779994,-0.0035761544,-0.008523588,0.20840305,0.0,0.0,-0.68968016,1,0,0,0,0,0
252956000,-0.011719648,-0.018432379,0.41991332,0.0,0.9779929,-0.0038101105,-0.01023475,0.20835228,0.0,0.0,-0.69499445,1,0,0,0,0,0
253052000,-0.011711195,-0.019429829,0.4199943,0.0,0.9779805,-0.0037015793,-0.010721755,0.20838806,0.0,0.0,-0.64254487,1,0,0,0,0,0
253148000,-0.014672001,-0.021867596,0.41969922,0.0,0.9779942,-0.004897029,-0.012221512,0.2082163,0.0,0.0,-0.5422506,1,0,0,0,0,0
253244000,-0.010383376,-0.015540202,0.41969922,0.0,0.97802794,-0.0034590447,-0.008680921,0.20826426,0.0,0.0,-0.72478175,1,0,0,0,0,0
253360000,-0.014111325,-0.023159478,0.41969922,0.0,0.9779894,-0.0044882633,-0.012794845,0.20821375,0.0,0.0,-0.4964685,1,0,0,0,0,0
253456000,-0.0135387145,-0.025440948,0.41969922,0.0,0.97797865,-0.003970561,-0.013850814,0.20820698,0.0,0.0,-0.5853743,1,0,0,0,0,0
253556000,-0.014925085,-0.026170408,0.41969922,0.0,0.9779716,-0.0045724767,-0.014351818,0.20819367,0.0,0.0,-0.5827919,1,0,0,0,0,0
253652000,-0.015752863,-0.024880953,0.41969922,0.0,0.9779767,-0.0051116007,-0.013807487,0.20819439,0.0,0.0,-0.57348514,1,0,0,0,0,0
253748000,-0.017173769,-0.026260162,0.41969922,0.0,0.9779654,-0.0056626955,-0.014629776,0.20817691,0.0,0.0,-0.57907045,1,0,0,0,0,0
253844000,-0.01599349,-0.024917359,0.41969922,0.0,0.9779758,-0.0052254717,-0.013850338,0.20819254,0.0,0.0,-0.5789849,1,0,0,0,0,0
253960000,-0.017025283,-0.028276762,0.41969922,0.0,0.97795415,-0.00537996,-0.015600349,0.20816675,0.0,0.0,-0.58139133,1,0,0,0,0,0
254056000,-0.01645219,-0.028003883,0.41969922,0.0,0.9779573,-0.0051281624,-0.015407271,0.2081727,0.0,0.0,-0.5828959,1,0,0,0,0,0
254156000,-0.016570402,-0.032497693,0.41969922,0.0,0.9779276,-0.004717702,-0.017616805,0.20814648,0.0,0.0,-0.5767505,1,0,0,0,0,0
254252000,-0.017595893,-0.02975934,0.41969922,0.0,0.97794336,-0.005504485,-0.016384643,0.20815368,0.0,0.0,-0.5791496,1,0,0,0,0,0
254348000,-0.016497476,-0.030143306,0.41969922,0.0,0.97794384,-0.0049273795,-0.016458057,0.20816046,0.0,0.0,-0.57670027,1,0,0,0,0,0
254444000,-0.01633205,-0.031572964,0.41969922,0.0,0.97793466,-0.004697517,-0.017139863,0.20815381,0.0,0.0,-0.5771644,1,0,0,0,0,0
254560000,-0.016816406,-0.03074417,0.41969922,0.0,0.97793907,-0.005020714,-0.01678504,0.20815443,0.0,0.0,-0.58115053,1,0,0,0,0,0
254656000,-0.01656416,-0.03080868,0.41969922,0.0,0.97793925,-0.004890653,-0.016790332,0.20815618,0.0,0.0,-0.58394974,1,0,0,0,0,0
254756000,-0.017507885,-0.032248236,0.41969922,0.0,0.977927,-0.005202092,-0.017592402,0.20813972,0.0,0.0,-0.5810751,1,0,0,0,0,0
254852000,-0.019451264,-0.03290436,0.41969922,0.0,0.97791696,-0.006083953,-0.018115439,0.20811826,0.0,0.0,-0.58022165,1,0,0,0,0,0
254948000,-0.018070107,-0.031861596,0.41969922,0.0,0.9779282,-0.005517289,-0.01746187,0.2081371,0.0,0.0,-0.58191466,1,0,0,0,0,0
255044000,-0.020315582,-0.03160246,0.41969922,0.0,0.97792315,-0.0066422494,-0.017568843,0.20811911,0.0,0.0,-0.5799445,1,0,0,0,0,0
255140000,-0.019674849,-0.032941237,0.41969922,0.0,0.977916,-0.0061894334,-0.018156735,0.20811601,0.0,0.0,-0.58008575,1,0,0,0,0,0
255256000,-0.020942774,-0.031755034,0.41969922,0.0,0.97791994,-0.006933021,-0.017708708,0.20811254,0.0,0.0,-0.5856838,1,0,0,0,0,0
255356000,-0.019975103,-0.03184742,0.41969922,0.0,0.9779226,-0.00645024,-0.017653182,0.2081205,0.0,0.0,-0.5819303,1,0,0,0,0,0
255452000,-0.021912929,-0.032403868,0.41969922,0.0,0.9779121,-0.007339764,-0.018126884,0.20809935,0.0,0.0,-0.5822405,1,0,0,0,0,0
255548000,-0.023589639,-0.0340896,0.41969922,0.0,0.97789407,-0.007983892,-0.019125504,0.20807144,0.0,0.0,-0.579318,1,0,0,0,0,0
255644000,-0.023820631,-0.033067673,0.41969922,0.0,0.97790027,-0.008203354,-0.018649912,0.20807697,0.0,0.0,-0.5778246,1,0,0,0,0,0
255760000,-0.022175597,-0.033232443,0.41969922,0.0,0.97790545,-0.007381838,-0.018559316,0.20809107,0.0,0.0,-0.5844162,1,0,0,0,0,0
255856000,-0.023688812,-0.032268006,0.41969922,0.0,0.97790617,-0.00822225,-0.01824523,0.20808421,0.0,0.0,-0.5857472,1,0,0,0,0,0
255956000,-0.024906741,-0.03546792,0.41969922,0.0,0.97787863,-0.008484211,-0.019936383,0.20804793,0.0,0.0,-0.58125365,1,0,0,0,0,0
256051999,-0.02354574,-0.035954576,0.41969922,0.0,0.97788054,-0.0077680363,-0.020032728,0.20805773,0.0,0.0,-0.57761925,1,0,0,0,0,0
256148000,-0.024600362,-0.03609118,0.41969922,0.0,0.9778753,-0.008269443,-0.020209221,0.20804608,0.0,0.0,-0.5645889,1,0,0,0,0,0
256244000,-0.025138892,-0.037742894,0.41969922,0.0,0.9778603,-0.0083605675,-0.021072738,0.20802727,0.0,0.0,-0.5611187,1,0,0,0,0,0
256364000,-0.024206247,-0.038306266,0.41969922,0.0,0.9778595,-0.007845841,-0.021251148,0.20803264,0.0,0.0,-0.5692854,1,0,0,0,0,0
256460000,-0.022897564,-0.03617526,0.41969922,0.0,0.9778813,-0.007428113,-0.020073188,0.20806259,0.0,0.0,-0.5663389,1,0,0,0,0,0
256556000,-0.023816949,-0.03929335,0.41969922,0.0,0.9778529,-0.007552605,-0.021693222,0.20802903,0.0,0.0,-0.56207585,1,0,0,0,0,0
256652000,-0.023713658,-0.037534676,0.41969922,0.0,0.9778676,-0.0076854294,-0.020822693,0.20804386,0.0,0.0,-0.5623827,1,0,0,0,0,0
256748000,-0.024920216,-0.037992753,0.41969922,0.0,0.97785914,-0.008227603,-0.021172144,0.20802756,0.0,0.0,-0.5681846,1,0,0,0,0,0
256864000,-0.023748599,-0.036236245,0.41969922,0.0,0.9778776,-0.007837861,-0.020191535,0.20805353,0.0,0.0,-0.563287,1,0,0,0,0,0
256964000,-0.02602971,-0.0375526,0.41969922,0.0,0.97785795,-0.008815953,-0.021072362,0.20801947,0.0,0.0,-0.5607008,1,0,0,0,0,0
257060000,-0.026097726,-0.037069354,0.41969922,0.0,0.9778614,-0.008899585,-0.020843185,0.20802276,0.0,0.0,-0.56161547,1,0,0,0,0,0
257156000,-0.026444914,-0.03888229,0.41969922,0.0,0.97784555,-0.008880335,-0.021765593,0.20800388,0.0,0.0,-0.56309414,1,0,0,0,0,0
257251999,-0.025673743,-0.037910942,0.41969922,0.0,0.97785664,-0.0086045535,-0.021210523,0.20802024,0.0,0.0,-0.563493,1,0,0,0,0,0
257371999,-0.02569779,-0.038793277,0.41969922,0.0,0.9778494,-0.008524329,-0.02164438,0.2080127,0.0,0.0,-0.5629938,1,0,0,0,0,0
257467999,-0.025924677,-0.036892045,0.41969922,0.0,0.9778635,-0.008833459,-0.020738507,0.20802604,0.0,0.0,-0.5611658,1,0,0,0,0,0
257563999,-0.02500595,-0.03695655,0.41969922,0.0,0.97786695,-0.008377541,-0.02067448,0.20803502,0.0,0.0,-0.5641758,1,0,0,0,0,0
257680000,-0.026288876,-0.03572682,0.41969922,0.0,0.97787064,-0.009132999,-0.020206727,0.20803194,0.0,0.0,-0.5657126,1,0,0,0,0,0
257756000,-0.02567458,-0.036758065,0.41969922,0.0,0.97786564,-0.008725149,-0.020646993,0.2080297,0.0,0.0,-0.56447464,1,0,0,0,0,0
257876000,-0.025514467,-0.0336631,0.41969922,0.0,0.9778889,-0.008969486,-0.019117234,0.20805633,0.0,0.0,-0.5621423,1,0,0,0,0,0
257972000,-0.02526223,-0.03211191,0.41969922,0.0,0.9779004,-0.009007845,-0.01833261,0.20807101,0.0,0.0,-0.5700592,1,0,0,0,0,0
258068000,-0.024953509,-0.031560667,0.41969922,0.0,0.97790533,-0.008914353,-0.018030984,0.2080781,0.0,0.0,-0.5647659,1,0,0,0,0,0
258184000,-0.02286019,-0.031788047,0.41969922,0.0,0.9779127,-0.007867115,-0.017924355,0.20809522,0.0,0.0,-0.56273335,1,0,0,0,0,0
258280000,-0.021395158,-0.033053555,0.41969922,0.0,0.97790956,-0.007018885,-0.018390652,0.20809954,0.0,0.0,-0.56528926,1,0,0,0,0,0
258380000,-0.022313828,-0.032984536,0.41969922,0.0,0.9779067,-0.0074752644,-0.018452493,0.20809157,0.0,0.0,-0.5612392,1,0,0,0,0,0
258476000,-0.02102401,-0.0314568,0.41969922,0.0,0.9779217,-0.007003823,-0.017571341,0.20811383,0.0,0.0,-0.56124943,1,0,0,0,0,0
258592000,-0.020678505,-0.03041861,0.41969922,0.0,0.9779296,-0.006943082,-0.01702779,0.20812377,0.0,0.0,-0.5650096,1,0,0,0,0,0
258688000,-0.020581005,-0.0288522,0.41969922,0.0,0.97793967,-0.007058648,-0.01625177,0.20813492,0.0,0.0,-0.56399095,1,0,0,0,0,0
258787999,-0.021180116,-0.028676366,0.41969922,0.0,0.9779385,-0.00736992,-0.016228147,0.20813121,0.0,0.0,-0.5632237,1,0,0,0,0,0
258883999,-0.020046534,-0.028469747,0.41969922,0.0,0.9779438,-0.0068371645,-0.016009152,0.2081417,0.0,0.0,-0.5622548,1,0,0,0,0,0
258979999,-0.021069095,-0.029260034,0.41969922,0.0,0.9779354,-0.0072548077,-0.01650197,0.20812826,0.0,0.0,-0.56382793,1,0,0,0,0,0
259096000,-0.021064606,-0.028855583,0.41969922,0.0,0.9779379,-0.0072947624,-0.01630375,0.20813099,0.0,0.0,-0.5642279,1,0,0,0,0,0
259192000,-0.020430401,-0.029615432,0.41969922,0.0,0.97793555,-0.00690547,-0.016609268,0.20813116,0.0,0.0,-0.5653882,1,0,0,0,0,0
259292000,-0.020065546,-0.029267002,0.41969922,0.0,0.9779389,-0.006763378,-0.01640094,0.20813644,0.0,0.0,-0.56289583,1,0,0,0,0,0
259388000,-0.021705199,-0.03031057,0.41969922,0.0,0.9779266,-0.0074563567,-0.0170818,0.20811574,0.0,0.0,-0.5631882,1,0,0,0,0,0
259484000,-0.020460607,-0.029653702,0.41969922,0.0,0.97793514,-0.0069162524,-0.016631126,0.20813067,0.0,0.0,-0.5621011,1,0,0,0,0,0
259580000,-0.019034995,-0.03047841,0.41969922,0.0,0.9779346,-0.006133228,-0.016885996,0.20813736,0.0,0.0,-0.5707531,1,0,0,0,0,0
259700000,-0.01812449,-0.028837897,0.41969922,0.0,0.97794765,-0.0058589736,-0.01598912,0.20815483,0.0,0.0,-0.56148225,1,0,0,0,0,0
259796000,-0.018275518,-0.028297605,0.41969922,0.0,0.97795045,-0.0059891217,-0.015740665,0.20815681,0.0,0.0,-0.5615626,1,0,0,0,0,0
259892000,-0.019643793,-0.028755823,0.41969922,0.0,0.97794336,-0.006610425,-0.016107114,0.20814313,0.0,0.0,-0.56315815,1,0,0,0,0,0
260008000,-0.021360084,-0.028868793,0.41969922,0.0,0.97793674,-0.0074378652,-0.016340958,0.20812845,0.0,0.0,-0.5631566,1,0,0,0,0,0
260104000,-0.018386101,-0.029263986,0.41969922,0.0,0.97794425,-0.005942493,-0.016224684,0.20815016,0.0,0.0,-0.56324273,1,0,0,0,0,0
260204000,-0.018523756,-0.029158534,0.41969922,0.0,0.9779445,-0.0060207914,-0.01618745,0.20814969,0.0,0.0,-0.5611183,1,0,0,0,0,0
260299999,-0.01585635,-0.029821852,0.41969922,0.0,0.9779474,-0.004647381,-0.016234152,0.2081675,0.0,0.0,-0.5638223,1,0,0,0,0,0
260395999,-0.015803518,-0.027524553,0.41969922,0.0,0.9779618,-0.0048609213,-0.015105382,0.20818022,0.0,0.0,-0.5623847,1,0,0,0,0,0
260491999,-0.016407607,-0.028277023,0.41969922,0.0,0.97795576,-0.005077903,-0.015536185,0.20817155,0.0,0.0,-0.56232107,1,0,0,0,0,0
260608000,-0.017765125,-0.029374177,0.41969922,0.0,0.9779454,-0.00562737,-0.016213931,0.20815453,0.0,0.0,-0.56225544,1,0,0,0,0,0
260708000,-0.01721207,-0.031059088,0.41969922,0.0,0.97793597,-0.005181366,-0.016980195,0.20814927,0.0,0.0,-0.5618065,1,0,0,0,0,0
260804000,-0.018027717,-0.030531315,0.41969922,0.0,0.9779372,-0.005635189,-0.016807035,0.20814548,0.0,0.0,-0.56341165,1,0,0,0,0,0
260900000,-0.018667053,-0.030735333,0.41969922,0.0,0.97793406,-0.005926543,-0.016973322,0.20813885,0.0,0.0,-0.5622744,1,0,0,0,0,0
260996000,-0.016503876,-0.032466013,0.41969922,0.0,0.977928,-0.004688475,-0.01759439,0.20814726,0.0,0.0,-0.56163627,1,0,0,0,0,0
261116000,-0.015348879,-0.033924103,0.41969922,0.0,0.9779199,-0.0039717867,-0.018187098,0.20814942,0.0,0.0,-0.56234413,1,0,0,0,0,0
261212000,-0.018618044,-0.03134896,0.41969922,0.0,0.9779302,-0.0058386326,-0.017268246,0.20813547,0.0,0.0,-0.5625451,1,0,0,0,0,0
261308000,-0.018127935,-0.031359635,0.41969922,0.0,0.9779315,-0.0055978745,-0.017222462,0.20813966,0.0,0.0,-0.5617209,1,0,0,0,0,0
261404000,-0.020276144,-0.031972945,0.41969922,0.0,0.9779208,-0.0065843547,-0.017745884,0.20811698,0.0,0.0,-0.56255347,1,0,0,0,0,0
261520000,-0.017551105,-0.032360345,0.41969922,0.0,0.9779262,-0.005211543,-0.017651713,0.20813866,0.0,0.0,-0.5623955,1,0,0,0,0,0
261620000,-0.018740159,-0.03188928,0.41969922,0.0,0.97792614,-0.0058420356,-0.017545136,0.20813107,0.0,0.0,-0.5609039,1,0,0,0,0,0
261716000,-0.018986583,-0.029776426,0.41969922,0.0,0.97793925,-0.006182711,-0.016537733,0.20814212,0.0,0.0,-0.5615096,1,0,0,0,0,0
261811999,-0.019014535,-0.029855091,0.41969922,0.0,0.97793865,-0.0061881803,-0.0165791,0.20814139,0.0,0.0,-0.5619053,1,0,0,0,0,0
261928000,-0.017673254,-0.03051151,0.41969922,0.0,0.97793835,-0.005463931,-0.01676046,0.20814858,0.0,0.0,-0.5619673,1,0,0,0,0,0
262027999,-0.017664611,-0.032729577,0.41969922,0.0,0.9779233,-0.0052285674,-0.017844055,0.20813544,0.0,0.0,-0.5606468,1,0,0,0,0,0
262124000,-0.017228967,-0.03322541,0.41969922,0.0,0.97792083,-0.0049638827,-0.018041147,0.20813636,0.0,0.0,-0.5621749,1,0,0,0,0,0
262220000,-0.018222703,-0.033003625,0.42236003,0.0,0.97764206,-0.005448892,-0.01804339,0.20942958,0.0,0.0,-0.56114703,1,0,0,0,0,0
262316000,-0.01355079,-0.054044645,0.49775824,0.0,0.9688582,9.092394e-05,-0.02785423,0.24604474,0.0,0.0,-0.5706399,1,0,0,0,0,0
262436000,-0.00399326,-0.14430672,0.592006,0.0,0.9540614,0.019123964,-0.0695363,0.29080215,0.0,0.0,-0.5594577,1,0,0,0,0,0
262532000,0.0068115797,-0.25313547,0.66740423,0.0,0.93713224,0.044537723,-0.11815944,0.3253275,0.0,0.0,-0.56851846,1,0,0,0,0,0
262628000,0.0034569579,-0.32988414,0.74280244,0.0,0.9190686,0.061178636,-0.1523813,0.35825977,0.0,0.0,-0.5614754,1,0,0,0,0,0
262724000,-0.007127495,-0.3877226,0.81820065,0.0,0.90055996,0.07342392,-0.17814162,0.38970026,0.0,0.0,-0.5713578,1,0,0,0,0,0
262840000,-0.029159747,-0.43755215,0.89777756,0.0,0.8807348,0.08135364,-0.20168868,0.4207248,0.0,0.0,-0.58512396,1,0,0,0,0,0
262936000,-0.023764517,-0.46151564,0.89778775,0.0,0.8781646,0.08882734,-0.21106113,0.419988,0.0,0.0,-0.5953466,1,0,0,0,0,0
263036000,-0.018365337,-0.470608,0.897804,0.0,0.87698996,0.09312763,-0.21390656,0.42007124,0.0,0.0,-0.6027592,1,0,0,0,0,0
263132000,-0.013882554,-0.49184042,0.89782166,0.0,0.8745273,0.09958519,-0.22224456,0.41939506,0.0,0.0,-0.6102104,1,0,0,0,0,0
263228000,-0.010966447,-0.51426697,0.8978423,0.0,0.87188846,0.10558953,-0.23140927,0.41846284,0.0,0.0,-0.6166148,1,0,0,0,0,0
263344000,-0.008361167,-0.5488948,0.8978589,0.0,0.8676799,0.11399448,-0.24590512,0.41673452,0.0,0.0,-0.62846947,1,0,0,0,0,0
263443999,-0.009437991,-0.5578754,0.89787155,0.0,0.8666422,0.11540875,-0.25001767,0.4160568,0.0,0.0,-0.6334803,1,0,0,0,0,0
263539999,-0.010689699,-0.57232594,0.8978669,0.0,0.86491656,0.11788684,-0.25652468,0.41499057,0.0,0.0,-0.64093226,1,0,0,0,0,0
263636000,-0.0103656845,-0.5878269,0.89785755,0.0,0.86291915,0.12125931,-0.2631438,0.41403142,0.0,0.0,-0.6484775,1,0,0,0,0,0
263732000,-0.011238233,-0.60647345,0.8978261,0.0,0.8605295,0.12475967,-0.27134737,0.41266766,0.0,0.0,-0.6548801,1,0,0,0,0,0
263852000,-0.0136184115,-0.6668787,0.89778435,0.0,0.8522547,0.13623545,-0.29765463,0.40804848,0.0,0.0,-0.65889615,1,0,0,0,0,0
263948000,-0.014535458,-0.702065,0.8977187,0.0,0.84706366,0.14306484,-0.31275815,0.40521345,0.0,0.0,-0.6718581,1,0,0,0,0,0
264044000,-0.02504328,-0.69051373,0.89765656,0.0,0.84956175,0.13622493,-0.31000677,0.40445456,0.0,0.0,-0.6821483,1,0,0,0,0,0
264140000,-0.039773025,-0.6237072,0.89755225,0.0,0.85999894,0.11604104,-0.28459796,0.40735772,0.0,0.0,-0.6696487,1,0,0,0,0,0
264256000,-0.042800043,-0.60260206,0.8974453,0.0,0.8629707,0.11029925,-0.27618748,0.40845567,0.0,0.0,-0.6985303,1,0,0,0,0,0
264352000,-0.04119701,-0.6108625,0.897332,0.0,0.8618289,0.11270756,-0.279406,0.4080199,0.0,0.0,-0.69059634,1,0,0,0,0,0
264452000,-0.03572018,-0.6218848,0.8972449,0.0,0.86006945,0.1173593,-0.2830108,0.40793642,0.0,0.0,-0.6774152,1,0,0,0,0,0
264548000,-0.031290207,-0.61003345,0.8971572,0.0,0.86140543,0.116777666,-0.27703634,0.40938315,0.0,0.0,-0.67052674,1,0,0,0,0,0
264644000,-0.023758227,-0.5738038,0.89711225,0.0,0.86563975,0.11244457,-0.25991076,0.41288075,0.0,0.0,-0.66805375,1,0,0,0,0,0
264760000,-0.02266818,-0.53657156,0.89702773,0.0,0.87010443,0.10509047,-0.24358416,0.41538057,0.0,0.0,-0.6762285,1,0,0,0,0,0
264859999,-0.023569033,-0.54253244,0.89697635,0.0,0.86946136,0.10594621,-0.24635825,0.41487354,0.0,0.0,-0.677046,1,0,0,0,0,0
264955999,-0.026400039,-0.577942,0.8968946,0.0,0.86531436,0.112139784,-0.2622523,0.41216442,0.0,0.0,-0.67493737,1,0,0,0,0,0
265051999,-0.026567172,-0.6032417,0.89684486,0.0,0.86208653,0.117351405,-0.27317306,0.4103802,0.0,0.0,-0.66642046,1,0,0,0,0,0
265168000,-0.028331965,-0.60856384,0.89675653,0.0,0.8615081,0.11768968,-0.27582395,0.40972438,0.0,0.0,-0.66889685,1,0,0,0,0,0
265268000,-0.027649773,-0.59811413,0.8967078,0.0,0.86284685,0.115795046,-0.27120095,0.41053247,0.0,0.0,-0.6753468,1,0,0,0,0,0
265364000,-0.029587947,-0.57893777,0.89662504,0.0,0.8654226,0.11093361,-0.2633529,0.4115614,0.0,0.0,-0.6799174,1,0,0,0,0,0
265460000,-0.030440127,-0.5722117,0.8965827,0.0,0.86631733,0.10914868,-0.2606311,0.41188875,0.0,0.0,-0.67942023,1,0,0,0,0,0
265556000,-0.03208317,-0.5697723,0.8964864,0.0,0.8667279,0.10791229,-0.25992244,0.41179845,0.0,0.0,-0.6791401,1,0,0,0,0,0
265672000,-0.028053802,-0.58007175,0.89641476,0.0,0.86523783,0.11180728,-0.26353753,0.41159514,0.0,0.0,-0.67925936,1,0,0,0,0,0
265768000,-0.028633323,-0.588078,0.89632607,0.0,0.8642736,0.113220744,-0.26710927,0.4109316,0.0,0.0,-0.67686635,1,0,0,0,0,0
265868000,-0.02729072,-0.5885663,0.8962862,0.0,0.86414325,0.11389768,-0.26704577,0.41106007,0.0,0.0,-0.67581606,1,0,0,0,0,0
265964000,-0.027062856,-0.58849084,0.89628005,0.0,0.86414117,0.11397952,-0.26696676,0.41109306,0.0,0.0,-0.67687577,1,0,0,0,0,0
266060000,-0.029667497,-0.58321136,0.89620876,0.0,0.8649742,0.11173946,-0.2652333,0.4110782,0.0,0.0,-0.6813216,1,0,0,0,0,0
266176000,-0.029664245,-0.58591497,0.8961625,0.0,0.8646408,0.1123007,-0.26639932,0.4108726,0.0,0.0,-0.68403506,1,0,0,0,0,0
266275999,-0.032252844,-0.5849428,0.8960675,0.0,0.86492807,0.1109652,-0.26651773,0.41055384,0.0,0.0,-0.6826457,1,0,0,0,0,0
266371999,-0.0320162,-0.59065634,0.89601254,0.0,0.86419934,0.11225641,-0.26893058,0.41016373,0.0,0.0,-0.6834241,1,0,0,0,0,0
266467999,-0.035532694,-0.59124506,0.89591223,0.0,0.8643409,0.11084657,-0.26991,0.40960526,0.0,0.0,-0.6842394,1,0,0,0,0,0
266584000,-0.03388302,-0.5958706,0.895844,0.0,0.8636699,0.11251828,-0.27156407,0.40947166,0.0,0.0,-0.6852533,1,0,0,0,0,0
266680000,-0.035271924,-0.5925111,0.8957485,0.0,0.8641982,0.111202255,-0.27040997,0.40948012,0.0,0.0,-0.6880235,1,0,0,0,0,0
266780000,-0.035402734,-0.58892655,0.89570206,0.0,0.864672,0.110388756,-0.268898,0.4096956,0.0,0.0,-0.68869615,1,0,0,0,0,0
266876000,-0.03682038,-0.58647853,0.89560664,0.0,0.86507976,0.10924992,-0.26814055,0.4096366,0.0,0.0,-0.6891907,1,0,0,0,0,0
266972000,-0.035733014,-0.5882595,0.8955726,0.0,0.86480147,0.11008881,-0.26868588,0.40964225,0.0,0.0,-0.68579304,1,0,0,0,0,0
267092000,-0.034789775,-0.5913428,0.895479,0.0,0.8643759,0.11112965,-0.26982397,0.40951142,0.0,0.0,-0.69248295,1,0,0,0,0,0
267188000,-0.035604768,-0.5914885,0.89545023,0.0,0.8644084,0.110804014,-0.27005503,0.40937862,0.0,0.0,-0.6834844,1,0,0,0,0,0
267284000,-0.037857108,-0.58585787,0.8953897,0.0,0.86525905,0.10864225,-0.2680976,0.4094475,0.0,0.0,-0.6902785,1,0,0,0,0,0
267380000,-0.035343733,-0.5860398,0.8953737,0.0,0.8651021,0.1097655,-0.26766202,0.4097645,0.0,0.0,-0.68643665,1,0,0,0,0,0
267496000,-0.038184002,-0.5864528,0.8953015,0.0,0.8652197,0.10861373,-0.2684253,0.4093235,0.0,0.0,-0.69033134,1,0,0,0,0,0
267592000,-0.036924493,-0.5871679,0.89528227,0.0,0.8650647,0.10930585,-0.2684762,0.40943366,0.0,0.0,-0.68913704,1,0,0,0,0,0
267692000,-0.038526762,-0.58168066,0.8952279,0.0,0.8658535,0.10745482,-0.26644558,0.40958264,0.0,0.0,-0.6890493,1,0,0,0,0,0
267787999,-0.037617955,-0.58444965,0.8952163,0.0,0.8654591,0.10842729,-0.26745206,0.40950388,0.0,0.0,-0.6889701,1,0,0,0,0,0
267883999,-0.03848129,-0.5828738,0.895174,0.0,0.8657125,0.10771757,-0.26695284,0.4094813,0.0,0.0,-0.69001913,1,0,0,0,0,0
268000000,-0.036376037,-0.5878575,0.8951737,0.0,0.8649695,0.10967295,-0.2686665,0.40941173,0.0,0.0,-0.6902573,1,0,0,0,0,0
268099999,-0.03733185,-0.58315825,0.89514005,0.0,0.86562175,0.1082702,-0.26684174,0.40959996,0.0,0.0,-0.6908211,1,0,0,0,0,0
268196000,-0.036965255,-0.58456707,0.8951444,0.0,0.86542356,0.108724736,-0.26737288,0.40955177,0.0,0.0,-0.68873596,1,0,0,0,0,0
268292000,-0.03909766,-0.5845133,0.8951121,0.0,0.8655524,0.107786365,-0.26778796,0.40925637,0.0,0.0,-0.6907377,1,0,0,0,0,0
268388000,-0.039126888,-0.58450526,0.8951249,0.0,0.86555237,0.10777374,-0.2677898,0.40925854,0.0,0.0,-0.6897978,1,0,0,0,0,0
268484000,-0.04014269,-0.57828903,0.89509046,0.0,0.8663911,0.106025025,-0.26532334,0.40954688,0.0,0.0,-0.6920398,1,0,0,0,0,0
268600000,-0.03844262,-0.5828439,0.89510536,0.0,0.86572826,0.107718885,-0.26693577,0.40945885,0.0,0.0,-0.69257843,1,0,0,0,0,0
268700000,-0.038600318,-0.5812259,0.8951023,0.0,0.86594015,0.107310854,-0.2662716,0.40955043,0.0,0.0,-0.69084895,1,0,0,0,0,0
268796000,-0.038382802,-0.5828519,0.8951313,0.0,0.8657187,0.10774991,-0.26692554,0.4094775,0.0,0.0,-0.6906911,1,0,0,0,0,0
268892000,-0.03975354,-0.5823369,0.8951276,0.0,0.8658576,0.107048005,-0.26698467,0.40932924,0.0,0.0,-0.69158715,1,0,0,0,0,0
268988000,-0.03914089,-0.58434445,0.8951603,0.0,0.8655661,0.10773868,-0.26772156,0.40928334,0.0,0.0,-0.690334,1,0,0,0,0,0
269084000,-0.040588688,-0.5808177,0.8951571,0.0,0.8660861,0.106371514,-0.2665,0.4093381,0.0,0.0,-0.6915507,1,0,0,0,0,0
269200000,-0.038793296,-0.5844445,0.89519584,0.0,0.8655275,0.10791484,-0.26769158,0.40933818,0.0,0.0,-0.69233245,1,0,0,0,0,0
269300000,-0.038689785,-0.5803211,0.89521873,0.0,0.8660342,0.10709776,-0.26589406,0.40965253,0.0,0.0,-0.6919519,1,0,0,0,0,0
269396000,-0.037772022,-0.5808013,0.8952679,0.0,0.86591476,0.10760246,-0.26591024,0.4097621,0.0,0.0,-0.6912109,1,0,0,0,0,0
269492000,-0.038195044,-0.5786125,0.89529824,0.0,0.86620456,0.1069641,-0.26505262,0.4098724,0.0,0.0,-0.6936244,1,0,0,0,0,0
269588000,-0.037813447,-0.5806388,0.8953574,0.0,0.86591905,0.10756231,-0.26584396,0.40980676,0.0,0.0,-0.6910082,1,0,0,0,0,0
269684000,-0.038429745,-0.5794474,0.89539593,0.0,0.86609304,0.10705059,-0.2654551,0.40982515,0.0,0.0,-0.69341046,1,0,0,0,0,0
269800000,-0.03576119,-0.5844443,0.8954693,0.0,0.86530685,0.10926341,-0.2670557,0.40986192,0.0,0.0,-0.6937839,1,0,0,0,0,0
269900000,-0.037106555,-0.58166856,0.89552444,0.0,0.8657177,0.10810657,-0.2661335,0.4099009,0.0,0.0,-0.69274044,1,0,0,0,0,0
269996000,-0.036100674,-0.58344007,0.89559174,0.0,0.86542684,0.108922325,-0.2666863,0.40993994,0.0,0.0,-0.6919727,1,0,0,0,0,0
270092000,-0.036712665,-0.58293086,0.8956354,0.0,0.86551523,0.10855655,-0.26659018,0.4099129,0.0,0.0,-0.69365376,1,0,0,0,0,0
270188000,-0.036362268,-0.58489776,0.8957002,0.0,0.8652352,0.109129235,-0.26736137,0.40984967,0.0,0.0,-0.69176674,1,0,0,0,0,0
270304000,-0.035756957,-0.5877325,0.89575833,0.0,0.86483157,0.109992996,-0.26845387,0.40975648,0.0,0.0,-0.695148,1,0,0,0,0,0
270400000,-0.03437836,-0.58786666,0.8958268,0.0,0.86472446,0.110626385,-0.2682253,0.40996167,0.0,0.0,-0.69429994,1,0,0,0,0,0
270500000,-0.03655,-0.58421,0.8958899,0.0,0.86529326,0.10892915,-0.26709354,0.40995497,0.0,0.0,-0.6930173,1,0,0,0,0,0
270596000,-0.03276299,-0.5854151,0.8959611,0.0,0.8649184,0.110829346,-0.26683164,0.41040704,0.0,0.0,-0.6942405,1,0,0,0,0,0
270692000,-0.03469454,-0.5889,0.8960193,0.0,0.8645713,0.110731974,-0.26872393,0.40992987,0.0,0.0,-0.6913403,1,0,0,0,0,0
270788000,-0.033751547,-0.58884466,0.89609194,0.0,0.8645111,0.111137755,-0.26850274,0.4100918,0.0,0.0,-0.6931923,1,0,0,0,0,0
270904000,-0.033145294,-0.59007406,0.89616597,0.0,0.8643055,0.11166721,-0.26890308,0.410119,0.0,0.0,-0.6954747,1,0,0,0,0,0
271000000,-0.032594148,-0.5898484,0.8962403,0.0,0.8642882,0.11186816,-0.2686889,0.41024098,0.0,0.0,-0.69594175,1,0,0,0,0,0
271100000,-0.033272866,-0.58536553,0.89630973,0.0,0.86488134,0.11064496,-0.26689562,0.41049325,0.0,0.0,-0.6951854,1,0,0,0,0,0
271196000,-0.033225033,-0.5890333,0.89638144,0.0,0.8643984,0.111443706,-0.2684598,0.41027436,0.0,0.0,-0.69429016,1,0,0,0,0,0
271292000,-0.03305046,-0.58959407,0.89644736,0.0,0.86430365,0.11164548,-0.2686615,0.41028705,0.0,0.0,-0.69386023,1,0,0,0,0,0
271388000,-0.031046588,-0.5888591,0.8965203,0.0,0.8642702,0.112367325,-0.26793006,0.41063866,0.0,0.0,-0.69530934,1,0,0,0,0,0
271504000,-0.029932296,-0.5912428,0.89659864,0.0,0.8638865,0.11335819,-0.26872212,0.41065615,0.0,0.0,-0.6985069,1,0,0,0,0,0
271600000,-0.03013095,-0.5897914,0.8966709,0.0,0.8640686,0.11297831,-0.2681346,0.41076162,0.0,0.0,-0.6975341,1,0,0,0,0,0
271700000,-0.029804574,-0.58548,0.8967398,0.0,0.8645852,0.112225845,-0.26620853,0.41113347,0.0,0.0,-0.6968446,1,0,0,0,0,0
271796000,-0.031700227,-0.58749926,0.8968067,0.0,0.8644212,0.11183835,-0.2674632,0.41076955,0.0,0.0,-0.6962826,1,0,0,0,0,0
271892000,-0.030930297,-0.58911616,0.8968674,0.0,0.8641596,0.112517916,-0.26799724,0.41078636,0.0,0.0,-0.69624126,1,0,0,0,0,0
271988000,-0.030315528,-0.5924436,0.89693046,0.0,0.8636861,0.11348864,-0.26929832,0.4106642,0.0,0.0,-0.69422954,1,0,0,0,0,0
272104000,-0.029330023,-0.5948747,0.89698964,0.0,0.863305,0.11443082,-0.2701376,0.41065294,0.0,0.0,-0.6972322,1,0,0,0,0,0
272200000,-0.030558389,-0.5929791,0.89704585,0.0,0.8636074,0.11351138,-0.2695718,0.4106439,0.0,0.0,-0.6977798,1,0,0,0,0,0
272300000,-0.029643081,-0.5931036,0.8971079,0.0,0.86352664,0.11394103,-0.26943386,0.41078535,0.0,0.0,-0.69546735,1,0,0,0,0,0
272396000,-0.03098,-0.5974325,0.8971618,0.0,0.86303353,0.11427723,-0.27156544,0.41032428,0.0,0.0,-0.69693446,1,0,0,0,0,0
272492000,-0.029367581,-0.5989785,0.8972161,0.0,0.8627295,0.115303665,-0.27189544,0.410458,0.0,0.0,-0.69682825,1,0,0,0,0,0
272588000,-0.029510457,-0.59993947,0.8972691,0.0,0.862602,0.11545023,-0.2723344,0.4103938,0.0,0.0,-0.69861,1,0,0,0,0,0
272704000,-0.028785193,-0.60458493,0.89732856,0.0,0.861941,0.11674215,-0.2741763,0.41019064,0.0,0.0,-0.70123744,1,0,0,0,0,0
272800000,-0.028467728,-0.6052191,0.8973713,0.0,0.8618305,0.11701733,-0.2743808,0.41020772,0.0,0.0,-0.7003784,1,0,0,0,0,0
272900000,-0.030056067,-0.6005187,0.8974179,0.0,0.86252755,0.11535635,-0.27268648,0.41034287,0.0,0.0,-0.6994516,1,0,0,0,0,0
272996000,-0.029077074,-0.5965625,0.8974565,0.0,0.8629765,0.114956275,-0.27078417,0.41077062,0.0,0.0,-0.70069474,1,0,0,0,0,0
273092000,-0.02872825,-0.5969857,0.89749646,0.0,0.8628935,0.1152007,-0.27089202,0.41080543,0.0,0.0,-0.70075446,1,0,0,0,0,0
273188000,-0.027123429,-0.59752214,0.8975419,0.0,0.86272186,0.11601139,-0.27079016,0.41100493,0.0,0.0,-0.7020661,1,0,0,0,0,0
273304000,-0.026474912,-0.6040034,0.8975979,0.0,0.86182666,0.11765314,-0.27343687,0.4106639,0.0,0.0,-0.70242524,1,0,0,0,0,0
273400000,-0.027957736,-0.60419446,0.8976537,0.0,0.8618771,0.1170617,-0.27381998,0.41047165,0.0,0.0,-0.70367366,1,0,0,0,0,0
273500000,-0.027053576,-0.6021116,0.89770794,0.0,0.8620858,0.11702348,-0.27273715,0.41076517,0.0,0.0,-0.701409,1,0,0,0,0,0
273596000,-0.026358731,-0.60276294,0.8977605,0.0,0.8619491,0.11746622,-0.27287096,0.4108369,0.0,0.0,-0.70110893,1,0,0,0,0,0
273692000,-0.026403027,-0.6003463,0.89780706,0.0,0.862258,0.11694843,-0.27183974,0.41102004,0.0,0.0,-0.7011038,1,0,0,0,0,0
273788000,-0.028500326,-0.60179466,0.897845,0.0,0.8621835,0.116352275,-0.27289018,0.4106491,0.0,0.0,-0.6988877,1,0,0,0,0,0
273904000,-0.027281525,-0.6007692,0.8978786,0.0,0.8622394,0.11666785,-0.27219766,0.41090176,0.0,0.0,-0.7039434,1,0,0,0,0,0
274000000,-0.027962442,-0.6022046,0.8979013,0.0,0.8620871,0.11667754,-0.27295244,0.410718,0.0,0.0,-0.701087,1,0,0,0,0,0
274100000,-0.027936447,-0.5992826,0.8979228,0.0,0.86246204,0.11608059,-0.2716913,0.41093588,0.0,0.0,-0.69963497,1,0,0,0,0,0
274196000,-0.028584102,-0.5993862,0.8979398,0.0,0.8624826,0.115825266,-0.2718679,0.4108479,0.0,0.0,-0.70104617,1,0,0,0,0,0
274292000,-0.028096197,-0.6000843,0.8979555,0.0,0.8623603,0.11618385,-0.2720665,0.41087207,0.0,0.0,-0.70060545,1,0,0,0,0,0
274388000,-0.028356608,-0.6005047,0.89798033,0.0,0.86231554,0.11616288,-0.27229905,0.41081783,0.0,0.0,-0.70076174,1,0,0,0,0,0
274484000,-0.028157638,-0.5998391,0.89799756,0.0,0.8623871,0.11611176,-0.27197134,0.41089907,0.0,0.0,-0.69927216,1,0,0,0,0,0
274600000,-0.029301532,-0.60085285,0.8980154,0.0,0.8623178,0.11583307,-0.2726405,0.4106797,0.0,0.0,-0.7033868,1,0,0,0,0,0
274700000,-0.027435472,-0.5993042,0.89802843,0.0,0.86240846,0.11631547,-0.2715915,0.41104797,0.0,0.0,-0.7007506,1,0,0,0,0,0
274796000,-0.027867302,-0.59775716,0.89805,0.0,0.86263,0.11580851,-0.27101457,0.41110694,0.0,0.0,-0.7023055,1,0,0,0,0,0
274892000,-0.029196309,-0.600758,0.89806455,0.0,0.862314,0.11586528,-0.27257535,0.41072196,0.0,0.0,-0.6995926,1,0,0,0,0,0
274988000,-0.02882181,-0.59989864,0.898082,0.0,0.86240053,0.11584934,-0.2721285,0.410841,0.0,0.0,-0.70299673,1,0,0,0,0,0
275104000,-0.026571818,-0.60525924,0.89810205,0.0,0.86156386,0.11794273,-0.27396595,0.41077963,0.0,0.0,-0.70046824,1,0,0,0,0,0
275200000,-0.027917745,-0.6037757,0.89813656,0.0,0.8618306,0.11705746,-0.27360377,0.41071475,0.0,0.0,-0.7034995,1,0,0,0,0,0
275300000,-0.028175782,-0.60168505,0.8981642,0.0,0.86211336,0.116512805,-0.2727579,0.41083875,0.0,0.0,-0.6983512,1,0,0,0,0,0
275396000,-0.027056303,-0.5977309,0.89819777,0.0,0.86255604,0.11617279,-0.27082795,0.41128236,0.0,0.0,-0.70335925,1,0,0,0,0,0
275492000,-0.026255246,-0.5991834,0.8982258,0.0,0.8623148,0.11682586,-0.27128547,0.41130176,0.0,0.0,-0.69901013,1,0,0,0,0,0
275588000,-0.025961878,-0.59833133,0.8982742,0.0,0.86239856,0.116780736,-0.27085635,0.41142166,0.0,0.0,-0.7021607,1,0,0,0,0,0
275704000,-0.027125785,-0.60514617,0.8983149,0.0,0.8615676,0.11770962,-0.2740187,0.41080347,0.0,0.0,-0.6993854,1,0,0,0,0,0
275800000,-0.02703734,-0.60446894,0.89834833,0.0,0.8616445,0.117610715,-0.273708,0.41087767,0.0,0.0,-0.7031192,1,0,0,0,0,0
275900000,-0.026833048,-0.6011083,0.89837337,0.0,0.8620673,0.11699943,-0.27222216,0.41115233,0.0,0.0,-0.69999415,1,0,0,0,0,0
275996000,-0.026091857,-0.5994935,0.89840865,0.0,0.86222726,0.11698599,-0.27137434,0.41138107,0.0,0.0,-0.7025138,1,0,0,0,0,0
276092000,-0.026147526,-0.59844744,0.8984306,0.0,0.86236215,0.11674615,-0.27093527,0.41145584,0.0,0.0,-0.70159817,1,0,0,0,0,0
276188000,-0.026902134,-0.6001165,0.8984593,0.0,0.862183,0.11677391,-0.27180555,0.41124946,0.0,0.0,-0.6996582,1,0,0,0,0,0
276304000,-0.026211843,-0.6054968,0.8984813,0.0,0.86143345,0.1181994,-0.27397156,0.41097558,0.0,0.0,-0.7015457,1,0,0,0,0,0
276400000,-0.02582311,-0.6050673,0.8985172,0.0,0.86145955,0.118281975,-0.27370527,0.41107446,0.0,0.0,-0.70217586,1,0,0,0,0,0
276500000,-0.025374044,-0.60207796,0.89854556,0.0,0.8618194,0.11785443,-0.27232835,0.41135734,0.0,0.0,-0.69967043,1,0,0,0,0,0
276596000,-0.024728158,-0.60065633,0.89858454,0.0,0.8619593,0.11784085,-0.2715828,0.4115611,0.0,0.0,-0.701084,1,0,0,0,0,0
276692000,-0.023977663,-0.60058725,0.8986105,0.0,0.8619187,0.11815337,-0.27139717,0.4116789,0.0,0.0,-0.70063055,1,0,0,0,0,0
276788000,-0.022804048,-0.6010306,0.8986521,0.0,0.86178267,0.1187574,-0.27134344,0.41182542,0.0,0.0,-0.7005379,1,0,0,0,0,0
276904000,-0.023636801,-0.60514444,0.898685,0.0,0.8612851,0.11926263,-0.2732788,0.41144025,0.0,0.0,-0.7022867,1,0,0,0,0,0
277000000,-0.025132945,-0.6051082,0.8987091,0.0,0.86137384,0.11861403,-0.27356955,0.41124868,0.0,0.0,-0.7016749,1,0,0,0,0,0
277100000,-0.025071273,-0.6013174,0.8987174,0.0,0.86186576,0.11784925,-0.2719294,0.4115257,0.0,0.0,-0.7010964,1,0,0,0,0,0
277196000,-0.022509376,-0.60118675,0.8987344,0.0,0.8617277,0.11892818,-0.27134496,0.41189,0.0,0.0,-0.7002918,1,0,0,0,0,0
277292000,-0.022700932,-0.60225296,0.89874345,0.0,0.8615974,0.11906964,-0.27184165,0.41179413,0.0,0.0,-0.6989678,1,0,0,0,0,0
277388000,-0.021897454,-0.59989464,0.8987734,0.0,0.8618524,0.118927166,-0.27066165,0.41207886,0.0,0.0,-0.7023857,1,0,0,0,0,0
277504000,-0.023227377,-0.606838,0.8987873,0.0,0.86101615,0.11980664,-0.2739151,0.4114221,0.0,0.0,-0.70142055,1,0,0,0,0,0
277600000,-0.022732785,-0.60647917,0.8987893,0.0,0.8610335,0.1199449,-0.27365926,0.41151568,0.0,0.0,-0.7020407,1,0,0,0,0,0
277700000,-0.023220817,-0.60813475,0.89879805,0.0,0.860842,0.120081715,-0.27446938,0.4113369,0.0,0.0,-0.70129603,1,0,0,0,0,0
277796000,-0.023550298,-0.608395,0.8987958,0.0,0.86082774,0.11999395,-0.27464887,0.41127244,0.0,0.0,-0.7022762,1,0,0,0,0,0
277892000,-0.023255737,-0.6096213,0.8988034,0.0,0.8606459,0.12037778,-0.27511373,0.41123018,0.0,0.0,-0.7032299,1,0,0,0,0,0
277988000,-0.023499342,-0.61076516,0.8988011,0.0,0.8605091,0.12051143,-0.2756544,0.41111526,0.0,0.0,-0.7020347,1,0,0,0,0,0
278084000,-0.02327738,-0.6112525,0.8988117,0.0,0.8604287,0.120710135,-0.2758171,0.4111162,0.0,0.0,-0.70419365,1,0,0,0,0,0
278200000,-0.023577673,-0.6146725,0.89881194,0.0,0.8599904,0.121294625,-0.27734447,0.41083348,0.0,0.0,-0.7059634,1,0,0,0,0,0
278300000,-0.022486279,-0.6108557,0.89881694,0.0,0.8604326,0.12096839,-0.27548403,0.41125536,0.0,0.0,-0.7050639,1,0,0,0,0,0
278396000,-0.024394628,-0.61247516,0.898812,0.0,0.86033314,0.12048475,-0.27657074,0.41087577,0.0,0.0,-0.703777,1,0,0,0,0,0
278492000,-0.023959244,-0.6073028,0.8988174,0.0,0.8609923,0.1195928,-0.27426323,0.4113022,0.0,0.0,-0.70703757,1,0,0,0,0,0
278588000,-0.022121802,-0.6130364,0.89881366,0.0,0.8601204,0.12157966,-0.2763441,0.41115108,0.0,0.0,-0.70350987,1,0,0,0,0,0
278684000,-0.022668874,-0.611866,0.89883167,0.0,0.8603061,0.12110266,-0.27595377,0.41116557,0.0,0.0,-0.7047815,1,0,0,0,0,0
278800000,-0.022075603,-0.6146382,0.8988372,0.0,0.8598985,0.12193684,-0.27701962,0.41105485,0.0,0.0,-0.7083505,1,0,0,0,0,0
278900000,-0.020465717,-0.6118069,0.898838,0.0,0.86017877,0.122038834,-0.27547494,0.4114761,0.0,0.0,-0.704568,1,0,0,0,0,0
278996000,-0.020560587,-0.6111187,0.8988358,0.0,0.8602768,0.12185421,-0.27519953,0.4115102,0.0,0.0,-0.70523757,1,0,0,0,0,0
279092000,-0.02232936,-0.61323345,0.8988358,0.0,0.8601022,0.12153455,-0.27646986,0.4111181,0.0,0.0,-0.7040358,1,0,0,0,0,0
279188000,-0.022431342,-0.61111593,0.89882505,0.0,0.860393,0.12104743,-0.2755838,0.41124815,0.0,0.0,-0.7056237,1,0,0,0,0,0
279284000,-0.023344446,-0.6104087,0.8988196,0.0,0.8605434,0.12050622,-0.27546862,0.41116965,0.0,0.0,-0.70448834,1,0,0,0,0,0
279400000,-0.022584533,-0.6139263,0.8988027,0.0,0.86003184,0.12156477,-0.27682123,0.41101974,0.0,0.0,-0.705646,1,0,0,0,0,0
279500000,-0.02275715,-0.6083184,0.89879686,0.0,0.86079,0.120319456,-0.27445287,0.41138712,0.0,0.0,-0.705846,1,0,0,0,0,0
279596000,-0.021605914,-0.6099577,0.89878565,0.0,0.8605052,0.12115544,-0.27491975,0.41142586,0.0,0.0,-0.7045915,1,0,0,0,0,0
279692000,-0.02214177,-0.61109984,0.8987743,0.0,0.860388,0.12116166,-0.27552044,0.41126734,0.0,0.0,-0.7045046,1,0,0,0,0,0
279788000,-0.021964932,-0.6105944,0.898758,0.0,0.86044794,0.12113004,-0.27526832,0.41131997,0.0,0.0,-0.70665795,1,0,0,0,0,0
279904000,-0.020939624,-0.6148251,0.8987384,0.0,0.85982436,0.122450545,-0.27687225,0.41115656,0.0,0.0,-0.7058155,1,0,0,0,0,0
280000000,-0.021159707,-0.61106443,0.89871824,0.0,0.86034465,0.12156902,-0.27530667,0.41138092,0.0,0.0,-0.70998603,1,0,0,0,0,0
280100000,-0.022280753,-0.6107969,0.8986771,0.0,0.86045676,0.12102527,-0.275425,0.41122758,0.0,0.0,-0.7052779,1,0,0,0,0,0
280196000,-0.021875013,-0.60953516,0.89864033,0.0,0.8606075,0.120931566,-0.27480274,0.41135588,0.0,0.0,-0.70593756,1,0,0,0,0,0
280292000,-0.021510016,-0.6108437,0.8986008,0.0,0.8604195,0.12135613,-0.27529123,0.41129756,0.0,0.0,-0.7061489,1,0,0,0,0,0
280388000,-0.02249212,-0.6084651,0.89856505,0.0,0.8608023,0.12043234,-0.2744752,0.41131347,0.0,0.0,-0.7076436,1,0,0,0,0,0
280504000,-0.021591138,-0.61447644,0.89852995,0.0,0.85995376,0.122068875,-0.2768695,0.41100124,0.0,0.0,-0.70740616,1,0,0,0,0,0
280600000,-0.021218669,-0.6126284,0.8985062,0.0,0.8601832,0.121840544,-0.27600223,0.41117215,0.0,0.0,-0.7081714,1,0,0,0,0,0
280700000,-0.022879297,-0.6103054,0.8984814,0.0,0.8605985,0.120638266,-0.27534914,0.41109544,0.0,0.0,-0.7056423,1,0,0,0,0,0
280796000,-0.023681566,-0.60919,0.89845705,0.0,0.8607999,0.12005685,-0.27503714,0.41105285,0.0,0.0,-0.7074506,1,0,0,0,0,0
280892000,-0.022476798,-0.6112255,0.89843524,0.0,0.8604613,0.12099702,-0.27566367,0.41106644,0.0,0.0,-0.7046633,1,0,0,0,0,0
280988000,-0.023391217,-0.6076392,0.8984139,0.0,0.8609968,0.11985222,-0.2743149,0.41118282,0.0,0.0,-0.7078519,1,0,0,0,0,0
281084000,-0.023271846,-0.6095196,0.8983815,0.0,0.8607471,0.12029161,-0.27509886,0.41105354,0.0,0.0,-0.7052199,1,0,0,0,0,0
281200000,-0.022696424,-0.6099122,0.8983496,0.0,0.8606669,0.12061677,-0.27515084,0.41109145,0.0,0.0,-0.7113144,1,0,0,0,0,0
281300000,-0.022910517,-0.6080917,0.89832073,0.0,0.8609272,0.12014082,-0.27441576,0.411177,0.0,0.0,-0.70493585,1,0,0,0,0,0
281396000,-0.021593068,-0.6081355,0.898296,0.0,0.8608471,0.12071367,-0.27416518,0.411344,0.0,0.0,-0.70851475,1,0,0,0,0,0
281492000,-0.023328643,-0.6094867,0.8982555,0.0,0.8607808,0.120242976,-0.275104,0.41099384,0.0,0.0,-0.70663637,1,0,0,0,0,0
281588000,-0.024234125,-0.6076025,0.8982187,0.0,0.8610922,0.119454905,-0.2744841,0.41098574,0.0,0.0,-0.70850474,1,0,0,0,0,0
281704000,-0.024059825,-0.6139897,0.89815575,0.0,0.86024565,0.12085392,-0.27719066,0.41053268,0.0,0.0,-0.7081882,1,0,0,0,0,0
281800000,-0.023110002,-0.6155528,0.89811444,0.0,0.8599874,0.121582545,-0.277668,0.41053617,0.0,0.0,-0.70757556,1,0,0,0,0,0
281900000,-0.023322247,-0.61099553,0.8980665,0.0,0.8606187,0.120534435,-0.27576104,0.41080746,0.0,0.0,-0.7072071,1,0,0,0,0,0
281996000,-0.022626825,-0.6106252,0.89803594,0.0,0.8606323,0.12075224,-0.27546126,0.41091612,0.0,0.0,-0.7067532,1,0,0,0,0,0
282092000,-0.02416644,-0.6100348,0.8980022,0.0,0.8608104,0.11996184,-0.27552631,0.41073096,0.0,0.0,-0.7069871,1,0,0,0,0,0
282188000,-0.024342982,-0.6090912,0.8979724,0.0,0.8609522,0.11968489,-0.27515975,0.41076013,0.0,0.0,-0.7069557,1,0,0,0,0,0
282304000,-0.02326061,-0.61331433,0.8979272,0.0,0.86033446,0.12102523,-0.27675095,0.4105927,0.0,0.0,-0.7094015,1,0,0,0,0,0
282400000,-0.023179991,-0.61318487,0.89790505,0.0,0.86035144,0.12102984,-0.27668023,0.41060358,0.0,0.0,-0.7086753,1,0,0,0,0,0
282500000,-0.023018695,-0.611379,0.89787173,0.0,0.8605894,0.12071816,-0.27587488,0.41073853,0.0,0.0,-0.70669025,1,0,0,0,0,0
282596000,-0.022806307,-0.6106385,0.8978555,0.0,0.8606785,0.12065292,-0.2755147,0.4108128,0.0,0.0,-0.70721155,1,0,0,0,0,0
282692000,-0.022594197,-0.6105706,0.8978336,0.0,0.8606792,0.12072701,-0.27544332,0.41083735,0.0,0.0,-0.7074315,1,0,0,0,0,0
282788000,-0.022870893,-0.61095667,0.8978272,0.0,0.86064583,0.12068756,-0.27566612,0.41076943,0.0,0.0,-0.7062985,1,0,0,0,0,0
282904000,-0.023368405,-0.61318797,0.8978275,0.0,0.8603783,0.120938696,-0.27672493,0.41054383,0.0,0.0,-0.709969,1,0,0,0,0,0
283000000,-0.023176199,-0.6170491,0.8978162,0.0,0.85985184,0.12182438,-0.27834076,0.41029277,0.0,0.0,-0.71193385,1,0,0,0,0,0
283100000,-0.022369154,-0.617047,0.89781356,0.0,0.8598034,0.12217055,-0.27817446,0.4104041,0.0,0.0,-0.7089242,1,0,0,0,0,0
283196000,-0.023314798,-0.618316,0.8977988,0.0,0.8596934,0.12202626,-0.2789129,0.41017616,0.0,0.0,-0.7110237,1,0,0,0,0,0
283292000,-0.023078695,-0.6186349,0.8977919,0.0,0.85963744,0.1221932,-0.2790015,0.41018343,0.0,0.0,-0.71042496,1,0,0,0,0,0
283388000,-0.022211643,-0.6202518,0.8977748,0.0,0.85936964,0.12290007,-0.27951717,0.41018242,0.0,0.0,-0.7098342,1,0,0,0,0,0
283504000,-0.022217833,-0.6218159,0.89776826,0.0,0.8591597,0.12322202,-0.28018853,0.41006753,0.0,0.0,-0.7133184,1,0,0,0,0,0
283600000,-0.022739537,-0.6212355,0.8977271,0.0,0.85927874,0.12287136,-0.28004956,0.41001812,0.0,0.0,-0.7142753,1,0,0,0,0,0
283700000,-0.023974385,-0.6154263,0.89768976,0.0,0.8601439,0.12112548,-0.27781692,0.41024235,0.0,0.0,-0.71276605,1,0,0,0,0,0
283796000,-0.02476631,-0.616027,0.8976148,0.0,0.86012673,0.12089966,-0.27824122,0.41005743,0.0,0.0,-0.7129849,1,0,0,0,0,0
283892000,-0.024845293,-0.61982137,0.8975611,0.0,0.85963255,0.121648766,-0.2798858,0.40975285,0.0,0.0,-0.7110162,1,0,0,0,0,0
283988000,-0.022949554,-0.61988515,0.89751166,0.0,0.85951835,0.122469895,-0.2795276,0.40999225,0.0,0.0,-0.71203125,1,0,0,0,0,0
284104000,-0.021762645,-0.62480783,0.897487,0.0,0.8587827,0.12400039,-0.2813933,0.4097975,0.0,0.0,-0.7137411,1,0,0,0,0,0
284200000,-0.02265163,-0.6233766,0.89745635,0.0,0.8590386,0.12331665,-0.2809648,0.40976152,0.0,0.0,-0.71374893,1,0,0,0,0,0
284300000,-0.022132529,-0.6144682,0.8974288,0.0,0.86021394,0.12168184,-0.2770442,0.41045335,0.0,0.0,-0.71470124,1,0,0,0,0,0
284396000,-0.023259722,-0.6166128,0.8973352,0.0,0.8600141,0.12163069,-0.27820027,0.4101053,0.0,0.0,-0.71286225,1,0,0,0,0,0
284492000,-0.024049666,-0.6166832,0.89726794,0.0,0.8600665,0.12129629,-0.27839643,0.40996134,0.0,0.0,-0.7126033,1,0,0,0,0,0
284588000,-0.022703007,-0.6190614,0.89718074,0.0,0.85968226,0.122358195,-0.27914453,0.40994292,0.0,0.0,-0.713576,1,0,0,0,0,0
284704000,-0.022765538,-0.62409955,0.89711666,0.0,0.85901695,0.12337034,-0.2813185,0.40954798,0.0,0.0,-0.714192,1,0,0,0,0,0
284800000,-0.023784803,-0.62312233,0.89702964,0.0,0.8592302,0.122717015,-0.28111422,0.40943715,0.0,0.0,-0.71328473,1,0,0,0,0,0
284900000,-0.023927383,-0.61591077,0.8969657,0.0,0.8602246,0.121145986,-0.27805874,0.4099032,0.0,0.0,-0.7137149,1,0,0,0,0,0
284996000,-0.023684839,-0.61774665,0.89688146,0.0,0.8599806,0.12162077,-0.2788008,0.40977055,0.0,0.0,-0.7118317,1,0,0,0,0,0
285092000,-0.02265845,-0.61445427,0.89683247,0.0,0.8603701,0.12137011,-0.27718237,0.41012496,0.0,0.0,-0.71494514,1,0,0,0,0,0
285188000,-0.024981104,-0.6146301,0.8967256,0.0,0.8605089,0.12039261,-0.27774027,0.40974432,0.0,0.0,-0.71453243,1,0,0,0,0,0
285304000,-0.023918848,-0.62023497,0.8966425,0.0,0.8597084,0.12200453,-0.27992913,0.40945825,0.0,0.0,-0.7164322,1,0,0,0,0,0
285400000,-0.02326628,-0.6219416,0.89656335,0.0,0.8594539,0.12262879,-0.2805312,0.40939394,0.0,0.0,-0.7157648,1,0,0,0,0,0
285500000,-0.02207734,-0.6178955,0.89652264,0.0,0.859936,0.12229293,-0.27855706,0.40982968,0.0,0.0,-0.7150457,1,0,0,0,0,0
285596000,-0.024761671,-0.6188869,0.8964561,0.0,0.8599797,0.121335626,-0.2795356,0.40935627,0.0,0.0,-0.7128589,1,0,0,0,0,0
285692000,-0.023436526,-0.61760014,0.8964197,0.0,0.8600798,0.12163267,-0.27871522,0.409617,0.0,0.0,-0.714479,1,0,0,0,0,0
285788000,-0.024147697,-0.6155952,0.89632905,0.0,0.86041063,0.12089704,-0.27800718,0.40962106,0.0,0.0,-0.7138108,1,0,0,0,0,0
285904000,-0.022602703,-0.61981356,0.89627206,0.0,0.85976076,0.12243085,-0.2795018,0.40951303,0.0,0.0,-0.7163134,1,0,0,0,0,0
286000000,-0.02387758,-0.6195797,0.8961935,0.0,0.8598863,0.121823154,-0.27966738,0.40931758,0.0,0.0,-0.71596843,1,0,0,0,0,0
286100000,-0.02299927,-0.61700964,0.89613825,0.0,0.8601903,0.12165873,-0.27838975,0.40959874,0.0,0.0,-0.7141706,1,0,0,0,0,0
286196000,-0.025324494,-0.61846185,0.89603215,0.0,0.86015767,0.120945916,-0.27949435,0.40912557,0.0,0.0,-0.71368045,1,0,0,0,0,0
286292000,-0.023987744,-0.61808676,0.8959679,0.0,0.8601403,0.12143383,-0.27906403,0.40931132,0.0,0.0,-0.71304303,1,0,0,0,0,0
286388000,-0.023996923,-0.6183202,0.8958934,0.0,0.86012465,0.121468045,-0.2791705,0.40926144,0.0,0.0,-0.7131369,1,0,0,0,0,0
286504000,-0.024060927,-0.62009495,0.89585066,0.0,0.8598981,0.12180349,-0.27994648,0.40910783,0.0,0.0,-0.7152183,1,0,0,0,0,0
286600000,-0.023034321,-0.6194017,0.8957637,0.0,0.85994685,0.12208865,-0.27944478,0.40926328,0.0,0.0,-0.71476704,1,0,0,0,0,0
286700000,-0.024585782,-0.6157457,0.89572006,0.0,0.86054164,0.1206552,-0.27819815,0.40928745,0.0,0.0,-0.71448535,1,0,0,0,0,0
286796000,-0.024630206,-0.6164274,0.895642,0.0,0.86046886,0.120766975,-0.27850413,0.40919933,0.0,0.0,-0.7123062,1,0,0,0,0,0
286892000,-0.025309054,-0.620076,0.89560056,0.0,0.86002755,0.121227875,-0.28020883,0.4088269,0.0,0.0,-0.71230906,1,0,0,0,0,0
286988000,-0.025039902,-0.62077284,0.89549047,0.0,0.8599397,0.12147299,-0.28045893,0.40876743,0.0,0.0,-0.71196824,1,0,0,0,0,0
287104000,-0.025174139,-0.620644,0.895414,0.0,0.8599809,0.121377766,-0.28043583,0.40872496,0.0,0.0,-0.7152067,1,0,0,0,0,0
287200000,-0.024675103,-0.6185697,0.8952898,0.0,0.8602557,0.12114391,-0.27945268,0.40888935,0.0,0.0,-0.71749824,1,0,0,0,0,0
287300000,-0.023547236,-0.6153929,0.8952127,0.0,0.86063004,0.12095815,-0.277865,0.40923846,0.0,0.0,-0.71288496,1,0,0,0,0,0
287396000,-0.025332162,-0.59678036,0.89512765,0.0,0.86320984,0.116302855,-0.27024373,0.410257,0.0,0.0,-0.7073404,1,0,0,0,0,0
287492000,-0.025067491,-0.5612259,0.8950958,0.0,0.86768323,0.10898306,-0.25486082,0.41266754,0.0,0.0,-0.7023237,1,0,0,0,0,0
287588000,-0.023815282,-0.524587,0.8949486,0.0,0.87198234,0.1018191,-0.23872608,0.41507778,0.0,0.0,-0.700957,1,0,0,0,0,0
287704000,-0.020668473,-0.5003961,0.8948735,0.0,0.87454796,0.09809145,-0.22754224,0.41685542,0.0,0.0,-0.69501626,1,0,0,0,0,0
287800000,-0.014962759,-0.493264,0.89489645,0.0,0.87503904,0.09908717,-0.22323754,0.41791558,0.0,0.0,-0.6854553,1,0,0,0,0,0
287900000,-0.013924253,-0.4906617,0.8949586,0.0,0.8752563,0.09900044,-0.2218807,0.41820362,0.0,0.0,-0.67818296,1,0,0,0,0,0
287996000,-0.010645708,-0.48387522,0.89506024,0.0,0.8758019,0.09901738,-0.21822292,0.41898125,0.0,0.0,-0.6722832,1,0,0,0,0,0
288092000,-0.013737252,-0.4780448,0.8950933,0.0,0.8765645,0.09643759,-0.21631838,0.41897595,0.0,0.0,-0.6714814,1,0,0,0,0,0
288188000,-0.021973405,-0.4671045,0.8951411,0.0,0.8780733,0.0905181,-0.21325172,0.41870934,0.0,0.0,-0.6671418,1,0,0,0,0,0
288284000,-0.0278737,-0.45389023,0.8950581,0.0,0.87967426,0.085115984,-0.20870014,0.41877523,0.0,0.0,-0.6648153,1,0,0,0,0,0
288400000,-0.02221263,-0.4355614,0.8950305,0.0,0.8812146,0.08371468,-0.19946682,0.42031616,0.0,0.0,-0.6605715,1,0,0,0,0,0
288500000,-0.01462121,-0.4193562,0.894984,0.0,0.8824246,0.08361681,-0.19073911,0.42184553,0.0,0.0,-0.6569675,1,0,0,0,0,0
288596000,-0.011324478,-0.4054272,0.89505905,0.0,0.8835384,0.0821212,-0.18389827,0.42284435,0.0,0.0,-0.65245295,1,0,0,0,0,0
288692000,-0.012830413,-0.39479482,0.89499485,0.0,0.8845516,0.079189435,-0.17952512,0.42316464,0.0,0.0,-0.6506335,1,0,0,0,0,0
288788000,-0.018762195,-0.39232215,0.89499176,0.0,0.8849962,0.07603864,-0.17968747,0.42274383,0.0,0.0,-0.64783996,1,0,0,0,0,0
288904000,-0.025448246,-0.3856501,0.8947891,0.0,0.8858514,0.071638025,-0.17815992,0.42236748,0.0,0.0,-0.6413331,1,0,0,0,0,0
289004000,-0.020900648,-0.36925322,0.8946805,0.0,0.88705945,0.07014476,-0.16994998,0.4234646,0.0,0.0,-0.6391239,1,0,0,0,0,0
289100000,-0.016440028,-0.35113382,0.89453536,0.0,0.888363,0.06824387,-0.16098002,0.42454615,0.0,0.0,-0.63665277,1,0,0,0,0,0
289196000,-0.011329717,-0.33701012,0.89456195,0.0,0.889253,0.06750027,-0.15362366,0.42552626,0.0,0.0,-0.633684,1,0,0,0,0,0
289292000,-0.014414372,-0.33036813,0.8945852,0.0,0.88983816,0.06471045,-0.1513281,0.42555904,0.0,0.0,-0.6313278,1,0,0,0,0,0
289388000,-0.018515905,-0.33033887,0.8947111,0.0,0.8899443,0.062888786,-0.15218356,0.4253049,0.0,0.0,-0.6283085,1,0,0,0,0,0
289504000,-0.017436797,-0.31715256,0.8949392,0.0,0.8907951,0.060562555,-0.14608476,0.42599937,0.0,0.0,-0.6233722,1,0,0,0,0,0
289600000,-0.0142300185,-0.30014738,0.89523256,0.0,0.89178663,0.058367487,-0.13782282,0.42698324,0.0,0.0,-0.6225413,1,0,0,0,0,0
289700000,-0.011099341,-0.28286713,0.8955869,0.0,0.8927291,0.056080136,-0.12944117,0.42794254,0.0,0.0,-0.62047434,1,0,0,0,0,0
289796000,-0.012764602,-0.2805231,0.89601374,0.0,0.89282924,0.05486092,-0.12874024,0.4281031,0.0,0.0,-0.6187088,1,0,0,0,0,0
289892000,-0.01625607,-0.27593133,0.89636165,0.0,0.8931281,0.05233717,-0.12743017,0.42818758,0.0,0.0,-0.61429846,1,0,0,0,0,0
289988000,-0.0131740095,-0.2673699,0.8967662,0.0,0.8934699,0.051897053,-0.122939,0.42884052,0.0,0.0,-0.61231333,1,0,0,0,0,0
290084000,-0.01002181,-0.2546479,0.89715636,0.0,0.8940355,0.05059012,-0.11657151,0.4295955,0.0,0.0,-0.61076033,1,0,0,0,0,0
290200000,-0.0111020915,-0.23898333,0.8977271,0.0,0.89478993,0.04676286,-0.10978891,0.43024483,0.0,0.0,-0.6083285,1,0,0,0,0,0
290300000,-0.015281997,-0.23042908,0.8981937,0.0,0.89522237,0.043070976,-0.10685265,0.43046987,0.0,0.0,-0.6073189,1,0,0,0,0,0
290396000,-0.016617691,-0.22542317,0.8986307,0.0,0.8954043,0.041414306,-0.104892045,0.43073624,0.0,0.0,-0.6050419,1,0,0,0,0,0
290492000,-0.01570432,-0.21900295,0.89887524,0.0,0.8956423,0.04044749,-0.10181802,0.43107077,0.0,0.0,-0.60255027,1,0,0,0,0,0
290588000,-0.013801737,-0.21050155,0.89923745,0.0,0.8959229,0.039478246,-0.09759568,0.4315539,0.0,0.0,-0.6011257,1,0,0,0,0,0
290704000,-0.012055796,-0.20095213,0.8995602,0.0,0.89624745,0.038208507,-0.09293669,0.43202245,0.0,0.0,-0.59868324,1,0,0,0,0,0
290800000,-0.012938322,-0.19647385,0.89993465,0.0,0.8963771,0.036860105,-0.09111458,0.4322587,0.0,0.0,-0.59773433,1,0,0,0,0,0
290900000,-0.016932283,-0.18936871,0.8999443,0.0,0.89674187,0.033529896,-0.08879474,0.432256,0.0,0.0,-0.5961946,1,0,0,0,0,0
290996000,-0.017472181,-0.18111496,0.900058,0.0,0.8970544,0.031502478,-0.085211076,0.43248138,0.0,0.0,-0.5946556,1,0,0,0,0,0
291092000,-0.013071192,-0.17105654,0.9002636,0.0,0.8973223,0.031302817,-0.079746395,0.43298185,0.0,0.0,-0.59211856,1,0,0,0,0,0
291188000,-0.014104927,-0.16413695,0.9006614,0.0,0.89750236,0.02935249,-0.07686108,0.43326706,0.0,0.0,-0.5928868,1,0,0,0,0,0
291284000,-0.015619395,-0.16269921,0.901035,0.0,0.8974938,0.028374903,-0.07653902,0.433407,0.0,0.0,-0.5913517,1,0,0,0,0,0
291400000,-0.012733652,-0.15490893,0.90172267,0.0,0.8975701,0.02800228,-0.07240946,0.43398237,0.0,0.0,-0.5894816,1,0,0,0,0,0
291500000,-0.014273102,-0.15038255,0.9026677,0.0,0.8975345,0.026360419,-0.07070052,0.43444028,0.0,0.0,-0.58771855,1,0,0,0,0,0
291596000,-0.017446026,-0.14595911,0.90354544,0.0,0.89752334,0.024003664,-0.06939503,0.43481025,0.0,0.0,-0.58712566,1,0,0,0,0,0
291692000,-0.01744598,-0.13642652,0.90444016,0.0,0.89761305,0.021954663,-0.06510922,0.43539593,0.0,0.0,-0.5867103,1,0,0,0,0,0
291788000,-0.014689345,-0.13093202,0.90537643,0.0,0.89753413,0.02202193,-0.062033825,0.4360038,0.0,0.0,-0.5864576,1,0,0,0,0,0
291884000,-0.014233861,-0.12791634,0.90672046,0.0,0.8973189,0.021608314,-0.06056723,0.4366733,0.0,0.0,-0.58448946,1,0,0,0,0,0
292000000,-0.011947391,-0.12499144,0.9083168,0.0,0.8970239,0.02204129,-0.058738574,0.43750665,0.0,0.0,-0.58436996,1,0,0,0,0,0
292100000,-0.013394659,-0.11840599,0.9098033,0.0,0.8968845,0.01999082,-0.056087498,0.43823835,0.0,0.0,-0.58279395,1,0,0,0,0,0
292196000,-0.014430145,-0.11278398,0.91122335,0.0,0.89672023,0.018330615,-0.053781044,0.43893567,0.0,0.0,-0.58147776,1,0,0,0,0,0
292292000,-0.013372335,-0.110031195,0.91303426,0.0,0.89637727,0.01824712,-0.052298564,0.4398178,0.0,0.0,-0.58002263,1,0,0,0,0,0
292388000,-0.016306866,-0.10754969,0.9147301,0.0,0.896086,0.016429199,-0.05181816,0.44053933,0.0,0.0,-0.5801744,1,0,0,0,0,0
292504000,-0.01256648,-0.09948548,0.90924966,0.0,0.89743406,0.016195852,-0.047426548,0.43829277,0.0,0.0,-0.5797482,1,0,0,0,0,0
292604000,-0.01633334,-0.09538264,0.8495594,0.0,0.91022366,0.0122140935,-0.046796836,0.41128302,0.0,0.0,-0.5791417,1,0,0,0,0,0
292700000,-0.047953803,-0.07892233,0.7741612,0.0,0.92538524,-0.0072956444,-0.04556469,0.3762085,0.0,0.0,-0.57698834,1,0,0,0,0,0
292796000,-0.10460095,-0.044920906,0.698763,0.0,0.9384651,-0.041428506,-0.038963526,0.34065935,0.0,0.0,-0.5756597,1,0,0,0,0,0
292892000,-0.17607084,-0.00636051,0.6233648,0.0,0.9482139,-0.082713686,-0.029977283,0.30520514,0.0,0.0,-0.576386,1,0,0,0,0,0
292988000,-0.2366575,0.015378518,0.5479666,0.0,0.95569503,-0.115712084,-0.024589786,0.26954225,0.0,0.0,-0.5783435,1,0,0,0,0,0
293104000,-0.30500397,0.017275222,0.45686042,0.0,0.9623856,-0.14989309,-0.02608342,0.22509034,0.0,0.0,-0.58142227,1,0,0,0,0,0
293200000,-0.2792282,-0.003300645,0.38146222,0.0,0.97235435,-0.13632742,-0.027986282,0.18750642,0.0,0.0,-0.57149285,1,0,0,0,0,0
293300000,-0.2052921,-0.024149198,0.30292243,0.0,0.9834634,-0.09947322,-0.02733246,0.14885461,0.0,0.0,-0.57617855,1,0,0,0,0,0
293396000,-0.1605223,-0.0356588,0.22752419,0.0,0.99034256,-0.07762678,-0.02675596,0.111713305,0.0,0.0,-0.58042145,1,0,0,0,0,0
293492000,-0.14170782,-0.040290277,0.15212592,0.0,0.9945133,-0.069048755,-0.025413707,0.074361645,0.0,0.0,-0.5782592,1,0,0,0,0,0
293588000,-0.14055195,-0.042298973,0.0767277,0.0,0.9966317,-0.06934169,-0.023772765,0.03676734,0.0,0.0,-0.5754432,1,0,0,0,0,0
293704000,-0.13943546,-0.045902178,-0.01437849,0.0,0.9972707,-0.069805704,-0.022392057,-0.00876845,0.0,0.0,-0.5758886,1,0,0,0,0,0
