timestamp,x,y,z,yaw,yawspeed,vx,vy,vz,acc_x,acc_y,acc_z,jerk_x,jerk_y,jerk_z,thrust[0],thrust[1],thrust[2]
253196000,-0.024168748,-0.005079022,-0.878506,0.41969922,0.0,0.009932025,-0.0041370625,-1.9002479,0.0,0.0,0.0,0.0,0.0,0.0,0.014901362,-0.0029336812,-0.80978507
253312000,-0.024124185,-0.0051835035,-1.0512036,0.41969922,0.0,0.013120539,-0.003927985,-1.8911078,0.0,0.0,0.0,0.0,0.0,0.0,0.010999242,-0.0015667459,-0.51170874
253408000,-0.024061073,-0.0052744807,-1.1944858,0.41969922,0.0,0.018723285,-0.0029176248,-1.8507037,0.0,0.0,0.0,0.0,0.0,0.0,0.015495341,-0.0012341449,-0.54777426
253508000,-0.023999043,-0.0053837504,-1.3432553,0.41969922,0.0,0.023049304,-0.0041326443,-1.8141878,0.0,0.0,0.0,0.0,0.0,0.0,0.01769575,-0.001304011,-0.5890314
253604000,-0.023945812,-0.005435386,-1.4863235,0.41969922,0.0,0.027881607,-0.0014122026,-1.7914057,0.0,0.0,0.0,0.0,0.0,0.0,0.018110624,-0.0017093215,-0.57501847
253700000,-0.023855735,-0.0054856185,-1.6284587,0.41969922,0.0,0.032424785,-0.002931346,-1.7670572,0.0,0.0,0.0,0.0,0.0,0.0,0.017343847,-0.002234337,-0.57699996
253796000,-0.023704477,-0.005524074,-1.7696178,0.41969922,0.0,0.03466495,-0.003613052,-1.7422146,0.0,0.0,0.0,0.0,0.0,0.0,0.017040942,-0.0027982506,-0.5772537
253912000,-0.023823794,-0.0056942934,-1.9426367,0.41969922,0.0,0.043230485,-0.0037858055,-1.726833,0.0,0.0,0.0,0.0,0.0,0.0,0.019231569,-0.002390448,-0.5819793
254008000,-0.023743372,-0.005731087,-2.0834465,0.41969922,0.0,0.046227675,-0.0046900418,-1.7073076,0.0,0.0,0.0,0.0,0.0,0.0,0.018563315,-0.0025307254,-0.58114463
254108000,-0.023798883,-0.0058164718,-2.232078,0.41969922,0.0,0.054720864,-0.004562194,-1.6840636,0.0,0.0,0.0,0.0,0.0,0.0,0.019603522,-0.0018538904,-0.5771937
254204000,-0.023639731,-0.0058279284,-2.3713176,0.41969922,0.0,0.056270733,-0.006028771,-1.6658942,0.0,0.0,0.0,0.0,0.0,0.0,0.019543039,-0.0018788158,-0.57670444
254300000,-0.023579957,-0.005924535,-2.512379,0.41969922,0.0,0.062377702,-0.0074524987,-1.6501812,0.0,0.0,0.0,0.0,0.0,0.0,0.020130482,-0.0013849498,-0.57769334
254396000,-0.023603136,-0.0059768376,-2.6538093,0.41969922,0.0,0.06447579,-0.006283136,-1.6363326,0.0,0.0,0.0,0.0,0.0,0.0,0.019498443,-0.0010440967,-0.5772378
254512000,-0.023599789,-0.0060623274,-2.823296,0.41969922,0.0,0.06832656,-0.006839162,-1.6257893,0.0,0.0,0.0,0.0,0.0,0.0,0.019786183,-0.0011684783,-0.5805028
254608000,-0.023586137,-0.0061330865,-2.9625099,0.41969922,0.0,0.07124469,-0.0074881515,-1.6128052,0.0,0.0,0.0,0.0,0.0,0.0,0.019780694,-0.0014482196,-0.580234
254708000,-0.023576006,-0.006173272,-3.1089015,0.41969922,0.0,0.0745689,-0.0076138973,-1.5960618,0.0,0.0,0.0,0.0,0.0,0.0,0.020670835,-0.0018311129,-0.58046544
254804000,-0.023570456,-0.006203182,-3.249471,0.41969922,0.0,0.077532806,-0.008060626,-1.58784,0.0,0.0,0.0,0.0,0.0,0.0,0.0223584,-0.0019211776,-0.5809688
254900000,-0.023584364,-0.0063070767,-3.38996,0.41969922,0.0,0.079507336,-0.0072539924,-1.5798928,0.0,0.0,0.0,0.0,0.0,0.0,0.02145465,-0.0024198531,-0.5813217
254996000,-0.023533734,-0.006284955,-3.5281582,0.41969922,0.0,0.081887774,-0.010446152,-1.5709242,0.0,0.0,0.0,0.0,0.0,0.0,0.021345653,-0.0035652958,-0.5798904
255112000,-0.023576293,-0.0065295594,-3.7006207,0.41969922,0.0,0.083964474,-0.008618163,-1.5717279,0.0,0.0,0.0,0.0,0.0,0.0,0.021904942,-0.0023046143,-0.5850806
255208000,-0.023581,-0.006607229,-3.8388932,0.41969922,0.0,0.08496582,-0.010540323,-1.5625714,0.0,0.0,0.0,0.0,0.0,0.0,0.022540526,-0.0030722395,-0.58234996
255308000,-0.023555575,-0.0066267243,-3.984624,0.41969922,0.0,0.087446764,-0.0137963025,-1.5506984,0.0,0.0,0.0,0.0,0.0,0.0,0.022084052,-0.0041172775,-0.58220834
255404000,-0.023607468,-0.0065154103,-4.126977,0.41969922,0.0,0.08823082,-0.011523223,-1.5474674,0.0,0.0,0.0,0.0,0.0,0.0,0.022107918,-0.0033114145,-0.58209085
255500000,-0.023585672,-0.0065916493,-4.266535,0.41969922,0.0,0.09121842,-0.016891407,-1.54205,0.0,0.0,0.0,0.0,0.0,0.0,0.02334022,-0.004146392,-0.5806119
255596000,-0.023561731,-0.006650979,-4.402221,0.41969922,0.0,0.09226658,-0.01529221,-1.5322372,0.0,0.0,0.0,0.0,0.0,0.0,0.022927707,-0.004218295,-0.5777107
255712000,-0.023592694,-0.006725848,-4.572033,0.41969922,0.0,0.09261951,-0.017213311,-1.5326458,0.0,0.0,0.0,0.0,0.0,0.0,0.022891527,-0.0038399342,-0.5848784
255808000,-0.023495154,-0.0067305127,-4.7075114,0.41969922,0.0,0.09365372,-0.017684994,-1.524624,0.0,0.0,0.0,0.0,0.0,0.0,0.023056274,-0.0038982774,-0.5828903
255908000,-0.023680793,-0.006736207,-4.8575225,0.41969922,0.0,0.09472499,-0.018703753,-1.520065,0.0,0.0,0.0,0.0,0.0,0.0,0.023651838,-0.0046251733,-0.58205825
256003999,-0.023511298,-0.006745803,-4.994543,0.41969922,0.0,0.09899539,-0.0195145,-1.5137268,0.0,0.0,0.0,0.0,0.0,0.0,0.024691265,-0.0051926975,-0.57891434
256099999,-0.023547847,-0.0067599337,-5.1339774,0.41969922,0.0,0.095407136,-0.020041693,-1.4919055,0.0,0.0,0.0,0.0,0.0,0.0,0.023917578,-0.0041075344,-0.5702643
256196000,-0.023533719,-0.0067783794,-5.2699885,0.41969922,0.0,0.100481756,-0.019948658,-1.4475837,0.0,0.0,0.0,0.0,0.0,0.0,0.025012821,-0.004244015,-0.5611253
256316000,-0.023572322,-0.0068073412,-5.4336243,0.41969922,0.0,0.09572623,-0.019417005,-1.3987286,0.0,0.0,0.0,0.0,0.0,0.0,0.024086973,-0.0041262894,-0.56812704
256412000,-0.023610344,-0.0068355575,-5.560929,0.41969922,0.0,0.09570084,-0.018834453,-1.3405707,0.0,0.0,0.0,0.0,0.0,0.0,0.024794785,-0.0031399545,-0.56193817
256508000,-0.023843287,-0.00686931,-5.6885724,0.41969922,0.0,0.10151179,-0.018177208,-1.3031453,0.0,0.0,0.0,0.0,0.0,0.0,0.025541058,-0.0033761873,-0.5648883
256604000,-0.023626829,-0.0069052507,-5.8045206,0.41969922,0.0,0.09739795,-0.017521536,-1.2538837,0.0,0.0,0.0,0.0,0.0,0.0,0.02509546,-0.00302739,-0.55762345
256720000,-0.02377754,-0.0069570695,-5.9477415,0.41969922,0.0,0.09822838,-0.016804205,-1.2232144,0.0,0.0,0.0,0.0,0.0,0.0,0.024841715,-0.003140769,-0.5713248
256816000,-0.02372605,-0.0070032296,-6.059196,0.41969922,0.0,0.09503356,-0.015854213,-1.1844633,0.0,0.0,0.0,0.0,0.0,0.0,0.02439513,-0.004114924,-0.56313497
256916000,-0.023792561,-0.0070575303,-6.175223,0.41969922,0.0,0.09685448,-0.014877342,-1.1391467,0.0,0.0,0.0,0.0,0.0,0.0,0.024851656,-0.0036918973,-0.5606741
257012000,-0.023757827,-0.00711275,-6.2802625,0.41969922,0.0,0.09258269,-0.014584612,-1.0972701,0.0,0.0,0.0,0.0,0.0,0.0,0.024812408,-0.004565609,-0.55952555
257108000,-0.023862699,-0.0071702558,-6.384983,0.41969922,0.0,0.09497645,-0.01416127,-1.0625218,0.0,0.0,0.0,0.0,0.0,0.0,0.025943656,-0.004853257,-0.56265956
257224000,-0.023685098,-0.0071262433,-6.5022945,0.41969922,0.0,0.091248766,-0.013889992,-1.0264213,0.0,0.0,0.0,0.0,0.0,0.0,0.025392842,-0.0043205176,-0.56306034
257323999,-0.023786066,-0.0071922443,-6.6062474,0.41969922,0.0,0.092562,-0.013434318,-0.9934014,0.0,0.0,0.0,0.0,0.0,0.0,0.025799204,-0.004862821,-0.56503665
257419999,-0.023634776,-0.007193289,-6.6978655,0.41969922,0.0,0.090132676,-0.01323208,-0.96080905,0.0,0.0,0.0,0.0,0.0,0.0,0.025258934,-0.0049907686,-0.55941397
257515999,-0.023691026,-0.00726168,-6.790947,0.41969922,0.0,0.08966585,-0.012814459,-0.932211,0.0,0.0,0.0,0.0,0.0,0.0,0.024935897,-0.0043307343,-0.563642
257632000,-0.023705034,-0.0072855535,-6.8977222,0.41969922,0.0,0.08474472,-0.012027753,-0.9021826,0.0,0.0,0.0,0.0,0.0,0.0,0.024254382,-0.0051432066,-0.564425
257728000,-0.023676991,-0.007327001,-6.983927,0.41969922,0.0,0.08728751,-0.010576707,-0.8773557,0.0,0.0,0.0,0.0,0.0,0.0,0.024486573,-0.0050834357,-0.5651546
257828000,-0.02347946,-0.0072915344,-7.0689044,0.41969922,0.0,0.08201073,-0.010920565,-0.8451693,0.0,0.0,0.0,0.0,0.0,0.0,0.02359472,-0.004944686,-0.5608667
257924000,-0.02349857,-0.0073668337,-7.1502485,0.41969922,0.0,0.07626117,-0.012181927,-0.819195,0.0,0.0,0.0,0.0,0.0,0.0,0.022902822,-0.005552635,-0.5625879
258020000,-0.023744538,-0.007563225,-7.2317443,0.41969922,0.0,0.07042124,-0.013025282,-0.8073457,0.0,0.0,0.0,0.0,0.0,0.0,0.021993572,-0.0058376044,-0.56872326
258136000,-0.023721877,-0.007950898,-7.325564,0.41969922,0.0,0.07410354,-0.01352935,-0.78072566,0.0,0.0,0.0,0.0,0.0,0.0,0.02295034,-0.0055195796,-0.56186736
258232000,-0.023868626,-0.008073447,-7.4009466,0.41969922,0.0,0.06655685,-0.006891639,-0.7573484,0.0,0.0,0.0,0.0,0.0,0.0,0.021437187,-0.0039312723,-0.5645411
258332000,-0.023671122,-0.007971518,-7.475092,0.41969922,0.0,0.06394622,-0.005920806,-0.7316363,0.0,0.0,0.0,0.0,0.0,0.0,0.021912612,-0.003699736,-0.56232005
258428000,-0.02360708,-0.007966003,-7.5456777,0.41969922,0.0,0.060634162,-0.0034974888,-0.70991516,0.0,0.0,0.0,0.0,0.0,0.0,0.021892592,-0.0031305817,-0.5600036
258544000,-0.023559067,-0.007946215,-7.6282096,0.41969922,0.0,0.056646883,-0.0020970176,-0.68949115,0.0,0.0,0.0,0.0,0.0,0.0,0.020831954,-0.002920961,-0.56466275
258640000,-0.023541378,-0.00790809,-7.694913,0.41969922,0.0,0.048377935,0.0004192709,-0.6722068,0.0,0.0,0.0,0.0,0.0,0.0,0.019423017,-0.004157616,-0.5639828
258740000,-0.023599533,-0.007870138,-7.763159,0.41969922,0.0,0.048961718,0.00057057955,-0.6513182,0.0,0.0,0.0,0.0,0.0,0.0,0.020255052,-0.004169277,-0.56353253
258835999,-0.023543473,-0.007919036,-7.8259606,0.41969922,0.0,0.043068778,0.0024341138,-0.63096124,0.0,0.0,0.0,0.0,0.0,0.0,0.018572938,-0.0035401485,-0.5627187
258931999,-0.023535864,-0.007930089,-7.8871675,0.41969922,0.0,0.04391745,0.0030783701,-0.61046326,0.0,0.0,0.0,0.0,0.0,0.0,0.019475687,-0.004213254,-0.5613646
259048000,-0.023556037,-0.00794122,-7.9584637,0.41969922,0.0,0.037881132,0.0063753896,-0.59254396,0.0,0.0,0.0,0.0,0.0,0.0,0.019429307,-0.0040060095,-0.5637283
259144000,-0.023568587,-0.007960558,-8.015925,0.41969922,0.0,0.040587217,0.00636174,-0.57863724,0.0,0.0,0.0,0.0,0.0,0.0,0.019945152,-0.0035808852,-0.5648634
259244000,-0.02362952,-0.007929157,-8.074174,0.41969922,0.0,0.03563399,0.00849973,-0.560927,0.0,0.0,0.0,0.0,0.0,0.0,0.019466272,-0.0032320158,-0.56374305
259340000,-0.023726683,-0.008008076,-8.129088,0.41969922,0.0,0.03860698,0.0067443987,-0.5438263,0.0,0.0,0.0,0.0,0.0,0.0,0.020176826,-0.0038102372,-0.5627196
259436000,-0.023464952,-0.008322416,-8.180949,0.41969922,0.0,0.04226819,0.005277481,-0.52626854,0.0,0.0,0.0,0.0,0.0,0.0,0.021312213,-0.0043669557,-0.562744
259556000,-0.023532098,-0.008394004,-8.244443,0.41969922,0.0,0.036143765,0.0143563,-0.51796997,0.0,0.0,0.0,0.0,0.0,0.0,0.019915214,-0.0026795773,-0.5699631
259652000,-0.023440868,-0.00823683,-8.293793,0.41969922,0.0,0.03930871,0.012799988,-0.5019843,0.0,0.0,0.0,0.0,0.0,0.0,0.019965881,-0.0027164049,-0.56431
259748000,-0.023349097,-0.008275619,-8.341612,0.41969922,0.0,0.034866136,0.013020124,-0.48579273,0.0,0.0,0.0,0.0,0.0,0.0,0.018564846,-0.002970816,-0.55987155
259844000,-0.023355722,-0.008259886,-8.388108,0.41969922,0.0,0.03558678,0.014489949,-0.470374,0.0,0.0,0.0,0.0,0.0,0.0,0.01888638,-0.0034118376,-0.56169075
259960000,-0.023433175,-0.008239482,-8.443072,0.41969922,0.0,0.03487448,0.015368101,-0.45780796,0.0,0.0,0.0,0.0,0.0,0.0,0.019227542,-0.003866881,-0.5635194
260056000,-0.023358677,-0.008329215,-8.48631,0.41969922,0.0,0.03342739,0.017699849,-0.4429057,0.0,0.0,0.0,0.0,0.0,0.0,0.019013759,-0.0031089555,-0.563418
260156000,-0.023368496,-0.008295596,-8.530229,0.41969922,0.0,0.033385478,0.01751808,-0.42802507,0.0,0.0,0.0,0.0,0.0,0.0,0.01896885,-0.0033025963,-0.5617175
260251999,-0.02332051,-0.008331625,-8.571382,0.41969922,0.0,0.032698877,0.021521846,-0.41539422,0.0,0.0,0.0,0.0,0.0,0.0,0.018792111,-0.0021526392,-0.56235874
260347999,-0.023319898,-0.008317803,-8.611404,0.41969922,0.0,0.033976234,0.021288428,-0.40337154,0.0,0.0,0.0,0.0,0.0,0.0,0.01889395,-0.0015024468,-0.56219125
260443999,-0.023314692,-0.008308699,-8.650119,0.41969922,0.0,0.03085902,0.022970721,-0.39200452,0.0,0.0,0.0,0.0,0.0,0.0,0.017401757,-0.0017662328,-0.5618278
260563999,-0.023328379,-0.008321193,-8.697292,0.41969922,0.0,0.031921145,0.024913147,-0.37740812,0.0,0.0,0.0,0.0,0.0,0.0,0.01886174,-0.0023147876,-0.5599298
260660000,-0.023391688,-0.008315915,-8.733999,0.41969922,0.0,0.033928145,0.02457318,-0.36655855,0.0,0.0,0.0,0.0,0.0,0.0,0.01900854,-0.0026038578,-0.56215066
260756000,-0.023335153,-0.008289218,-8.768929,0.41969922,0.0,0.033221785,0.025687378,-0.35648516,0.0,0.0,0.0,0.0,0.0,0.0,0.01979275,-0.0021230453,-0.5625641
260852000,-0.023516761,-0.00835952,-8.803816,0.41969922,0.0,0.033203073,0.023799112,-0.34757817,0.0,0.0,0.0,0.0,0.0,0.0,0.019854791,-0.002545197,-0.56146663
260972000,-0.023974244,-0.008756565,-8.845984,0.41969922,0.0,0.032982696,0.02384373,-0.33861896,0.0,0.0,0.0,0.0,0.0,0.0,0.020015143,-0.0022053702,-0.56303084
261068000,-0.023838526,-0.008419457,-8.878094,0.41969922,0.0,0.0443264,0.031393304,-0.3258126,0.0,0.0,0.0,0.0,0.0,0.0,0.021663167,-0.00049120805,-0.5617075
261164000,-0.023731709,-0.008179554,-8.909076,0.41969922,0.0,0.036114637,0.028306788,-0.3185992,0.0,0.0,0.0,0.0,0.0,0.0,0.019635921,-0.0017142391,-0.5630059
261260000,-0.023815522,-0.008346541,-8.93996,0.41969922,0.0,0.042547762,0.027206836,-0.30925745,0.0,0.0,0.0,0.0,0.0,0.0,0.019939534,-0.0026721607,-0.560858
261376000,-0.02378084,-0.008243695,-8.97494,0.41969922,0.0,0.041212086,0.0297331,-0.3002757,0.0,0.0,0.0,0.0,0.0,0.0,0.02025469,-0.0019259353,-0.56185794
261472000,-0.02369611,-0.008284224,-9.003227,0.41969922,0.0,0.044205945,0.028762436,-0.29212564,0.0,0.0,0.0,0.0,0.0,0.0,0.021279419,-0.0023908806,-0.5629098
261572000,-0.023832921,-0.008260238,-9.032327,0.41969922,0.0,0.042414766,0.02848597,-0.28299716,0.0,0.0,0.0,0.0,0.0,0.0,0.01975172,-0.0019326361,-0.56134546
261668000,-0.023760576,-0.0082955435,-9.059175,0.41969922,0.0,0.047242764,0.029296258,-0.27493736,0.0,0.0,0.0,0.0,0.0,0.0,0.02104418,-0.0019999929,-0.56106657
261763999,-0.02374545,-0.008272531,-9.085119,0.41969922,0.0,0.044250432,0.02863579,-0.26811495,0.0,0.0,0.0,0.0,0.0,0.0,0.01975008,-0.0027316445,-0.5622253
261859999,-0.023709038,-0.008308778,-9.110481,0.41969922,0.0,0.046872105,0.029246876,-0.26062262,0.0,0.0,0.0,0.0,0.0,0.0,0.020075269,-0.0032710219,-0.5610371
261979999,-0.02379135,-0.008287801,-9.141324,0.41969922,0.0,0.047205128,0.028359277,-0.25104412,0.0,0.0,0.0,0.0,0.0,0.0,0.020105917,-0.0027046753,-0.5608876
262075999,-0.02377077,-0.00825838,-9.164917,0.41969922,0.0,0.04777191,0.028852908,-0.2439885,0.0,0.0,0.0,0.0,0.0,0.0,0.020483432,-0.0013326982,-0.56106055
262172000,-0.02372123,-0.008259,-9.187806,0.41969922,0.0,0.049286693,0.029376986,-0.23740184,0.0,0.0,0.0,0.0,0.0,0.0,0.02119997,-0.00205361,-0.5607402
262268000,-0.023597462,-0.008029144,-9.21046,0.46005914,0.0,0.06305371,0.041538954,-0.24163581,0.0,0.0,0.0,0.0,0.0,0.0,0.023520585,0.0008500288,-0.5659223
262388000,-0.016114488,-0.0007595031,-9.2389555,0.5543069,0.0,0.19679996,0.1709486,-0.23939122,0.0,0.0,0.0,0.0,0.0,0.0,0.049847633,0.026176391,-0.55590963
262484000,0.004805622,0.019855414,-9.260748,0.62970513,0.0,0.39891577,0.3797546,-0.23439583,0.0,0.0,0.0,0.0,0.0,0.0,0.089190185,0.06648938,-0.5525296
262580000,0.042558253,0.06037416,-9.281786,0.70510334,0.0,0.6196845,0.6573313,-0.22340657,0.0,0.0,0.0,0.0,0.0,0.0,0.12823251,0.11492369,-0.5393821
262676000,0.09555758,0.121298335,-9.301213,0.78050154,0.0,0.8445428,0.951695,-0.21272828,0.0,0.0,0.0,0.0,0.0,0.0,0.14273977,0.14169635,-0.5287305
262792000,0.17738341,0.21951264,-9.323033,0.8716077,0.0,1.1157855,1.309288,-0.19949327,0.0,0.0,0.0,0.0,0.0,0.0,0.16292058,0.17397758,-0.5292929
262888000,0.25752237,0.3179693,-9.3397455,0.8977818,0.0,1.3303043,1.5938823,-0.1885156,0.0,0.0,0.0,0.0,0.0,0.0,0.17186087,0.19157378,-0.53050905
262988000,0.3509813,0.43438265,-9.355997,0.8977962,0.0,1.5388525,1.8724158,-0.17694306,0.0,0.0,0.0,0.0,0.0,0.0,0.17528675,0.19976988,-0.5358656
263084000,0.44936275,0.5580005,-9.370636,0.8978122,0.0,1.729997,2.1265643,-0.16862269,0.0,0.0,0.0,0.0,0.0,0.0,0.18231751,0.2132585,-0.53738445
263180000,0.5555887,0.6922552,-9.384486,0.89783233,0.0,1.9090906,2.366487,-0.1612592,0.0,0.0,0.0,0.0,0.0,0.0,0.18999913,0.22612855,-0.5376834
263296000,0.6942069,0.8683232,-9.400343,0.89785135,0.0,2.1167262,2.6449049,-0.154463,0.0,0.0,0.0,0.0,0.0,0.0,0.20482662,0.24747224,-0.5364989
263395999,0.82252157,1.0319607,-9.413373,0.89786774,0.0,2.2794404,2.8648539,-0.14847043,0.0,0.0,0.0,0.0,0.0,0.0,0.2089179,0.25308216,-0.5360671
263491999,0.95390856,1.2000189,-9.425493,0.8978694,0.0,2.433654,3.0716712,-0.145702,0.0,0.0,0.0,0.0,0.0,0.0,0.21762235,0.2631257,-0.53841215
263587999,1.0936522,1.3792124,-9.437251,0.89786357,0.0,2.5832174,3.2718945,-0.14375116,0.0,0.0,0.0,0.0,0.0,0.0,0.22542861,0.2719486,-0.53931236
263704000,1.2745854,1.6117202,-9.451118,0.89783615,0.0,2.767812,3.5142424,-0.14171813,0.0,0.0,0.0,0.0,0.0,0.0,0.23931628,0.28916383,-0.53936964
263804000,1.441976,1.8271158,-9.462829,0.89780605,0.0,2.9273412,3.722508,-0.14000747,0.0,0.0,0.0,0.0,0.0,0.0,0.2568141,0.31011486,-0.5325083
263900000,1.61327,2.0477655,-9.473872,0.89775085,0.0,3.0646334,3.8981175,-0.13475008,0.0,0.0,0.0,0.0,0.0,0.0,0.2743027,0.33074006,-0.51118743
263996000,1.7952168,2.2818842,-9.484724,0.89768755,0.0,3.2124648,4.065288,-0.12932844,0.0,0.0,0.0,0.0,0.0,0.0,0.2813801,0.33235547,-0.5180004
264092000,1.9883856,2.528165,-9.495409,0.8976072,0.0,3.3532283,4.1938777,-0.12691781,0.0,0.0,0.0,0.0,0.0,0.0,0.28596056,0.32399544,-0.5340025
264208000,2.2355947,2.8400598,-9.508221,0.8974943,0.0,3.4991584,4.3253093,-0.13252127,0.0,0.0,0.0,0.0,0.0,0.0,0.26937675,0.29159734,-0.56645226
264304000,2.4512696,3.1099007,-9.518931,0.89738375,0.0,3.583071,4.385097,-0.13715297,0.0,0.0,0.0,0.0,0.0,0.0,0.26984873,0.2900355,-0.5721838
264404000,2.6838095,3.399246,-9.529915,0.89728516,0.0,3.6124969,4.3883,-0.13992697,0.0,0.0,0.0,0.0,0.0,0.0,0.26560074,0.29227388,-0.5561317
264500000,2.91173,3.6821368,-9.540399,0.89719486,0.0,3.5992606,4.3518353,-0.14306454,0.0,0.0,0.0,0.0,0.0,0.0,0.26191926,0.291459,-0.5480687
264596000,3.1405044,3.9664705,-9.550812,0.89713013,0.0,3.5346248,4.279472,-0.14626586,0.0,0.0,0.0,0.0,0.0,0.0,0.24751686,0.2806044,-0.5541054
264692000,3.3677907,4.2510643,-9.561162,0.8970692,0.0,3.4543166,4.1985044,-0.15191472,0.0,0.0,0.0,0.0,0.0,0.0,0.23125404,0.2657431,-0.57056975
264811999,3.651936,4.608452,-9.574022,0.89700335,0.0,3.4067903,4.134606,-0.16295442,0.0,0.0,0.0,0.0,0.0,0.0,0.22599842,0.25851107,-0.5828582
264907999,3.8829703,4.8987327,-9.58422,0.89693034,0.0,3.4251688,4.138139,-0.17196037,0.0,0.0,0.0,0.0,0.0,0.0,0.23808865,0.26925308,-0.57356584
265003999,4.117745,5.1932764,-9.594288,0.89686847,0.0,3.4337184,4.1385756,-0.17883414,0.0,0.0,0.0,0.0,0.0,0.0,0.2474842,0.28168815,-0.556671
265120000,4.402659,5.5507164,-9.606206,0.89678746,0.0,3.43748,4.133062,-0.18388887,0.0,0.0,0.0,0.0,0.0,0.0,0.2535512,0.28688392,-0.5468892
265216000,4.638923,5.8470154,-9.615849,0.8967353,0.0,3.4426594,4.129034,-0.18767047,0.0,0.0,0.0,0.0,0.0,0.0,0.2515875,0.28598908,-0.55164164
265316000,4.8858986,6.156806,-9.62569,0.896661,0.0,3.4327984,4.1100893,-0.19452663,0.0,0.0,0.0,0.0,0.0,0.0,0.24931078,0.28001213,-0.5653411
265412000,5.123715,6.4553123,-9.634943,0.8965994,0.0,3.436804,4.102185,-0.20269723,0.0,0.0,0.0,0.0,0.0,0.0,0.24733496,0.2759756,-0.57102257
265508000,5.3623238,6.7545514,-9.643992,0.8965281,0.0,3.4337575,4.0918846,-0.21094452,0.0,0.0,0.0,0.0,0.0,0.0,0.24493948,0.27289852,-0.57160103
265624000,5.651531,7.1171446,-9.654654,0.8964456,0.0,3.4461665,4.0910316,-0.21937492,0.0,0.0,0.0,0.0,0.0,0.0,0.24776292,0.2769255,-0.56821686
265720000,5.890467,7.4168367,-9.663297,0.8963632,0.0,3.4446385,4.0839887,-0.22952534,0.0,0.0,0.0,0.0,0.0,0.0,0.24826223,0.279612,-0.56682205
265820000,6.139778,7.729765,-9.67209,0.89629805,0.0,3.4385858,4.066238,-0.23481053,0.0,0.0,0.0,0.0,0.0,0.0,0.24829799,0.28020754,-0.5604683
265916000,6.379828,8.030867,-9.680403,0.89628404,0.0,3.4365973,4.0630794,-0.24281205,0.0,0.0,0.0,0.0,0.0,0.0,0.24858508,0.28192085,-0.5636004
266032000,6.670101,8.395086,-9.690212,0.8962268,0.0,3.4500828,4.0687127,-0.24927777,0.0,0.0,0.0,0.0,0.0,0.0,0.25157467,0.28239736,-0.5656942
266128000,6.909375,8.695212,-9.698048,0.89618766,0.0,3.4518285,4.070865,-0.25840846,0.0,0.0,0.0,0.0,0.0,0.0,0.25193405,0.2832485,-0.5693965
266228000,7.157755,9.006948,-9.706003,0.89610314,0.0,3.450963,4.055537,-0.26866716,0.0,0.0,0.0,0.0,0.0,0.0,0.2518435,0.2797846,-0.57028353
266323999,7.395646,9.305376,-9.713438,0.89604455,0.0,3.4542224,4.053645,-0.27750638,0.0,0.0,0.0,0.0,0.0,0.0,0.25322425,0.28213772,-0.5688677
266419999,7.633039,9.603259,-9.720692,0.8959546,0.0,3.459954,4.0477552,-0.2867444,0.0,0.0,0.0,0.0,0.0,0.0,0.2562308,0.28222132,-0.56917715
266536000,7.919091,9.962191,-9.729211,0.8958762,0.0,3.4721806,4.0538116,-0.29527554,0.0,0.0,0.0,0.0,0.0,0.0,0.2578691,0.28503478,-0.5663056
266632000,8.155387,10.258654,-9.736086,0.8957882,0.0,3.4763594,4.0474787,-0.30413923,0.0,0.0,0.0,0.0,0.0,0.0,0.25903627,0.28480145,-0.5689067
266732000,8.400921,10.566756,-9.743057,0.89572084,0.0,3.470273,4.031055,-0.3126056,0.0,0.0,0.0,0.0,0.0,0.0,0.2559086,0.28252167,-0.5699284
266828000,8.637884,10.864042,-9.749647,0.89564574,0.0,3.47234,4.022298,-0.32257172,0.0,0.0,0.0,0.0,0.0,0.0,0.25831512,0.28230855,-0.5748193
266924000,8.874698,11.161089,-9.756189,0.89558274,0.0,3.471495,4.013428,-0.33036375,0.0,0.0,0.0,0.0,0.0,0.0,0.2574439,0.28130198,-0.57204056
267044000,9.171284,11.533052,-9.764323,0.8955044,0.0,3.4859486,4.0231037,-0.34118235,0.0,0.0,0.0,0.0,0.0,0.0,0.2596268,0.28473747,-0.57362455
267140000,9.408567,11.831181,-9.770715,0.89546657,0.0,3.4663215,4.0024204,-0.34445584,0.0,0.0,0.0,0.0,0.0,0.0,0.25636497,0.28288037,-0.5690475
267236000,9.646441,12.129765,-9.776579,0.895412,0.0,3.4686787,3.9880457,-0.34951392,0.0,0.0,0.0,0.0,0.0,0.0,0.25801024,0.28248882,-0.57064307
267332000,9.88513,12.428978,-9.78246,0.8953805,0.0,3.4636981,3.9821446,-0.35958344,0.0,0.0,0.0,0.0,0.0,0.0,0.25733995,0.28136095,-0.5747454
267428000,10.124554,12.729512,-9.788228,0.8953324,0.0,3.4608548,3.9738097,-0.36403215,0.0,0.0,0.0,0.0,0.0,0.0,0.25736034,0.2795466,-0.57181025
267544000,10.414936,13.093864,-9.794988,0.8952947,0.0,3.4641416,3.9750853,-0.37161756,0.0,0.0,0.0,0.0,0.0,0.0,0.25829372,0.28225946,-0.5746276
267644000,10.665947,13.408808,-9.800696,0.8952443,0.0,3.4536746,3.954836,-0.37866625,0.0,0.0,0.0,0.0,0.0,0.0,0.2583259,0.27901465,-0.5752931
267740000,10.907753,13.712255,-9.806076,0.8952247,0.0,3.4486551,3.9481833,-0.3837748,0.0,0.0,0.0,0.0,0.0,0.0,0.25761205,0.28003103,-0.5746145
267835999,11.150473,14.016769,-9.811342,0.8951874,0.0,3.4449966,3.939592,-0.38938978,0.0,0.0,0.0,0.0,0.0,0.0,0.25783604,0.27993372,-0.57608426
267952000,11.444827,14.386119,-9.817562,0.8951764,0.0,3.4477243,3.9426749,-0.39322144,0.0,0.0,0.0,0.0,0.0,0.0,0.25870794,0.28197107,-0.5736829
268051999,11.699275,14.705452,-9.822809,0.8951466,0.0,3.434958,3.9249732,-0.39728028,0.0,0.0,0.0,0.0,0.0,0.0,0.25756574,0.28099662,-0.5758064
268148000,11.944377,15.012946,-9.827744,0.89514583,0.0,3.4304109,3.9202535,-0.39983675,0.0,0.0,0.0,0.0,0.0,0.0,0.25762758,0.28065103,-0.5756885
268244000,12.190208,15.321439,-9.832571,0.895121,0.0,3.4273455,3.9146454,-0.40375596,0.0,0.0,0.0,0.0,0.0,0.0,0.2587508,0.2794719,-0.5761863
268340000,12.4371805,15.631329,-9.837268,0.8951132,0.0,3.422943,3.909005,-0.40528652,0.0,0.0,0.0,0.0,0.0,0.0,0.25920328,0.27991864,-0.5741334
268456000,12.736201,16.006428,-9.842692,0.8950939,0.0,3.4260144,3.9110446,-0.40938175,0.0,0.0,0.0,0.0,0.0,0.0,0.2602688,0.27945253,-0.57702637
268552000,12.983901,16.317263,-9.847182,0.89509964,0.0,3.4224896,3.911923,-0.4156833,0.0,0.0,0.0,0.0,0.0,0.0,0.2596962,0.28104222,-0.5815387
268652000,13.242785,16.642216,-9.851817,0.89509606,0.0,3.4073772,3.892485,-0.41598704,0.0,0.0,0.0,0.0,0.0,0.0,0.25745356,0.2788162,-0.5761166
268748000,13.492297,16.955326,-9.856123,0.89512,0.0,3.4018044,3.890421,-0.41756082,0.0,0.0,0.0,0.0,0.0,0.0,0.25799796,0.2799903,-0.57692695
268844000,13.742766,17.269611,-9.860365,0.89512324,0.0,3.3961756,3.8851416,-0.4201791,0.0,0.0,0.0,0.0,0.0,0.0,0.25894243,0.27925938,-0.5784292
268940000,13.993929,17.58479,-9.864517,0.89514285,0.0,3.391278,3.8830767,-0.42050225,0.0,0.0,0.0,0.0,0.0,0.0,0.2587651,0.27960855,-0.57612926
269036000,14.245939,17.901,-9.868576,0.89515275,0.0,3.3875868,3.8801174,-0.4216793,0.0,0.0,0.0,0.0,0.0,0.0,0.25982875,0.2789551,-0.5774582
269152000,14.551453,18.284376,-9.87337,0.8951796,0.0,3.3896892,3.8890958,-0.42159742,0.0,0.0,0.0,0.0,0.0,0.0,0.25942987,0.28102314,-0.5765451
269252000,14.815625,18.61589,-9.877403,0.8952016,0.0,3.3753264,3.87529,-0.42119905,0.0,0.0,0.0,0.0,0.0,0.0,0.25780267,0.2789851,-0.5780287
269348000,15.070219,18.935373,-9.881185,0.89524484,0.0,3.3691714,3.876045,-0.41947734,0.0,0.0,0.0,0.0,0.0,0.0,0.2575209,0.2797459,-0.5771154
269444000,15.325795,19.256092,-9.884889,0.8952783,0.0,3.3651915,3.8743582,-0.41943136,0.0,0.0,0.0,0.0,0.0,0.0,0.25775903,0.278747,-0.5793776
269540000,15.582252,19.577936,-9.888524,0.89532673,0.0,3.3599803,3.8756964,-0.41831434,0.0,0.0,0.0,0.0,0.0,0.0,0.25731236,0.2787496,-0.57872224
269656000,15.893604,19.968597,-9.892807,0.8953791,0.0,3.3619027,3.8879073,-0.4177703,0.0,0.0,0.0,0.0,0.0,0.0,0.25900048,0.28200537,-0.5795337
269752000,16.152256,20.293142,-9.896264,0.8954388,0.0,3.3584425,3.8917077,-0.41644618,0.0,0.0,0.0,0.0,0.0,0.0,0.25982553,0.2827584,-0.57767034
269852000,16.422527,20.632366,-9.899812,0.8954946,0.0,3.3444173,3.8822718,-0.4136618,0.0,0.0,0.0,0.0,0.0,0.0,0.25731674,0.28074598,-0.5776231
269948000,16.68318,20.959394,-9.903112,0.8955603,0.0,3.3397033,3.887354,-0.41285098,0.0,0.0,0.0,0.0,0.0,0.0,0.2570786,0.28171873,-0.57892066
270044000,16.944576,21.287613,-9.906372,0.8956097,0.0,3.3364534,3.8900254,-0.40858594,0.0,0.0,0.0,0.0,0.0,0.0,0.2571858,0.28103858,-0.57685196
270140000,17.206926,21.616716,-9.909547,0.89566696,0.0,3.3352768,3.8956504,-0.40424502,0.0,0.0,0.0,0.0,0.0,0.0,0.25859562,0.282109,-0.57743895
270256000,17.524881,22.015764,-9.913281,0.89572906,0.0,3.3399284,3.9111187,-0.39974678,0.0,0.0,0.0,0.0,0.0,0.0,0.25980046,0.28342503,-0.5758093
270352000,17.788797,22.346924,-9.916299,0.89579374,0.0,3.3361318,3.916614,-0.39567423,0.0,0.0,0.0,0.0,0.0,0.0,0.25999564,0.2852838,-0.5784875
270452000,18.064304,22.692663,-9.9193535,0.89585763,0.0,3.3268418,3.9107118,-0.39199978,0.0,0.0,0.0,0.0,0.0,0.0,0.25749213,0.28238675,-0.5790167
270548000,18.32986,23.025738,-9.9222145,0.89592654,0.0,3.322104,3.9173553,-0.38760573,0.0,0.0,0.0,0.0,0.0,0.0,0.25799704,0.28387672,-0.5780354
270644000,18.595848,23.359697,-9.925125,0.89598787,0.0,3.319462,3.9224482,-0.38298273,0.0,0.0,0.0,0.0,0.0,0.0,0.25851193,0.28408015,-0.57596827
270740000,18.862598,23.6944,-9.927774,0.8960553,0.0,3.316744,3.9288552,-0.37837154,0.0,0.0,0.0,0.0,0.0,0.0,0.25888506,0.28527635,-0.5763536
270856000,19.18576,24.099977,-9.931054,0.8961314,0.0,3.3248377,3.9461353,-0.37405366,0.0,0.0,0.0,0.0,0.0,0.0,0.2601407,0.28774142,-0.5774112
270952000,19.453701,24.436234,-9.933679,0.8962043,0.0,3.3206613,3.9550908,-0.3687439,0.0,0.0,0.0,0.0,0.0,0.0,0.2587671,0.28773874,-0.5776284
271052000,19.733164,24.786922,-9.936332,0.8962759,0.0,3.3096585,3.946755,-0.36436182,0.0,0.0,0.0,0.0,0.0,0.0,0.25732708,0.2849713,-0.57877004
271148000,20.002123,25.124468,-9.938842,0.8963461,0.0,3.306886,3.955928,-0.3601709,0.0,0.0,0.0,0.0,0.0,0.0,0.25797647,0.28621912,-0.57810175
271244000,20.271486,25.462465,-9.94127,0.8964134,0.0,3.3045323,3.959253,-0.3555884,0.0,0.0,0.0,0.0,0.0,0.0,0.25864655,0.28658944,-0.57690704
271340000,20.541294,25.801165,-9.94363,0.89648336,0.0,3.3018296,3.9673514,-0.3508884,0.0,0.0,0.0,0.0,0.0,0.0,0.2584895,0.2874415,-0.57769686
271436000,20.81146,26.140093,-9.945932,0.8965522,0.0,3.2998853,3.9701767,-0.34622076,0.0,0.0,0.0,0.0,0.0,0.0,0.25737008,0.28735727,-0.57713413
271552000,21.138748,26.550877,-9.94866,0.8966356,0.0,3.3047523,3.9892218,-0.34168562,0.0,0.0,0.0,0.0,0.0,0.0,0.25903317,0.29029858,-0.57863474
271652000,21.420868,26.904882,-9.950928,0.8967068,0.0,3.2922995,3.9830647,-0.33833507,0.0,0.0,0.0,0.0,0.0,0.0,0.2571017,0.2872732,-0.5799541
271748000,21.69234,27.245598,-9.953062,0.896774,0.0,3.291014,3.987644,-0.3345346,0.0,0.0,0.0,0.0,0.0,0.0,0.25728157,0.28786844,-0.5790796
271844000,21.96402,27.586517,-9.955162,0.89683646,0.0,3.285501,3.992052,-0.33173046,0.0,0.0,0.0,0.0,0.0,0.0,0.2568321,0.28792194,-0.57807845
271940000,22.235987,27.92785,-9.957213,0.89689916,0.0,3.2869606,3.9965131,-0.32930982,0.0,0.0,0.0,0.0,0.0,0.0,0.25849456,0.2887553,-0.5784793
272056000,22.564905,28.340534,-9.959553,0.8969633,0.0,3.2896423,4.015264,-0.32426006,0.0,0.0,0.0,0.0,0.0,0.0,0.25980058,0.29243165,-0.57782996
272152000,22.836702,28.681898,-9.961462,0.8970173,0.0,3.2910388,4.018543,-0.31867653,0.0,0.0,0.0,0.0,0.0,0.0,0.25942495,0.29174295,-0.5784753
272252000,23.11954,29.036661,-9.963398,0.89707947,0.0,3.280459,4.0136776,-0.3119689,0.0,0.0,0.0,0.0,0.0,0.0,0.25819144,0.28996134,-0.57792866
272348000,23.390364,29.376696,-9.9651985,0.89713484,0.0,3.2826862,4.0234895,-0.30600864,0.0,0.0,0.0,0.0,0.0,0.0,0.26031345,0.29218435,-0.57678825
272444000,23.660069,29.714996,-9.966942,0.8971889,0.0,3.286304,4.0319834,-0.30021957,0.0,0.0,0.0,0.0,0.0,0.0,0.26118392,0.29379934,-0.57607675
272540000,23.928385,30.051785,-9.968635,0.89724255,0.0,3.2871494,4.0422506,-0.29496434,0.0,0.0,0.0,0.0,0.0,0.0,0.26114374,0.2948587,-0.5761602
272636000,24.195349,30.386774,-9.970282,0.8972956,0.0,3.288886,4.0500784,-0.28955424,0.0,0.0,0.0,0.0,0.0,0.0,0.26194984,0.29551417,-0.57582664
272752000,24.51689,30.790304,-9.972203,0.8973499,0.0,3.3007355,4.0702434,-0.28388625,0.0,0.0,0.0,0.0,0.0,0.0,0.26443183,0.29869455,-0.5763685
272852000,24.792406,31.136137,-9.973824,0.8973968,0.0,3.2898436,4.063703,-0.2781164,0.0,0.0,0.0,0.0,0.0,0.0,0.26205307,0.29592186,-0.57481176
272948000,25.05687,31.46801,-9.97535,0.8974373,0.0,3.2905104,4.068645,-0.27495852,0.0,0.0,0.0,0.0,0.0,0.0,0.26342994,0.2961907,-0.57967705
273044000,25.321014,31.799534,-9.976796,0.8974761,0.0,3.2882998,4.0702553,-0.27114338,0.0,0.0,0.0,0.0,0.0,0.0,0.2613074,0.29501387,-0.5791931
273140000,25.58538,32.1313,-9.978226,0.897519,0.0,3.2855854,4.0718355,-0.2677625,0.0,0.0,0.0,0.0,0.0,0.0,0.26091033,0.29632854,-0.57992566
273256000,25.90529,32.532772,-9.979893,0.89757246,0.0,3.2908876,4.085203,-0.26354623,0.0,0.0,0.0,0.0,0.0,0.0,0.26345104,0.29971403,-0.5787284
273352000,26.17016,32.86519,-9.981232,0.8976271,0.0,3.2894266,4.086588,-0.26061967,0.0,0.0,0.0,0.0,0.0,0.0,0.26452446,0.30025977,-0.5786129
273452000,26.446264,33.211597,-9.982596,0.89768267,0.0,3.2737873,4.0754733,-0.25782543,0.0,0.0,0.0,0.0,0.0,0.0,0.26176023,0.2978866,-0.5776075
273548000,26.711864,33.545002,-9.983893,0.897735,0.0,3.270829,4.0770354,-0.25278017,0.0,0.0,0.0,0.0,0.0,0.0,0.26237252,0.29902557,-0.57645303
273644000,26.978098,33.87908,-9.985128,0.89778477,0.0,3.266385,4.0762672,-0.2517493,0.0,0.0,0.0,0.0,0.0,0.0,0.26212516,0.29863134,-0.57877076
273740000,27.244808,34.213825,-9.986486,0.897827,0.0,3.2633939,4.0778375,-0.24493077,0.0,0.0,0.0,0.0,0.0,0.0,0.2616092,0.2975574,-0.5762048
273856000,27.568132,34.619534,-9.987815,0.897865,0.0,3.2677827,4.085692,-0.24167593,0.0,0.0,0.0,0.0,0.0,0.0,0.26381302,0.29878154,-0.57985115
273952000,27.836143,34.95598,-9.989064,0.89789057,0.0,3.2639852,4.0861397,-0.23570496,0.0,0.0,0.0,0.0,0.0,0.0,0.26322114,0.29854327,-0.5784456
274052000,28.115778,35.30691,-9.990237,0.8979134,0.0,3.2516112,4.0724626,-0.23119073,0.0,0.0,0.0,0.0,0.0,0.0,0.26097775,0.2966472,-0.57847273
274148000,28.385178,35.645042,-9.991352,0.8979316,0.0,3.2500308,4.06903,-0.22839758,0.0,0.0,0.0,0.0,0.0,0.0,0.26160777,0.29633898,-0.5795924
274244000,28.655312,35.983997,-9.992433,0.89794743,0.0,3.245503,4.068143,-0.22269483,0.0,0.0,0.0,0.0,0.0,0.0,0.26147693,0.29669365,-0.5771224
274340000,28.92602,36.32369,-9.993549,0.8979689,0.0,3.2429364,4.0669594,-0.22011474,0.0,0.0,0.0,0.0,0.0,0.0,0.2616712,0.2972275,-0.57848924
274456000,29.254175,36.735584,-9.994768,0.89799243,0.0,3.2485437,4.0749006,-0.21523647,0.0,0.0,0.0,0.0,0.0,0.0,0.26373374,0.29811537,-0.5780112
274552000,29.526175,37.076923,-9.995741,0.8980088,0.0,3.2472112,4.074864,-0.21076417,0.0,0.0,0.0,0.0,0.0,0.0,0.26401314,0.29800308,-0.57936674
274652000,29.809778,37.43284,-9.996849,0.89802134,0.0,3.2342894,4.0616236,-0.20546642,0.0,0.0,0.0,0.0,0.0,0.0,0.26101178,0.29579034,-0.5781553
274748000,30.082874,37.775562,-9.997664,0.89804,0.0,3.232317,4.059081,-0.20173799,0.0,0.0,0.0,0.0,0.0,0.0,0.2614724,0.29690337,-0.57983893
274844000,30.356441,38.118916,-9.998691,0.898058,0.0,3.2296753,4.0588903,-0.19973636,0.0,0.0,0.0,0.0,0.0,0.0,0.26185867,0.2962274,-0.5790502
274940000,30.6304,38.46274,-9.999482,0.8980741,0.0,3.227496,4.0577345,-0.19432491,0.0,0.0,0.0,0.0,0.0,0.0,0.26311707,0.29707694,-0.57759565
275036000,30.904861,38.807156,-10.000386,0.89808893,0.0,3.225314,4.055086,-0.19447608,0.0,0.0,0.0,0.0,0.0,0.0,0.2622674,0.2972622,-0.57948166
275152000,31.237131,39.22425,-10.001401,0.89812094,0.0,3.231888,4.0685267,-0.18893926,0.0,0.0,0.0,0.0,0.0,0.0,0.26343942,0.29988882,-0.5773488
275252000,31.523394,39.583466,-10.002343,0.8981513,0.0,3.2209897,4.056671,-0.18435112,0.0,0.0,0.0,0.0,0.0,0.0,0.2621977,0.2969647,-0.5771182
275348000,31.798649,39.929,-10.0029955,0.89818203,0.0,3.2183833,4.0548506,-0.18132311,0.0,0.0,0.0,0.0,0.0,0.0,0.26149696,0.297374,-0.5790499
275444000,32.074333,40.274956,-10.003867,0.89821124,0.0,3.21538,4.0556297,-0.17983018,0.0,0.0,0.0,0.0,0.0,0.0,0.26067623,0.29745892,-0.5805569
275540000,32.350243,40.621246,-10.0045,0.89825225,0.0,3.214297,4.0551023,-0.17375252,0.0,0.0,0.0,0.0,0.0,0.0,0.26073474,0.2974933,-0.5776006
275636000,32.626514,40.96788,-10.0053,0.8982929,0.0,3.2096884,4.0559893,-0.17480314,0.0,0.0,0.0,0.0,0.0,0.0,0.26049674,0.29785162,-0.5798265
275752000,32.96086,41.387447,-10.006193,0.89833397,0.0,3.2166593,4.067651,-0.16765183,0.0,0.0,0.0,0.0,0.0,0.0,0.2628076,0.29983068,-0.57614017
275852000,33.248726,41.748837,-10.006959,0.8983605,0.0,3.2064672,4.055121,-0.16469903,0.0,0.0,0.0,0.0,0.0,0.0,0.2614019,0.29841387,-0.57776994
275948000,33.52556,42.096203,-10.00765,0.8983928,0.0,3.2031536,4.0567274,-0.16254374,0.0,0.0,0.0,0.0,0.0,0.0,0.26069838,0.29929027,-0.57817495
276044000,33.802586,42.44379,-10.008337,0.89842063,0.0,3.2029743,4.0547333,-0.16062005,0.0,0.0,0.0,0.0,0.0,0.0,0.26089138,0.2973854,-0.5808097
276140000,34.07976,42.791695,-10.009013,0.898447,0.0,3.1993973,4.0557365,-0.1587834,0.0,0.0,0.0,0.0,0.0,0.0,0.26041567,0.29815692,-0.5780692
276236000,34.35735,43.139957,-10.009646,0.8984678,0.0,3.1980479,4.052737,-0.15593357,0.0,0.0,0.0,0.0,0.0,0.0,0.26065496,0.2976775,-0.576501
276352000,34.69344,43.561802,-10.010386,0.8985013,0.0,3.2047546,4.065035,-0.15267433,0.0,0.0,0.0,0.0,0.0,0.0,0.2627027,0.30104616,-0.57758653
276452000,34.98294,43.925037,-10.011004,0.8985314,0.0,3.1928887,4.0542297,-0.14931826,0.0,0.0,0.0,0.0,0.0,0.0,0.2602476,0.2989589,-0.57623535
276548000,35.261284,44.274357,-10.011584,0.8985675,0.0,3.191163,4.0526156,-0.1478006,0.0,0.0,0.0,0.0,0.0,0.0,0.25986546,0.298755,-0.57844555
276644000,35.539814,44.62401,-10.012163,0.8985976,0.0,3.1883392,4.053429,-0.14448602,0.0,0.0,0.0,0.0,0.0,0.0,0.2597698,0.29930803,-0.57774013
276740000,35.818546,44.97375,-10.012718,0.8986335,0.0,3.1871817,4.0528364,-0.14283738,0.0,0.0,0.0,0.0,0.0,0.0,0.25923544,0.30010897,-0.57681894
276856000,36.15572,45.396984,-10.01337,0.8986714,0.0,3.1947908,4.0648885,-0.14042483,0.0,0.0,0.0,0.0,0.0,0.0,0.2609198,0.30216578,-0.5775657
276952000,36.434746,45.74712,-10.013918,0.8987002,0.0,3.1913288,4.06516,-0.13740058,0.0,0.0,0.0,0.0,0.0,0.0,0.26217538,0.3013196,-0.5769454
277052000,36.724987,46.11153,-10.014423,0.89871335,0.0,3.1816444,4.051985,-0.13905093,0.0,0.0,0.0,0.0,0.0,0.0,0.260572,0.29896992,-0.5778064
277148000,37.00442,46.46209,-10.015068,0.89872754,0.0,3.1824515,4.052593,-0.13492216,0.0,0.0,0.0,0.0,0.0,0.0,0.25952572,0.29970923,-0.57607925
277244000,37.283985,46.812977,-10.0155735,0.89873874,0.0,3.1804142,4.05038,-0.13553181,0.0,0.0,0.0,0.0,0.0,0.0,0.25935733,0.2997548,-0.57798904
277340000,37.563805,47.16417,-10.015948,0.8987604,0.0,3.1794991,4.049626,-0.13322029,0.0,0.0,0.0,0.0,0.0,0.0,0.25861305,0.3007638,-0.57705176
277456000,37.902287,47.58905,-10.01655,0.89878374,0.0,3.1843202,4.062083,-0.13411656,0.0,0.0,0.0,0.0,0.0,0.0,0.2606647,0.30294853,-0.5774256
277552000,38.182503,47.94059,-10.016967,0.8987878,0.0,3.1880422,4.0604286,-0.13418792,0.0,0.0,0.0,0.0,0.0,0.0,0.26211458,0.30302373,-0.5782241
277652000,38.473545,48.30579,-10.017467,0.8987966,0.0,3.1785676,4.0546694,-0.13052776,0.0,0.0,0.0,0.0,0.0,0.0,0.26102555,0.30242163,-0.5750075
277748000,38.751877,48.65515,-10.017778,0.89879596,0.0,3.1845527,4.0576944,-0.13171066,0.0,0.0,0.0,0.0,0.0,0.0,0.26297176,0.3036119,-0.5765321
277844000,39.029186,49.00321,-10.018169,0.89880157,0.0,3.1881266,4.0648212,-0.12959643,0.0,0.0,0.0,0.0,0.0,0.0,0.2631812,0.30428806,-0.5754935
277940000,39.30534,49.349674,-10.018592,0.89880234,0.0,3.191672,4.067391,-0.12839529,0.0,0.0,0.0,0.0,0.0,0.0,0.26285762,0.3042866,-0.57505417
278036000,39.580696,49.69527,-10.01892,0.89880884,0.0,3.1949823,4.070954,-0.12784943,0.0,0.0,0.0,0.0,0.0,0.0,0.2643678,0.3050854,-0.5767749
278152000,39.91251,50.11168,-10.01937,0.8988117,0.0,3.205737,4.0859547,-0.12647155,0.0,0.0,0.0,0.0,0.0,0.0,0.26546264,0.30844414,-0.57616186
278252000,40.197598,50.469387,-10.01974,0.8988163,0.0,3.1992476,4.0773516,-0.12605233,0.0,0.0,0.0,0.0,0.0,0.0,0.26372132,0.30622602,-0.5764882
278348000,40.470974,50.8126,-10.020125,0.89881366,0.0,3.1993873,4.076694,-0.1256367,0.0,0.0,0.0,0.0,0.0,0.0,0.2649747,0.30577144,-0.5763316
278444000,40.744553,51.155895,-10.020392,0.8988164,0.0,3.200991,4.0780535,-0.12735917,0.0,0.0,0.0,0.0,0.0,0.0,0.26515782,0.30654043,-0.5792735
278540000,41.01789,51.498947,-10.020891,0.89881504,0.0,3.2001255,4.0766425,-0.12785856,0.0,0.0,0.0,0.0,0.0,0.0,0.26418644,0.30608144,-0.57764715
278636000,41.291664,51.84262,-10.021217,0.8988243,0.0,3.1991122,4.076833,-0.12781239,0.0,0.0,0.0,0.0,0.0,0.0,0.26403832,0.3072601,-0.57724226
278752000,41.62301,52.258247,-10.021529,0.8988364,0.0,3.2076113,4.0840077,-0.12503348,0.0,0.0,0.0,0.0,0.0,0.0,0.26569578,0.30852628,-0.57648087
278852000,41.908627,52.616817,-10.02189,0.8988381,0.0,3.1963038,4.074282,-0.12665717,0.0,0.0,0.0,0.0,0.0,0.0,0.26413068,0.3086581,-0.57900155
278948000,42.183395,52.9616,-10.022145,0.8988368,0.0,3.1959412,4.0698175,-0.12621546,0.0,0.0,0.0,0.0,0.0,0.0,0.26336253,0.30750132,-0.57667047
279044000,42.458652,53.30723,-10.022527,0.89883715,0.0,3.1935117,4.0699153,-0.12476071,0.0,0.0,0.0,0.0,0.0,0.0,0.26345676,0.30824062,-0.5764891
279140000,42.734478,53.6533,-10.022678,0.8988309,0.0,3.1933763,4.063168,-0.124276884,0.0,0.0,0.0,0.0,0.0,0.0,0.2643286,0.30692258,-0.5773777
279256000,43.068947,54.073044,-10.023003,0.89882326,0.0,3.1997623,4.0751915,-0.12406434,0.0,0.0,0.0,0.0,0.0,0.0,0.26564777,0.3079083,-0.5765154
279352000,43.346165,54.420906,-10.023299,0.8988094,0.0,3.2000678,4.0704103,-0.12413982,0.0,0.0,0.0,0.0,0.0,0.0,0.26598933,0.30787802,-0.57791024
279452000,43.635258,54.783802,-10.023515,0.8988008,0.0,3.1872993,4.0572214,-0.12487042,0.0,0.0,0.0,0.0,0.0,0.0,0.26339674,0.30672592,-0.5782313
279548000,43.913597,55.133068,-10.023773,0.8987914,0.0,3.1868386,4.0540395,-0.12511447,0.0,0.0,0.0,0.0,0.0,0.0,0.26319444,0.30575162,-0.57833445
279644000,44.192455,55.483143,-10.024061,0.89878047,0.0,3.186739,4.050934,-0.12582725,0.0,0.0,0.0,0.0,0.0,0.0,0.26375,0.30683827,-0.5775252
279740000,44.471962,55.833813,-10.024241,0.89876664,0.0,3.1839027,4.0483704,-0.12431481,0.0,0.0,0.0,0.0,0.0,0.0,0.26370803,0.30674863,-0.5771202
279856000,44.810627,56.258865,-10.024693,0.8987471,0.0,3.1937964,4.057724,-0.1276658,0.0,0.0,0.0,0.0,0.0,0.0,0.26597404,0.3087873,-0.57809496
279952000,45.091064,56.610878,-10.024841,0.89873004,0.0,3.1938136,4.05558,-0.12725551,0.0,0.0,0.0,0.0,0.0,0.0,0.26531726,0.30932832,-0.57814234
280052000,45.383404,56.97775,-10.025218,0.8986955,0.0,3.184042,4.041338,-0.13367987,0.0,0.0,0.0,0.0,0.0,0.0,0.26304942,0.30681023,-0.58044297
280148000,45.664806,57.330883,-10.025467,0.898659,0.0,3.183389,4.0372086,-0.13442944,0.0,0.0,0.0,0.0,0.0,0.0,0.26357356,0.30603623,-0.5777602
280244000,45.94662,57.684563,-10.025716,0.8986201,0.0,3.184823,4.03745,-0.13391124,0.0,0.0,0.0,0.0,0.0,0.0,0.26452968,0.3067937,-0.5781499
280340000,46.22881,58.038673,-10.025878,0.8985828,0.0,3.184558,4.0331182,-0.13832724,0.0,0.0,0.0,0.0,0.0,0.0,0.26442116,0.3064858,-0.58033735
280456000,46.570534,58.46752,-10.026208,0.8985444,0.0,3.1947825,4.0432315,-0.13823193,0.0,0.0,0.0,0.0,0.0,0.0,0.2657879,0.30836266,-0.5773263
280552000,46.85337,58.822517,-10.026407,0.89851797,0.0,3.1954994,4.042099,-0.14016621,0.0,0.0,0.0,0.0,0.0,0.0,0.26636982,0.30968875,-0.5777289
280652000,47.14804,59.192368,-10.026613,0.89849246,0.0,3.1848724,4.0276036,-0.14324144,0.0,0.0,0.0,0.0,0.0,0.0,0.26407787,0.30674624,-0.5806655
280748000,47.431442,59.548058,-10.026725,0.89846945,0.0,3.1862814,4.0276284,-0.14428109,0.0,0.0,0.0,0.0,0.0,0.0,0.26537797,0.3067901,-0.57913256
280844000,47.71506,59.903996,-10.02695,0.8984455,0.0,3.185599,4.0256653,-0.14691126,0.0,0.0,0.0,0.0,0.0,0.0,0.2646237,0.30718526,-0.5790543
280940000,47.9989,60.2602,-10.027041,0.8984251,0.0,3.1863348,4.024182,-0.14976731,0.0,0.0,0.0,0.0,0.0,0.0,0.26419488,0.30612612,-0.5786856
281056000,48.342457,60.691357,-10.027422,0.89839196,0.0,3.1962316,4.034856,-0.15051952,0.0,0.0,0.0,0.0,0.0,0.0,0.26637065,0.30769286,-0.57916206
281152000,48.626877,61.04829,-10.027455,0.8983629,0.0,3.1966696,4.0313525,-0.15294355,0.0,0.0,0.0,0.0,0.0,0.0,0.2656847,0.30856055,-0.58029217
281252000,48.9232,61.420227,-10.027778,0.8983326,0.0,3.1875255,4.0198255,-0.15661852,0.0,0.0,0.0,0.0,0.0,0.0,0.26392365,0.30654737,-0.5823636
281348000,49.2082,61.777832,-10.02785,0.89831,0.0,3.1854062,4.014194,-0.15649442,0.0,0.0,0.0,0.0,0.0,0.0,0.26353648,0.30486676,-0.57852936
281444000,49.493507,62.13589,-10.028055,0.8982745,0.0,3.1881177,4.015536,-0.15886384,0.0,0.0,0.0,0.0,0.0,0.0,0.26453668,0.30671737,-0.581465
281540000,49.779087,62.49421,-10.028106,0.89823806,0.0,3.1869953,4.015331,-0.16079977,0.0,0.0,0.0,0.0,0.0,0.0,0.26487154,0.30661345,-0.580967
281656000,50.124622,62.928005,-10.028411,0.89818,0.0,3.199458,4.021987,-0.16073996,0.0,0.0,0.0,0.0,0.0,0.0,0.26759472,0.30793253,-0.57844406
281752000,50.410587,63.28675,-10.028535,0.89813524,0.0,3.1989763,4.0237975,-0.16153696,0.0,0.0,0.0,0.0,0.0,0.0,0.26744127,0.30892593,-0.5791216
281852000,50.708195,63.66042,-10.028657,0.8980857,0.0,3.1910946,4.007979,-0.16205277,0.0,0.0,0.0,0.0,0.0,0.0,0.2656585,0.30638495,-0.5795499
281948000,50.994312,64.019356,-10.028802,0.8980507,0.0,3.191353,4.0080023,-0.16178754,0.0,0.0,0.0,0.0,0.0,0.0,0.2651752,0.30651513,-0.5785578
282044000,51.280457,64.37855,-10.028947,0.8980175,0.0,3.192499,4.006127,-0.16277632,0.0,0.0,0.0,0.0,0.0,0.0,0.26560226,0.30568668,-0.5801933
282140000,51.56682,64.73785,-10.029069,0.8979876,0.0,3.1916816,4.005417,-0.16260515,0.0,0.0,0.0,0.0,0.0,0.0,0.26576698,0.30511156,-0.57951766
282256000,51.913246,65.172676,-10.029242,0.8979435,0.0,3.2028964,4.016761,-0.16409644,0.0,0.0,0.0,0.0,0.0,0.0,0.26778278,0.30852503,-0.5808739
282352000,52.199966,65.53252,-10.02936,0.89791614,0.0,3.2028267,4.0127907,-0.16426273,0.0,0.0,0.0,0.0,0.0,0.0,0.26676455,0.30861318,-0.579679
282452000,52.49853,65.90721,-10.029491,0.8978851,0.0,3.1922324,4.002784,-0.16434662,0.0,0.0,0.0,0.0,0.0,0.0,0.26508296,0.30701387,-0.5787967
282548000,52.785515,66.26748,-10.029617,0.89786226,0.0,3.1941373,3.9984915,-0.16393386,0.0,0.0,0.0,0.0,0.0,0.0,0.26560566,0.3069456,-0.5779729
282644000,53.07262,66.62773,-10.029738,0.8978425,0.0,3.1925466,4.0008764,-0.1637764,0.0,0.0,0.0,0.0,0.0,0.0,0.26588792,0.30751407,-0.5804791
282740000,53.35955,66.98781,-10.029842,0.89782864,0.0,3.1946137,3.9984243,-0.16366056,0.0,0.0,0.0,0.0,0.0,0.0,0.26558995,0.30764246,-0.57932
282856000,53.706593,67.42337,-10.029988,0.8978286,0.0,3.2035835,4.0114827,-0.16312784,0.0,0.0,0.0,0.0,0.0,0.0,0.26653063,0.3088457,-0.5799485
282952000,53.993065,67.782936,-10.030084,0.89782006,0.0,3.2070444,4.0174,-0.16466123,0.0,0.0,0.0,0.0,0.0,0.0,0.26867738,0.31102487,-0.58198625
283052000,54.28969,68.15506,-10.030181,0.89781576,0.0,3.202326,4.0086665,-0.16534793,0.0,0.0,0.0,0.0,0.0,0.0,0.26711875,0.30965424,-0.578921
283148000,54.573467,68.51128,-10.030284,0.89780456,0.0,3.2069614,4.0157237,-0.16629528,0.0,0.0,0.0,0.0,0.0,0.0,0.26887608,0.31175855,-0.5786413
283244000,54.85576,68.86543,-10.030382,0.8977955,0.0,3.211434,4.0201793,-0.16665319,0.0,0.0,0.0,0.0,0.0,0.0,0.26952285,0.31148478,-0.5789874
283340000,55.13701,69.218506,-10.030475,0.89778066,0.0,3.2153907,4.0242376,-0.16675538,0.0,0.0,0.0,0.0,0.0,0.0,0.26975366,0.31245854,-0.5791564
283456000,55.47584,69.643684,-10.03058,0.89777553,0.0,3.2253728,4.0393205,-0.16628055,0.0,0.0,0.0,0.0,0.0,0.0,0.27058697,0.3151311,-0.5780978
283552000,55.755424,69.99465,-10.030665,0.8977452,0.0,3.2305624,4.0411844,-0.16749595,0.0,0.0,0.0,0.0,0.0,0.0,0.27225623,0.31511772,-0.58165294
283652000,56.045994,70.3594,-10.030693,0.8977108,0.0,3.2184103,4.027765,-0.16539256,0.0,0.0,0.0,0.0,0.0,0.0,0.26923704,0.31118178,-0.57951224
283748000,56.325382,70.710014,-10.030795,0.8976493,0.0,3.223087,4.0292,-0.16972929,0.0,0.0,0.0,0.0,0.0,0.0,0.27059105,0.31123692,-0.5834717
283844000,56.604637,71.06049,-10.030896,0.8975859,0.0,3.2211668,4.024116,-0.1655974,0.0,0.0,0.0,0.0,0.0,0.0,0.27042443,0.3106935,-0.57860786
283940000,56.88435,71.411545,-10.030914,0.8975327,0.0,3.2224262,4.0252824,-0.16856743,0.0,0.0,0.0,0.0,0.0,0.0,0.27125672,0.3132422,-0.5810037
284056000,57.222935,71.836426,-10.031109,0.897498,0.0,3.2308917,4.0336685,-0.16499753,0.0,0.0,0.0,0.0,0.0,0.0,0.27230135,0.3155545,-0.5762814
284152000,57.5034,72.18856,-10.031219,0.8974679,0.0,3.2295976,4.032088,-0.16555008,0.0,0.0,0.0,0.0,0.0,0.0,0.27251074,0.31692833,-0.5796819
284252000,57.795654,72.555244,-10.031174,0.8974499,0.0,3.2193515,4.017501,-0.16630991,0.0,0.0,0.0,0.0,0.0,0.0,0.26997882,0.31298745,-0.58225614
284348000,58.077087,72.90844,-10.031351,0.89737713,0.0,3.2191296,4.013848,-0.16661511,0.0,0.0,0.0,0.0,0.0,0.0,0.27002186,0.31187028,-0.5819937
284444000,58.35888,73.26218,-10.031367,0.89730155,0.0,3.2167735,4.0115128,-0.16692817,0.0,0.0,0.0,0.0,0.0,0.0,0.27021715,0.31156963,-0.58215106
284540000,58.641315,73.61662,-10.031428,0.8972195,0.0,3.2170615,4.00854,-0.1672482,0.0,0.0,0.0,0.0,0.0,0.0,0.27126458,0.3124935,-0.5828209
284656000,58.98322,74.04582,-10.031504,0.8971462,0.0,3.2277784,4.0160823,-0.16682996,0.0,0.0,0.0,0.0,0.0,0.0,0.27366605,0.31600243,-0.5799831
284752000,59.266575,74.40138,-10.031577,0.8970688,0.0,3.224533,4.0140524,-0.16726263,0.0,0.0,0.0,0.0,0.0,0.0,0.27339214,0.31506997,-0.5803251
284852000,59.56192,74.77209,-10.031534,0.8969976,0.0,3.215971,3.997265,-0.16423148,0.0,0.0,0.0,0.0,0.0,0.0,0.27104163,0.31219858,-0.5800782
284948000,59.846436,75.129074,-10.031703,0.8969167,0.0,3.2128797,3.9946334,-0.16569556,0.0,0.0,0.0,0.0,0.0,0.0,0.2703692,0.31185907,-0.58322346
285044000,60.131374,75.48666,-10.0317,0.8968562,0.0,3.2126563,3.9902077,-0.16092551,0.0,0.0,0.0,0.0,0.0,0.0,0.27096698,0.31177443,-0.5806079
285140000,60.41688,75.84505,-10.031799,0.89677304,0.0,3.2115219,3.9885523,-0.16574652,0.0,0.0,0.0,0.0,0.0,0.0,0.2704429,0.31122375,-0.5858252
285256000,60.762608,76.27882,-10.03193,0.896678,0.0,3.2197187,3.9952087,-0.16474716,0.0,0.0,0.0,0.0,0.0,0.0,0.27331588,0.31373775,-0.58300257
285352000,61.049026,76.63835,-10.032009,0.8965961,0.0,3.2200685,3.9943345,-0.16422859,0.0,0.0,0.0,0.0,0.0,0.0,0.27379656,0.31503856,-0.5807885
285452000,61.347435,77.01277,-10.03199,0.8965429,0.0,3.208118,3.9784064,-0.16795108,0.0,0.0,0.0,0.0,0.0,0.0,0.27139154,0.31370652,-0.5841006
285548000,61.63458,77.37321,-10.032123,0.89648384,0.0,3.2079155,3.9767482,-0.16527215,0.0,0.0,0.0,0.0,0.0,0.0,0.2710749,0.313138,-0.58006287
285644000,61.921963,77.7338,-10.032139,0.89643735,0.0,3.2061713,3.9738338,-0.16576755,0.0,0.0,0.0,0.0,0.0,0.0,0.2717006,0.31281695,-0.5812551
285740000,62.209766,78.09501,-10.032187,0.8963674,0.0,3.2054656,3.9719791,-0.16479312,0.0,0.0,0.0,0.0,0.0,0.0,0.27087072,0.31119353,-0.58181936
285856000,62.558098,78.53218,-10.032241,0.8962976,0.0,3.214385,3.98377,-0.16364792,0.0,0.0,0.0,0.0,0.0,0.0,0.27282012,0.31494695,-0.5823914
285952000,62.84666,78.89445,-10.032289,0.8962271,0.0,3.2122576,3.9785979,-0.16315849,0.0,0.0,0.0,0.0,0.0,0.0,0.2730377,0.3146179,-0.5819727
286052000,63.147366,79.27174,-10.032336,0.89616877,0.0,3.2011964,3.9647248,-0.16209027,0.0,0.0,0.0,0.0,0.0,0.0,0.2717087,0.31197152,-0.5824673
286148000,63.43661,79.63501,-10.032384,0.8960788,0.0,3.1999204,3.962558,-0.16038844,0.0,0.0,0.0,0.0,0.0,0.0,0.27286384,0.3121776,-0.5813436
286244000,63.72612,79.998344,-10.032432,0.8959976,0.0,3.1991177,3.96099,-0.15831162,0.0,0.0,0.0,0.0,0.0,0.0,0.27249563,0.31193492,-0.58120406
286340000,64.01582,80.36198,-10.032476,0.89592177,0.0,3.1978412,3.954949,-0.15695992,0.0,0.0,0.0,0.0,0.0,0.0,0.2713907,0.31208906,-0.5810392
286456000,64.366615,80.802185,-10.032527,0.8958738,0.0,3.2051315,3.9667034,-0.15518376,0.0,0.0,0.0,0.0,0.0,0.0,0.2724534,0.31447938,-0.5813088
286552000,64.657036,81.166595,-10.032549,0.8957983,0.0,3.204377,3.963201,-0.15490842,0.0,0.0,0.0,0.0,0.0,0.0,0.27303234,0.31353834,-0.5828885
286652000,64.95966,81.546524,-10.032578,0.89574367,0.0,3.191476,3.9496012,-0.15294677,0.0,0.0,0.0,0.0,0.0,0.0,0.27060992,0.31143746,-0.5827067
286748000,65.25069,81.911644,-10.0326185,0.8956748,0.0,3.1907005,3.948236,-0.15028742,0.0,0.0,0.0,0.0,0.0,0.0,0.2712227,0.31117648,-0.58079207
286844000,65.541824,82.27706,-10.03266,0.89562166,0.0,3.189087,3.9460254,-0.14710337,0.0,0.0,0.0,0.0,0.0,0.0,0.272068,0.31188548,-0.5798591
286940000,65.833115,82.64256,-10.032653,0.89553845,0.0,3.187361,3.9411275,-0.14469011,0.0,0.0,0.0,0.0,0.0,0.0,0.27273184,0.31148618,-0.5787863
287056000,66.185326,83.084656,-10.032647,0.8954527,0.0,3.1971362,3.9557621,-0.14191085,0.0,0.0,0.0,0.0,0.0,0.0,0.27391112,0.31422424,-0.5804745
287152000,66.4767,83.45024,-10.032646,0.8953423,0.0,3.1966727,3.9505715,-0.14047794,0.0,0.0,0.0,0.0,0.0,0.0,0.27355206,0.31265444,-0.58322036
287252000,66.78006,83.83101,-10.032641,0.89524806,0.0,3.1844509,3.940321,-0.13921542,0.0,0.0,0.0,0.0,0.0,0.0,0.27115753,0.3115143,-0.58251894
287348000,67.071205,84.19626,-10.032637,0.8951601,0.0,3.1693861,3.9110627,-0.13836195,0.0,0.0,0.0,0.0,0.0,0.0,0.2679171,0.30640063,-0.58234
287444000,67.36414,84.56291,-10.032631,0.8951127,0.0,3.0996346,3.8174555,-0.137911,0.0,0.0,0.0,0.0,0.0,0.0,0.2554626,0.2901977,-0.5880662
287540000,67.6492,84.919945,-10.032669,0.8950129,0.0,3.0004992,3.7031415,-0.13949294,0.0,0.0,0.0,0.0,0.0,0.0,0.23982339,0.2708708,-0.6010445
287636000,67.92566,85.26722,-10.032699,0.8949044,0.0,2.895868,3.582219,-0.1412881,0.0,0.0,0.0,0.0,0.0,0.0,0.22684154,0.2570042,-0.6099623
287752000,68.24885,85.674484,-10.032741,0.89487433,0.0,2.773479,3.4436944,-0.14195992,0.0,0.0,0.0,0.0,0.0,0.0,0.215072,0.24842338,-0.60667956
287852000,68.517426,86.01414,-10.032733,0.89491963,0.0,2.650797,3.3055413,-0.14307432,0.0,0.0,0.0,0.0,0.0,0.0,0.2088354,0.24521951,-0.6004578
287948000,68.7661,86.32995,-10.032731,0.89500934,0.0,2.5413811,3.1896658,-0.14316714,0.0,0.0,0.0,0.0,0.0,0.0,0.2039809,0.24199957,-0.59548354
288044000,69.006325,86.63642,-10.032723,0.8950719,0.0,2.4495947,3.086751,-0.14321344,0.0,0.0,0.0,0.0,0.0,0.0,0.2000361,0.2385995,-0.59530246
288140000,69.24075,86.934425,-10.03275,0.89511734,0.0,2.3845575,2.9802809,-0.14320008,0.0,0.0,0.0,0.0,0.0,0.0,0.20059186,0.23018661,-0.595581
288256000,69.5179,87.28234,-10.032763,0.8950787,0.0,2.3189337,2.8571243,-0.14103559,0.0,0.0,0.0,0.0,0.0,0.0,0.19805415,0.21879381,-0.59591854
288352000,69.74128,87.56065,-10.032788,0.89503753,0.0,2.2337284,2.7539306,-0.14106576,0.0,0.0,0.0,0.0,0.0,0.0,0.19072571,0.21137889,-0.5988559
288452000,69.96613,87.84225,-10.032816,0.8949814,0.0,2.1283534,2.6403072,-0.14009775,0.0,0.0,0.0,0.0,0.0,0.0,0.17972378,0.20576802,-0.5996158
288548000,70.17435,88.10471,-10.032818,0.8950204,0.0,2.0319417,2.539855,-0.1385317,0.0,0.0,0.0,0.0,0.0,0.0,0.1701574,0.19951451,-0.5994481
288644000,70.37513,88.35942,-10.032818,0.8950172,0.0,1.9370809,2.4354813,-0.13817598,0.0,0.0,0.0,0.0,0.0,0.0,0.16315278,0.19265208,-0.5994564
288740000,70.56977,88.60666,-10.032818,0.8949885,0.0,1.8684953,2.3422716,-0.13824464,0.0,0.0,0.0,0.0,0.0,0.0,0.16258419,0.18763272,-0.60038763
288856000,70.800064,88.89625,-10.032818,0.8948607,0.0,1.8097117,2.2359076,-0.13689138,0.0,0.0,0.0,0.0,0.0,0.0,0.16470936,0.18129891,-0.59500605
288952000,70.98613,89.128006,-10.032818,0.8947401,0.0,1.7365336,2.1357882,-0.13515379,0.0,0.0,0.0,0.0,0.0,0.0,0.16006494,0.17484179,-0.59546524
289052000,71.17341,89.36169,-10.032818,0.8945835,0.0,1.6418458,2.025835,-0.13333322,0.0,0.0,0.0,0.0,0.0,0.0,0.15036762,0.16810498,-0.5965552
289148000,71.34668,89.5791,-10.032818,0.894531,0.0,1.5555863,1.9335927,-0.1314068,0.0,0.0,0.0,0.0,0.0,0.0,0.14099908,0.161883,-0.59822977
289244000,71.51377,89.7901,-10.032818,0.89455724,0.0,1.4763882,1.8427812,-0.12956907,0.0,0.0,0.0,0.0,0.0,0.0,0.13458863,0.15566948,-0.5977781
289340000,71.6769,89.995384,-10.032818,0.8946391,0.0,1.4262695,1.7677436,-0.12739278,0.0,0.0,0.0,0.0,0.0,0.0,0.13577716,0.15327796,-0.596614
289456000,71.87004,90.23649,-10.032818,0.89482474,0.0,1.3597769,1.6742088,-0.12373831,0.0,0.0,0.0,0.0,0.0,0.0,0.13328418,0.14769383,-0.5924397
289552000,72.02437,90.42927,-10.032818,0.89507985,0.0,1.2801048,1.5860823,-0.12088015,0.0,0.0,0.0,0.0,0.0,0.0,0.12611791,0.14121327,-0.59203815
289652000,72.179115,90.62352,-10.032818,0.8954016,0.0,1.1902682,1.4896852,-0.11928751,0.0,0.0,0.0,0.0,0.0,0.0,0.11654309,0.13456848,-0.5952856
289748000,72.322426,90.804146,-10.032818,0.8957932,0.0,1.1264197,1.4101253,-0.117790245,0.0,0.0,0.0,0.0,0.0,0.0,0.11234927,0.12943275,-0.5956668
289844000,72.46308,90.98011,-10.032818,0.8961812,0.0,1.0824088,1.341846,-0.11656382,0.0,0.0,0.0,0.0,0.0,0.0,0.11362271,0.12652592,-0.5931648
289940000,72.6005,91.15142,-10.032818,0.8965523,0.0,1.0169345,1.2693882,-0.114470504,0.0,0.0,0.0,0.0,0.0,0.0,0.11028562,0.12306018,-0.5905352
290056000,72.760506,91.352066,-10.032818,0.89701355,0.0,0.9406581,1.1896505,-0.11179163,0.0,0.0,0.0,0.0,0.0,0.0,0.10310171,0.11811012,-0.5909864
290156000,72.89313,91.51945,-10.032818,0.89751816,0.0,0.8662605,1.1089637,-0.10906126,0.0,0.0,0.0,0.0,0.0,0.0,0.096442714,0.11165489,-0.59074146
290252000,73.01644,91.67483,-10.032818,0.897973,0.0,0.81235635,1.0334198,-0.106611274,0.0,0.0,0.0,0.0,0.0,0.0,0.094233915,0.10475685,-0.5905606
290348000,73.13692,91.825554,-10.032818,0.8984198,0.0,0.76549804,0.9669902,-0.10368063,0.0,0.0,0.0,0.0,0.0,0.0,0.09346253,0.10136691,-0.59027076
290444000,73.25444,91.9719,-10.032818,0.8987353,0.0,0.7128477,0.90093285,-0.10072329,0.0,0.0,0.0,0.0,0.0,0.0,0.09089531,0.09832226,-0.58862627
290540000,73.368256,92.11387,-10.032818,0.8990407,0.0,0.6570452,0.83602303,-0.09800436,0.0,0.0,0.0,0.0,0.0,0.0,0.08703737,0.0952315,-0.5880028
290636000,73.47826,92.2515,-10.032818,0.8993484,0.0,0.6014386,0.7738793,-0.09519961,0.0,0.0,0.0,0.0,0.0,0.0,0.08250363,0.091462076,-0.5882677
290752000,73.6067,92.41286,-10.032818,0.8997573,0.0,0.55183375,0.7169311,-0.090726875,0.0,0.0,0.0,0.0,0.0,0.0,0.07933767,0.087926865,-0.5859943
290852000,73.71458,92.54815,-10.032818,0.8999196,0.0,0.507805,0.6551094,-0.08696272,0.0,0.0,0.0,0.0,0.0,0.0,0.07775873,0.08426158,-0.58482414
290948000,73.81565,92.673996,-10.032818,0.8999977,0.0,0.46638525,0.59266484,-0.08419707,0.0,0.0,0.0,0.0,0.0,0.0,0.0768047,0.07930581,-0.5848243
291044000,73.91333,92.79558,-10.032818,0.9001294,0.0,0.41386563,0.5347616,-0.08092215,0.0,0.0,0.0,0.0,0.0,0.0,0.07152945,0.0751396,-0.5840716
291140000,74.00737,92.91348,-10.032818,0.90044373,0.0,0.36714596,0.48311967,-0.077705406,0.0,0.0,0.0,0.0,0.0,0.0,0.06756583,0.07302351,-0.58470875
291256000,74.11782,93.051575,-10.032818,0.90089077,0.0,0.33401346,0.43208742,-0.07427218,0.0,0.0,0.0,0.0,0.0,0.0,0.06751664,0.06958981,-0.58393687
291352000,74.20678,93.16246,-10.032818,0.90139025,0.0,0.2886482,0.38423276,-0.07083704,0.0,0.0,0.0,0.0,0.0,0.0,0.06422189,0.06857157,-0.583027
291452000,74.29591,93.27445,-10.032818,0.9022262,0.0,0.24108732,0.33433092,-0.06758406,0.0,0.0,0.0,0.0,0.0,0.0,0.060888305,0.06601186,-0.58222616
291548000,74.379234,93.37906,-10.032818,0.9031063,0.0,0.21417373,0.29148442,-0.0644665,0.0,0.0,0.0,0.0,0.0,0.0,0.06110564,0.062526315,-0.580363
291644000,74.46099,93.48028,-10.032818,0.9039849,0.0,0.18300557,0.24398696,-0.061178226,0.0,0.0,0.0,0.0,0.0,0.0,0.059367776,0.057988778,-0.5814156
291740000,74.540016,93.57835,-10.032818,0.90490425,0.0,0.13999486,0.20513165,-0.05838396,0.0,0.0,0.0,0.0,0.0,0.0,0.05526945,0.055925593,-0.58121926
291856000,74.63184,93.693245,-10.032818,0.906261,0.0,0.10482663,0.16260153,-0.055185337,0.0,0.0,0.0,0.0,0.0,0.0,0.052306473,0.053103924,-0.5802071
291952000,74.705696,93.785484,-10.032818,0.9076227,0.0,0.073140144,0.12957478,-0.051986713,0.0,0.0,0.0,0.0,0.0,0.0,0.05145739,0.052981213,-0.5793011
292052000,74.78021,93.87911,-10.032818,0.90910447,0.0,0.038653016,0.090915084,-0.049224872,0.0,0.0,0.0,0.0,0.0,0.0,0.049450755,0.05145073,-0.5792002
292148000,74.84987,93.96614,-10.032818,0.91048753,0.0,0.011957467,0.053423643,-0.046476383,0.0,0.0,0.0,0.0,0.0,0.0,0.048029095,0.047555685,-0.578688
292244000,74.917336,94.05048,-10.032818,0.91214746,0.0,-0.019960523,0.022084773,-0.043868084,0.0,0.0,0.0,0.0,0.0,0.0,0.045455992,0.045489818,-0.5767642
292340000,74.98298,94.13301,-10.032818,0.9138966,0.0,-0.041060686,-0.0014673471,-0.04126169,0.0,0.0,0.0,0.0,0.0,0.0,0.04531865,0.045192793,-0.5772562
292456000,75.06035,94.229454,-10.032818,0.9160809,0.0,-0.06949818,-0.042205036,-0.03754713,0.0,0.0,0.0,0.0,0.0,0.0,0.042960048,0.041623518,-0.57664734
292552000,75.12175,94.30629,-10.032818,0.8904001,0.0,-0.09979457,-0.070760965,-0.03453352,0.0,0.0,0.0,0.0,0.0,0.0,0.040197372,0.039995834,-0.57672113
292652000,75.18564,94.38181,-10.032818,0.8118603,0.0,-0.0830456,-0.16482437,-0.031237623,0.0,0.0,0.0,0.0,0.0,0.0,0.047344834,0.026798964,-0.5764434
292748000,75.249916,94.44184,-10.032818,0.7364621,0.0,-0.05049622,-0.35394984,-0.028496763,0.0,0.0,0.0,0.0,0.0,0.0,0.05605237,-0.0070816576,-0.5728514
292844000,75.31735,94.480705,-10.032818,0.6610639,0.0,-0.0152186155,-0.64595765,-0.025530836,0.0,0.0,0.0,0.0,0.0,0.0,0.060506232,-0.05509214,-0.57076025
292940000,75.38793,94.49262,-10.032818,0.5856657,0.0,0.022482157,-0.9776199,-0.022501966,0.0,0.0,0.0,0.0,0.0,0.0,0.062272057,-0.10083419,-0.56438226
293036000,75.46166,94.477066,-10.032818,0.5102675,0.0,0.06255716,-1.3219713,-0.018811246,0.0,0.0,0.0,0.0,0.0,0.0,0.06485006,-0.13681279,-0.55804735
293156000,75.53948,94.433365,-10.032818,0.41601974,0.0,0.092285514,-1.6869907,-0.0130501,0.0,0.0,0.0,0.0,0.0,0.0,0.06539626,-0.1552185,-0.5503929
293252000,75.55248,94.42356,-10.032818,0.34062153,0.0,0.054638803,-1.7561644,-0.0074663362,0.0,0.0,0.0,0.0,0.0,0.0,0.052634105,-0.12249938,-0.5552086
293348000,75.56378,94.41449,-10.032818,0.26522332,0.0,0.014448583,-1.8043573,-0.0043764315,0.0,0.0,0.0,0.0,0.0,0.0,0.043779805,-0.09467256,-0.5692588
293444000,75.573845,94.40599,-10.032818,0.18982506,0.0,-0.02685225,-1.8326299,-0.0027189455,0.0,0.0,0.0,0.0,0.0,0.0,0.037841022,-0.08051561,-0.573083
293540000,75.58311,94.39783,-10.032818,0.11442681,0.0,-0.06906998,-1.8493487,-0.00027658566,0.0,0.0,0.0,0.0,0.0,0.0,0.032408595,-0.07722628,-0.57084644
293656000,75.59338,94.388374,-10.032818,0.023320625,0.0,-0.11735636,-1.8594085,0.0033578672,0.0,0.0,0.0,0.0,0.0,0.0,0.027018696,-0.07953279,-0.5692585
293752000,75.60133,94.38079,-10.032818,-0.052077606,0.0,-0.15882987,-1.8610426,0.0062684813,0.0,0.0,0.0,0.0,0.0,0.0,0.022290632,-0.07946648,-0.57022786
293852000,75.62449,94.357376,-10.032818,-0.13061742,0.0,-0.18380904,-1.9221506,0.00888727,0.0,0.0,0.0,0.0,0.0,0.0,0.024566382,-0.0903579,-0.5686811
293948000,75.64732,94.332375,-10.032818,-0.20601569,0.0,-0.20334065,-1.9819694,0.011782626,0.0,0.0,0.0,0.0,0.0,0.0,0.024836794,-0.097668245,-0.5684647
294044000,75.65427,94.32444,-10.032818,-0.2814139,0.0,-0.23933947,-1.9686985,0.015450457,0.0,0.0,0.0,0.0,0.0,0.0,0.021879971,-0.090289325,-0.5674015
294140000,75.677055,94.297134,-10.032818,-0.35681212,0.0,-0.25530678,-2.0204687,0.019205073,0.0,0.0,0.0,0.0,0.0,0.0,0.02247551,-0.096070156,-0.57012063
294236000,75.700066,94.26781,-10.032818,-0.43221033,0.0,-0.26914757,-2.0698647,0.022672633,0.0,0.0,0.0,0.0,0.0,0.0,0.021527216,-0.10209225,-0.56860006
