timestamp,lat,lon,alt,alt_ellipsoid,delta_alt,vel_n,vel_e,vel_d,yaw,eph,epv,terrain_alt,lat_lon_reset_counter,alt_reset_counter,terrain_alt_valid,dead_reckoning
11736000,47.3977507245909,8.545607226783948,488.06857,-0.01473999,-0.0,-0.008998789,-0.01792382,0.008516086,0.40674627,1.2305421,1.0346192,0.0,2,0,0,0
11936000,47.397750711461384,8.545607214579809,488.0658,-0.017181396,-0.0,-0.007995822,-0.019139905,0.009031166,0.406986,1.1917026,1.0338459,0.0,2,0,0,0
12136000,47.397750712780265,8.545607198334794,488.06125,-0.02130127,-0.0,-0.0056545013,-0.02127332,0.010300301,0.40635756,1.1661067,1.034152,0.0,2,0,0,0
12336000,47.39775072102516,8.545607196562916,488.0535,-0.028503418,-0.0,-0.004509663,-0.014607935,0.014721817,0.40605655,1.1484288,1.0340817,0.0,2,0,0,0
12536000,47.397750738526085,8.545607220294915,488.04767,-0.03366089,-0.0,-0.0029682156,-0.0076509807,0.017825134,0.40525737,1.1358657,1.0346385,0.0,2,0,0,0
12736000,47.39775075263667,8.545607248933432,488.04337,-0.037231445,-0.0,-0.003008646,-0.005326862,0.018517297,0.40547132,1.126777,1.0345458,0.0,2,0,0,0
12936000,47.397750763108746,8.545607273566247,488.04196,-0.037841797,-0.0,0.000106714986,-0.0040739,0.020280762,0.40570608,1.1201236,1.0343434,0.0,2,0,0,0
13136000,47.39775077417215,8.54560728870245,488.0421,-0.03692627,-0.0,0.00049779064,-0.0016437817,0.019498216,0.40570307,1.1152089,1.0346133,0.0,2,0,0,0
13336000,47.39775078583456,8.545607321275973,488.04102,-0.037261963,-0.0,0.0041871434,0.001990132,0.01699437,0.40554926,1.11155,1.0341784,0.0,2,0,0,0
13536000,47.397750800032405,8.545607360242778,488.04126,-0.0362854,-0.0,0.00629557,0.0033516397,0.016366076,0.40539217,1.1088041,1.0342239,0.0,2,0,0,0
13736000,47.397750808972546,8.54560738100409,488.04407,-0.032806396,-0.0,0.005959208,0.0015105917,0.016432716,0.4052062,1.1067255,1.0335948,0.0,2,0,0,0
13936000,47.39775082629487,8.545607375920627,488.04593,-0.030303955,-0.0,0.010254249,-0.0006525453,0.017163059,0.4057362,1.1051356,1.0334659,0.0,2,0,0,0
14136000,47.397750858367225,8.545607338564912,488.04483,-0.030792236,-0.0,0.0140344845,-0.0026837173,0.016824936,0.40580383,1.1039056,1.0327313,0.0,2,0,0,0
14336000,47.39775087795417,8.545607318187638,488.04504,-0.029968262,-0.0,0.015345277,-0.0028219519,0.017044751,0.40574104,1.1029406,1.0319779,0.0,2,0,0,0
14536000,47.397750891559205,8.54560729595794,488.04526,-0.029174805,-0.0,0.015892636,-0.0032333746,0.014076022,0.40559146,1.1021712,1.0317203,0.0,2,0,0,0
14736000,47.397750895212965,8.545607289402856,488.04407,-0.029754639,-0.0,0.014246878,-0.0022428355,0.012560952,0.4052126,1.1015462,1.0309626,0.0,2,0,0,0
14936000,47.397750909569865,8.545607294722991,488.0456,-0.027648926,-0.0,0.014977583,-0.0036357928,0.0140155405,0.40519267,1.1010269,1.0306942,0.0,2,0,0,0
15136000,47.397750943312545,8.545607310775596,488.0492,-0.02355957,-0.0,0.018901238,-0.002270708,0.012773217,0.40520552,1.1005841,1.0299721,0.0,2,0,0,0
15336000,47.39775096383936,8.545607318708266,488.0536,-0.019165039,-0.0,0.02228144,-0.00068737107,0.013253813,0.4055182,1.1001976,1.0297304,0.0,2,0,0,0
15536000,47.39775098011735,8.545607316694534,488.05743,-0.014770508,-0.0,0.017221266,-0.0026023157,0.012660673,0.4055886,1.0988723,1.0290799,0.0,2,0,0,0
15736000,47.39775098994649,8.545607308197155,488.05923,-0.0126953125,-0.0,0.019461026,-0.0042500384,0.011250475,0.40589997,1.0977284,1.0284797,0.0,2,0,0,0
15936000,47.39775098681441,8.545607295710223,488.05716,-0.014526367,-0.0,0.019538205,-0.0028972512,0.013522457,0.40593132,1.0967314,1.02833,0.0,2,0,0,0
16136000,47.39775097349403,8.545607310005417,488.05533,-0.016052246,-0.0,0.01847062,-0.0032489465,0.014181735,0.40610868,1.0958549,1.0278299,0.0,2,0,0,0
16343999,47.39775095861126,8.545607330032096,488.0526,-0.018432617,-0.0,0.016814096,-0.003218185,0.019819252,0.40620598,1.09561,1.0278897,0.0,2,0,0,0
16544000,47.39775094386419,8.545607335353779,488.04764,-0.023010254,-0.0,0.015957532,-0.0042391336,0.022071313,0.40592876,1.0949076,1.0274774,0.0,2,0,0,0
16744000,47.39775093197429,8.545607338720234,488.04324,-0.026916504,-0.0,0.014942619,-0.003406788,0.025255885,0.40609014,1.0942768,1.0274951,0.0,2,0,0,0
16944000,47.397750931382596,8.54560732077812,488.04114,-0.0284729,-0.0,0.016419075,-0.0063889297,0.026134163,0.40607226,1.0937068,1.0271851,0.0,2,0,0,0
17144000,47.39775093699718,8.545607288083053,488.0411,-0.027923584,-0.0,0.014494903,-0.008757062,0.025684724,0.40594432,1.0931901,1.0272865,0.0,2,0,0,0
17344000,47.397750934770755,8.545607276269529,488.04144,-0.027038574,-0.0,0.013133151,-0.0074937814,0.021377176,0.40557417,1.09272,1.0270576,0.0,2,0,0,0
17544000,47.39775092263379,8.54560727570361,488.04092,-0.027008057,-0.0,0.011389532,-0.007438694,0.02054727,0.40551642,1.0922921,1.0268695,0.0,2,0,0,0
17744000,47.39775091277953,8.545607278839425,488.04126,-0.026123047,-0.0,0.012135904,-0.008255467,0.020355897,0.40586668,1.0919021,1.0270855,0.0,2,0,0,0
17944000,47.397750913801275,8.545607278905994,488.04034,-0.026519775,-0.0,0.016767297,-0.010054797,0.023372956,0.40599206,1.0915473,1.0269651,0.0,2,0,0,0
18144000,47.39775092129463,8.545607272159,488.03925,-0.027069092,-0.0,0.020190177,-0.01190574,0.024131289,0.4059645,1.0912248,1.027236,0.0,2,0,0,0
18344000,47.3977509330638,8.545607263949735,488.03845,-0.027313232,-0.0,0.020879157,-0.014540547,0.026048757,0.4059212,1.0909325,1.0271581,0.0,2,0,0,0
18544000,47.39775094910623,8.545607235940565,488.03723,-0.02798462,-0.0,0.021565296,-0.018168129,0.02536811,0.4059112,1.0906692,1.0274712,0.0,2,0,0,0
18744000,47.39775096299997,8.545607204322705,488.0357,-0.028930664,-0.0,0.017100828,-0.023074768,0.026778148,0.40569627,1.0904334,1.0274178,0.0,2,0,0,0
18944000,47.39775096027141,8.545607189814017,488.03427,-0.029785156,-0.0,0.017495109,-0.02282965,0.025954984,0.4057079,1.0902237,1.0273672,0.0,2,0,0,0
19144000,47.39775094857711,8.545607190988076,488.03308,-0.03036499,-0.0,0.018436236,-0.023231803,0.02480088,0.40533137,1.0900389,1.0277022,0.0,2,0,0,0
19344000,47.39775094418317,8.545607213116362,488.03082,-0.03201294,-0.0,0.018317528,-0.021500137,0.022939378,0.40524685,1.0898777,1.027653,0.0,2,0,0,0
19544000,47.39775094241436,8.545607242433448,488.02856,-0.033599854,-0.0,0.015633116,-0.019244594,0.025001995,0.4052335,1.0897391,1.0279847,0.0,2,0,0,0
19744000,47.39775095120587,8.545607257834478,488.02924,-0.03225708,-0.0,0.018434312,-0.019323679,0.021855207,0.4053445,1.0896213,1.0279211,0.0,2,0,0,0
19944000,47.39775096452651,8.545607263013371,488.0315,-0.02935791,-0.0,0.019561416,-0.01882386,0.020683492,0.40536147,1.0895231,1.0282464,0.0,2,0,0,0
20144000,47.39775097134619,8.545607262980656,488.03442,-0.025848389,-0.0,0.015964985,-0.020583851,0.02037957,0.4053995,1.0894426,1.0281639,0.0,2,0,0,0
20344000,47.39775097074076,8.545607259412142,488.03732,-0.022460938,-0.0,0.014782692,-0.020441946,0.017778348,0.40547836,1.0893782,1.0280685,0.0,2,0,0,0
20544000,47.39775096066539,8.545607250517332,488.03635,-0.023010254,-0.0,0.011041226,-0.022600142,0.019385846,0.4054148,1.0893283,1.0283656,0.0,2,0,0,0
20744000,47.39775095481924,8.545607230326711,488.03635,-0.02230835,-0.0,0.008844536,-0.020812282,0.023269486,0.40535352,1.1022253,1.0285851,0.0,2,0,0,0
20944000,47.39775094100799,8.5456072336081,488.03836,-0.019866943,-0.0,0.0053023677,-0.02147789,0.022525363,0.40562323,1.1013045,1.0288556,0.0,2,0,0,0
21144000,47.3977509293029,8.545607227040126,488.04102,-0.01687622,-0.0,0.0019233045,-0.01909388,0.020470511,0.40570474,1.1005005,1.0287017,0.0,2,0,0,0
21344000,47.39775092281427,8.545607231590601,488.04245,-0.015136719,-0.0,0.0023975384,-0.021161905,0.019363621,0.40560502,1.0997981,1.0289572,0.0,2,0,0,0
21544000,47.397750922319524,8.545607241793027,488.0439,-0.013397217,-0.0,0.0018717021,-0.019720465,0.016610028,0.4055034,1.099184,1.0287851,0.0,2,0,0,0
21744000,47.39775091092622,8.545607254415225,488.04584,-0.011230469,-0.0,-0.0028086083,-0.019491881,0.016640881,0.40550673,1.098647,1.0286046,0.0,2,0,0,0
21944000,47.39775089327424,8.545607263543802,488.046,-0.010864258,-0.0,-0.003527731,-0.020342322,0.018211609,0.40528023,1.0981773,1.0288357,0.0,2,0,0,0
22144000,47.39775087456497,8.545607270076069,488.04514,-0.011505127,-0.0,-0.008120423,-0.020541176,0.020846352,0.40497118,1.0977659,1.0286458,0.0,2,0,0,0
22344000,47.397750855926496,8.545607273538977,488.04486,-0.0115356445,-0.0,-0.007822651,-0.019429743,0.022092303,0.40478638,1.0974053,1.0288637,0.0,2,0,0,0
22544000,47.3977508443377,8.545607271425087,488.0423,-0.013824463,-0.0,-0.0043552024,-0.019561509,0.024226233,0.404826,1.0970892,1.0286636,0.0,2,0,0,0
22744000,47.3977508394019,8.54560726857705,488.0394,-0.016418457,-0.0,-0.005072173,-0.020182643,0.0282766,0.40469867,1.0968107,1.0288787,0.0,2,0,0,0
22944000,47.39775084468442,8.545607266486535,488.03418,-0.021240234,-0.0,-0.0021048107,-0.017615609,0.029052043,0.40474343,1.096565,1.0286747,0.0,2,0,0,0
23144000,47.39775086659214,8.545607269720298,488.02866,-0.026245117,-0.0,-0.0015794792,-0.015525394,0.032058377,0.4048956,1.0963477,1.0284698,0.0,2,0,0,0
23352000,47.39775087577642,8.545607275052745,488.0264,-0.027954102,-0.0,-0.0010107751,-0.015503256,0.030709997,0.40467852,1.0966723,1.0288321,0.0,2,0,0,0
23544000,47.397750877330154,8.545607290499323,488.0263,-0.027496338,-0.0,0.0010611758,-0.010584988,0.03095413,0.40444836,1.0959811,1.028476,0.0,2,0,0,0
23744000,47.39775087660642,8.54560728873409,488.0269,-0.026367188,-0.0,0.0014111293,-0.010928171,0.030446278,0.40407985,1.0958247,1.0286819,0.0,2,0,0,0
23944000,47.39775088193525,8.545607279293316,488.02655,-0.026184082,-0.0,0.0008019088,-0.013713088,0.027433414,0.4041489,1.0956821,1.0284795,0.0,2,0,0,0
24144000,47.397750871186716,8.545607266920987,488.0251,-0.02709961,-0.0,-0.0007498805,-0.015609392,0.027007852,0.4042856,1.0955514,1.0286907,0.0,2,0,0,0
24352000,47.39775085247297,8.545607249015466,488.02625,-0.025421143,-0.0,-0.0018678725,-0.020203993,0.028504318,0.4044851,1.0959399,1.0286441,0.0,2,0,0,0
24544000,47.39775083238833,8.545607216289225,488.0292,-0.022003174,-0.0,-0.0033715733,-0.019531976,0.028017977,0.40454236,1.0953141,1.028295,0.0,2,0,0,0
24744000,47.39775081795066,8.545607207207974,488.0311,-0.019714355,-0.0,-0.004390616,-0.021593304,0.027266784,0.40474516,1.0952042,1.028509,0.0,2,0,0,0
24952000,47.39775079203216,8.545607168279897,488.03152,-0.018920898,-0.0,-0.0057662595,-0.021341652,0.029042885,0.4048919,1.0956041,1.0284696,0.0,2,0,0,0
25144000,47.3977507833117,8.545607154624069,488.03033,-0.019714355,-0.0,-0.0060902047,-0.020016596,0.027508244,0.4053752,1.0949949,1.0285333,0.0,2,0,0,0
25352000,47.39775078321129,8.545607154086149,488.02936,-0.02029419,-0.0,-0.007963063,-0.01902281,0.028004324,0.4053291,1.0953954,1.0284963,0.0,2,0,0,0
25544000,47.397750785949405,8.545607130280999,488.02786,-0.021362305,-0.0,-0.009714824,-0.017324587,0.026793968,0.40534762,1.094793,1.0285672,0.0,2,0,0,0
25744000,47.39775078255636,8.545607127947532,488.02594,-0.023284912,-0.0,-0.012201054,-0.014620453,0.029507464,0.4051748,1.0946932,1.0283831,0.0,2,0,0,0
25944000,47.39775077096159,8.545607135683875,488.0228,-0.0256958,-0.0,-0.014189913,-0.0098674325,0.032859802,0.40513897,1.093903,1.0281914,0.0,2,0,0,0
26144000,47.3977507579326,8.545607159876138,488.02057,-0.027404785,-0.0,-0.012946443,-0.009906487,0.03433362,0.40477353,1.093196,1.0284071,0.0,2,0,0,0
26344000,47.397750744348556,8.545607187098733,488.01956,-0.027862549,-0.0,-0.016989606,-0.00883774,0.03634087,0.4045261,1.0925616,1.0282208,0.0,2,0,0,0
26544000,47.39775073669462,8.545607219099079,488.0205,-0.026367188,-0.0,-0.018289503,-0.0049475306,0.037039593,0.40452987,1.0919907,1.0284363,0.0,2,0,0,0
26744000,47.397750729447154,8.545607260619226,488.02142,-0.024932861,-0.0,-0.02117553,-0.00094646914,0.037459828,0.4046696,1.0914755,1.0282508,0.0,2,0,0,0
26944000,47.39775071914281,8.545607306728984,488.01956,-0.026275635,-0.0,-0.020095797,0.0007088103,0.040587824,0.40480414,1.0910095,1.0284723,0.0,2,0,0,0
27144000,47.39775071244983,8.545607351230766,488.01993,-0.025390625,-0.0,-0.023017747,0.0058976035,0.04004892,0.40481472,1.0905871,1.0282896,0.0,2,0,0,0
27344000,47.397750699915846,8.545607398185332,488.01984,-0.024963379,-0.0,-0.024133606,0.008803307,0.044841744,0.40489239,1.0902033,1.0281074,0.0,2,0,0,0
27544000,47.39775068730094,8.54560743057439,488.0163,-0.02798462,-0.0,-0.026155733,0.010888883,0.051285975,0.40532944,1.0898535,1.0283297,0.0,2,0,0,0
27744000,47.39775067096963,8.545607450801917,488.01462,-0.029083252,-0.0,-0.027520042,0.01348661,0.049973644,0.40527758,1.0895336,1.0281518,0.0,2,0,0,0
27944000,47.397750657605805,8.54560746334958,488.0138,-0.029327393,-0.0,-0.025699815,0.016106257,0.052689176,0.40560615,1.0892408,1.0283731,0.0,2,0,0,0
28144000,47.39775065501688,8.545607465382572,488.01044,-0.032073975,-0.0,-0.026214756,0.013836698,0.05452898,0.40558657,1.0889724,1.0281948,0.0,2,0,0,0
28344000,47.39775064797467,8.545607460012814,488.00726,-0.034576416,-0.0,-0.028230218,0.013635174,0.053996697,0.40598798,1.0887258,1.0284213,0.0,2,0,0,0
28544000,47.39775063478989,8.545607461176731,488.00345,-0.03768921,-0.0,-0.03171047,0.012351228,0.058003016,0.4060383,1.0884982,1.0282445,0.0,2,0,0,0
28744000,47.39775062733621,8.545607472236698,488.00006,-0.04031372,-0.0,-0.029683277,0.011679721,0.06303509,0.406002,1.0882881,1.0280676,0.0,2,0,0,0
28944000,47.397750630962605,8.545607495316286,487.9978,-0.041748047,-0.0,-0.029224126,0.015665522,0.06165235,0.4059553,1.0880928,1.0282937,0.0,2,0,0,0
29144000,47.397750633654795,8.545607504549688,487.99417,-0.044525146,-0.0,-0.024618473,0.011583341,0.06574806,0.4059585,1.0879114,1.0281202,0.0,2,0,0,0
29344000,47.39775063696567,8.545607510354191,487.9935,-0.044281006,-0.0,-0.024430353,0.012169501,0.06389707,0.4061247,1.087742,1.0283446,0.0,2,0,0,0
29544000,47.39775063171176,8.545607506875607,487.99402,-0.042877197,-0.0,-0.024680868,0.008939733,0.062593274,0.40612313,1.0875838,1.0281698,0.0,2,0,0,0
29744000,47.39775061684818,8.545607504980714,487.9931,-0.042938232,-0.0,-0.02881596,0.007694421,0.061944544,0.40629384,1.0874355,1.0283988,0.0,2,0,0,0
29952000,47.397750599318194,8.545607489464896,487.99197,-0.04321289,-0.0,-0.026496336,0.0050847265,0.060792178,0.40627673,1.087721,1.0283751,0.0,2,0,0,0
30144000,47.39775059111467,8.545607470338831,487.99078,-0.043518066,-0.0,-0.02414194,0.002077981,0.060065996,0.4062415,1.0871648,1.0280505,0.0,2,0,0,0
30352000,47.39775058888425,8.545607453315382,487.99042,-0.043029785,-0.0,-0.025245197,-0.002973167,0.061931353,0.406566,1.0874625,1.0284292,0.0,2,0,0,0
30552000,47.39775059234728,8.545607433908174,487.98956,-0.043029785,-0.0,-0.02385076,-0.0031912718,0.06093934,0.4062418,1.0873433,1.0282567,0.0,2,0,0,0
30744000,47.397750600080656,8.545607423649365,487.98972,-0.042022705,-0.0,-0.021053728,-0.0032604747,0.059706543,0.40644994,1.0868106,1.028333,0.0,2,0,0,0
30944000,47.397750596783425,8.545607413693473,487.98788,-0.042541504,-0.0,-0.020851009,-0.0043811677,0.062342763,0.40631762,1.0980562,1.0284773,0.0,2,0,0,0
31144000,47.39775059676111,8.545607386088106,487.98367,-0.045837402,-0.0,-0.02066765,-0.010637603,0.06320839,0.4058005,1.0972102,1.0287024,0.0,2,0,0,0
31344000,47.3977506001188,8.545607357413317,487.9789,-0.049621582,-0.0,-0.020815428,-0.012834627,0.06536376,0.40534317,1.0964506,1.0285156,0.0,2,0,0,0
31544000,47.397750607193274,8.545607313469196,487.97696,-0.05053711,-0.0,-0.017760187,-0.014985476,0.06424996,0.40480354,1.0957673,1.0283285,0.0,2,0,0,0
31744000,47.397750617992656,8.545607289242499,487.97638,-0.050109863,-0.0,-0.01652023,-0.018970447,0.063690804,0.40518433,1.0951517,1.0285518,0.0,2,0,0,0
31944000,47.39775063744617,8.545607269687066,487.9762,-0.04928589,-0.0,-0.01827804,-0.01876081,0.0632146,0.40526503,1.0945967,1.0283679,0.0,2,0,0,0
32144000,47.39775065424962,8.545607249596681,487.97543,-0.04901123,-0.0,-0.011475605,-0.023510726,0.06384798,0.40482014,1.0940956,1.0285889,0.0,2,0,0,0
32344000,47.397750663535646,8.54560724001865,487.97342,-0.049987793,-0.0,-0.008878811,-0.02668503,0.063122794,0.40475002,1.0935936,1.0284009,0.0,2,0,0,0
32551999,47.39775068132891,8.545607216911966,487.97223,-0.05014038,-0.0,-0.0056560664,-0.027114382,0.06334784,0.40516543,1.0935864,1.0287617,0.0,2,0,0,0
32752000,47.39775068737358,8.54560719245073,487.97162,-0.049682617,-0.0,-0.0047819116,-0.030874562,0.06417525,0.40522307,1.093126,1.0285479,0.0,2,0,0,0
32952000,47.39775068563999,8.545607154860598,487.97183,-0.048461914,-0.0,-0.007917504,-0.03494476,0.06119115,0.40531898,1.0926625,1.0287378,0.0,2,0,0,0
33152000,47.39775068253759,8.545607124698215,487.97202,-0.047302246,-0.0,-0.006276792,-0.038392898,0.05733716,0.40509626,1.092245,1.0289229,0.0,2,0,0,0
33359999,47.3977506940271,8.545607116254786,487.97253,-0.045806885,-0.0,-0.0049985275,-0.037440408,0.052699275,0.40507978,1.0922575,1.0288389,0.0,2,0,0,0
33560000,47.39775070324959,8.545607103902018,487.976,-0.04144287,-0.0,-0.0048458576,-0.04029263,0.052743364,0.40501928,1.091874,1.028607,0.0,2,0,0,0
33760000,47.3977507046699,8.54560710154811,487.9788,-0.037872314,-0.0,-0.004358429,-0.04093057,0.049383614,0.40499234,1.0914817,1.0287808,0.0,2,0,0,0
33960000,47.39775070744281,8.545607087531474,487.9822,-0.03375244,-0.0,-0.005668991,-0.043897722,0.045323756,0.40497315,1.0911283,1.0289519,0.0,2,0,0,0
34160000,47.397750707723965,8.545607073797568,487.98776,-0.027618408,-0.0,-0.0050734403,-0.044564728,0.03724277,0.40514982,1.0908103,1.0287174,0.0,2,0,0,0
34360000,47.397750709797464,8.54560705974819,487.9957,-0.01928711,-0.0,-0.0072653885,-0.04380621,0.03298645,0.4053345,1.0905242,1.0284903,0.0,2,0,0,0
34560000,47.39775070841118,8.545607041054474,488.00308,-0.011657715,-0.0,-0.0096128145,-0.043780234,0.027119223,0.40539205,1.0902665,1.0286772,0.0,2,0,0,0
34760000,47.39775070442724,8.545607045508685,488.0094,-0.005218506,-0.0,-0.011620656,-0.039204072,0.02243783,0.40539375,1.0900346,1.0284628,0.0,2,0,0,0
34960000,47.39775069964052,8.54560704749545,488.01462,0.0,-0.0,-0.012393914,-0.040332984,0.01844395,0.40559083,1.0898259,1.0286629,0.0,2,0,0,0
35160000,47.397750690218544,8.545607043816727,488.02213,0.0073547363,-0.0,-0.018060274,-0.03930869,0.017067485,0.40536848,1.0896381,1.0284568,0.0,2,0,0,0
35360000,47.39775068574763,8.545607055815196,488.02893,0.013885498,-0.0,-0.01755572,-0.039070256,0.013699554,0.4053759,1.0894688,1.0286621,0.0,2,0,0,0
35560000,47.397750679205686,8.545607064767344,488.03525,0.019805908,-0.0,-0.019166643,-0.037400518,0.010006817,0.40574008,1.0893162,1.0284669,0.0,2,0,0,0
35760000,47.39775067416641,8.545607073929046,488.03964,0.023712158,-0.0,-0.019028604,-0.03726659,0.007948259,0.40576804,1.089179,1.028275,0.0,2,0,0,0
35960000,47.39775066909868,8.54560706747805,488.04388,0.027404785,-0.0,-0.020694347,-0.03892457,0.0056196814,0.40555245,1.0890552,1.028488,0.0,2,0,0,0
36160000,47.39775065642738,8.545607047022935,488.0465,0.029418945,-0.0,-0.0250425,-0.037257973,0.004756775,0.4051584,1.0889436,1.0283022,0.0,2,0,0,0
36360000,47.39775064105135,8.545607015067086,488.0487,0.030975342,-0.0,-0.02834324,-0.03743058,0.002255424,0.40515724,1.0888426,1.0285237,0.0,2,0,0,0
36560000,47.39775061923376,8.545606992458193,488.05215,0.03375244,-0.0,-0.031376194,-0.0371814,0.00121168,0.40491354,1.0887514,1.0283406,0.0,2,0,0,0
36760000,47.397750591685174,8.5456069958036,488.0552,0.036071777,-0.0,-0.03430095,-0.035427153,0.00046297902,0.40507838,1.088669,1.0285631,0.0,2,0,0,0
36960000,47.39775056043659,8.545606993193887,488.05576,0.035888672,-0.0,-0.035022862,-0.03577529,0.0016958802,0.40498322,1.0885937,1.0283859,0.0,2,0,0,0
37160000,47.397750539342844,8.545606990089636,488.05618,0.035583496,-0.0,-0.03522044,-0.03327437,-0.0011885678,0.4050783,1.0885252,1.0282093,0.0,2,0,0,0
37360000,47.39775052740596,8.54560699256406,488.05606,0.03475952,-0.0,-0.036476888,-0.032856293,0.004759282,0.40528002,1.0884631,1.028434,0.0,2,0,0,0
37560000,47.397750518128824,8.545606998166022,488.05692,0.03491211,-0.0,-0.036927905,-0.03359591,0.008307277,0.40550804,1.0884056,1.0282596,0.0,2,0,0,0
37760000,47.39775051337019,8.545606991334743,488.0576,0.03488159,-0.0,-0.03699841,-0.032054823,0.009261447,0.4054498,1.0883527,1.0284901,0.0,2,0,0,0
37960000,47.39775050922119,8.54560701536959,488.05994,0.036499023,-0.0,-0.03515051,-0.02884198,0.012647726,0.40560296,1.0883039,1.0283152,0.0,2,0,0,0
38160000,47.39775050888626,8.54560702942122,488.0624,0.038970947,-0.0,-0.033166293,-0.027535768,0.013096126,0.40578073,1.0882584,1.0285441,0.0,2,0,0,0
38360000,47.39775049775869,8.545607012114383,488.06113,0.03652954,-0.0,-0.034652814,-0.029653404,0.016466593,0.40567064,1.0876608,1.0283626,0.0,2,0,0,0
38560000,47.397750497604626,8.545606992789725,488.06018,0.034851074,-0.0,-0.032811992,-0.031540416,0.01980694,0.40575176,1.0871208,1.028181,0.0,2,0,0,0
38760000,47.39775050027838,8.545606980087436,488.05652,0.030517578,-0.0,-0.032546245,-0.033310812,0.02729043,0.40570644,1.0866325,1.0283986,0.0,2,0,0,0
38960000,47.39775050822158,8.545606966664968,488.0507,0.024108887,-0.0,-0.03078027,-0.03737007,0.03345181,0.40576282,1.0861909,1.0282176,0.0,2,0,0,0
39160000,47.39775052134777,8.545606954843759,488.04337,0.016357422,-0.0,-0.029109703,-0.038099412,0.037291113,0.40587842,1.0857917,1.0284394,0.0,2,0,0,0
39360000,47.39775052615679,8.545606954405594,488.0372,0.009918213,-0.0,-0.03131002,-0.036415573,0.042259634,0.4058845,1.0854309,1.0282571,0.0,2,0,0,0
39560000,47.39775053137905,8.545606970418202,488.03143,0.0039978027,-0.0,-0.027713813,-0.03199708,0.04889831,0.40583,1.0851054,1.0284765,0.0,2,0,0,0
39760000,47.3977505381358,8.545606987928803,488.02448,-0.0029907227,-0.0,-0.027748274,-0.028960329,0.055678867,0.40605128,1.0848119,1.0282972,0.0,2,0,0,0
39960000,47.39775054738323,8.545606994131466,488.01675,-0.0105896,-0.0,-0.027410813,-0.028956972,0.059090365,0.40630186,1.0845474,1.0281178,0.0,2,0,0,0
40160000,47.397750560894465,8.54560700053062,488.00967,-0.01739502,-0.0,-0.025037609,-0.0288478,0.062958956,0.4068553,1.0843095,1.0283363,0.0,2,0,0,0
40360000,47.39775057113942,8.545607012291544,488.00256,-0.02407837,-0.0,-0.024155706,-0.028193742,0.07040672,0.40691283,1.0840957,1.0281578,0.0,2,0,0,0
40560000,47.397750582855345,8.545607029171327,487.99744,-0.028656006,-0.0,-0.023585007,-0.025535857,0.07390929,0.40686944,1.0839041,1.0283808,0.0,2,0,0,0
40760000,47.397750593342366,8.54560704208926,487.9936,-0.03189087,-0.0,-0.027766095,-0.026428856,0.07644076,0.40690497,1.0837324,1.0282015,0.0,2,0,0,0
40960000,47.397750600585205,8.545607052426753,487.9884,-0.03640747,-0.0,-0.02787037,-0.025978342,0.081927136,0.40705937,1.083579,1.0284225,0.0,2,0,0,0
41160000,47.39775060287656,8.545607065631476,487.98297,-0.041046143,-0.0,-0.027188955,-0.023447288,0.08679355,0.4073213,1.0834422,1.0282465,0.0,2,0,0,0
41360000,47.39775060381107,8.545607086611442,487.97946,-0.043701172,-0.0,-0.029741086,-0.019557914,0.08829638,0.40722293,1.0833201,1.0280706,0.0,2,0,0,0
41560000,47.3977506004164,8.545607117884554,487.9762,-0.046081543,-0.0,-0.029733846,-0.0155945895,0.088653974,0.40732735,1.0832115,1.0282912,0.0,2,0,0,0
41760000,47.39775059411037,8.545607146505068,487.97073,-0.050567627,-0.0,-0.028593624,-0.012141056,0.08905888,0.40736505,1.0831155,1.0281162,0.0,2,0,0,0
41960000,47.39775058763664,8.545607183834841,487.96582,-0.05441284,-0.0,-0.027356477,-0.007879629,0.09035872,0.40746856,1.0830306,1.0283415,0.0,2,0,0,0
42160000,47.39775058509828,8.545607213527296,487.96103,-0.05807495,-0.0,-0.025419597,-0.005425046,0.09109839,0.40777546,1.0829556,1.0281658,0.0,2,0,0,0
42360000,47.397750582497075,8.545607238513037,487.95828,-0.059631348,-0.0,-0.027092548,-0.0012281559,0.08806159,0.4080299,1.0828894,1.0283893,0.0,2,0,0,0
42560000,47.39775058753924,8.545607265320099,487.95563,-0.061065674,-0.0,-0.024820644,0.0021605536,0.08882552,0.40850976,1.0828317,1.0282168,0.0,2,0,0,0
42760000,47.397750591967494,8.545607296703812,487.95132,-0.06411743,-0.0,-0.023144316,0.0070883743,0.0902405,0.4085607,1.0827811,1.028044,0.0,2,0,0,0
42960000,47.39775060189213,8.545607327234395,487.94894,-0.06518555,-0.0,-0.021560363,0.007199302,0.09252644,0.40886894,1.0827366,1.0282671,0.0,2,0,0,0
43160000,47.397750613790016,8.545607354345545,487.94687,-0.06594849,-0.0,-0.017270552,0.00995971,0.09284369,0.40934354,1.0826975,1.0280951,0.0,2,0,0,0
43360000,47.3977506288177,8.54560738477754,487.94452,-0.06695557,-0.0,-0.013906487,0.015418613,0.09449907,0.40940654,1.0826632,1.0283227,0.0,2,0,0,0
43560000,47.397750634682914,8.545607416844552,487.94046,-0.06890869,-0.0,-0.013386994,0.017423611,0.09391798,0.409629,1.0927398,1.0284691,0.0,2,0,0,0
43760000,47.39775063730623,8.545607462879671,487.93704,-0.070892334,-0.0,-0.015446061,0.024201803,0.0945531,0.4096809,1.0921621,1.0286903,0.0,2,0,0,0
43960000,47.39775062968725,8.545607514135266,487.934,-0.07247925,-0.0,-0.018006237,0.026994236,0.0955664,0.40972358,1.091641,1.0285068,0.0,2,0,0,0
44160000,47.39775062914942,8.545607562746458,487.93106,-0.073913574,-0.0,-0.016259778,0.02963568,0.09641506,0.4098849,1.0911711,1.028323,0.0,2,0,0,0
44360000,47.397750633904536,8.545607600668667,487.92773,-0.07571411,-0.0,-0.016181018,0.030545447,0.093953505,0.4100884,1.0907477,1.0285429,0.0,2,0,0,0
44560000,47.397750632318115,8.54560762954464,487.9269,-0.07501221,-0.0,-0.015689695,0.031575598,0.091741055,0.41028622,1.0903668,1.0283601,0.0,2,0,0,0
44760000,47.397750631620504,8.545607654261532,487.92712,-0.07330322,-0.0,-0.016337868,0.034761135,0.091045745,0.41047394,1.0900245,1.0285842,0.0,2,0,0,0
44960000,47.39775063478517,8.545607670964426,487.9305,-0.06851196,-0.0,-0.012893763,0.034821272,0.087949984,0.41072002,1.0897169,1.0284004,0.0,2,0,0,0
45160000,47.3977506494745,8.54560768307584,487.93298,-0.06472778,-0.0,-0.010938836,0.037210584,0.08794355,0.41074237,1.0894411,1.0286226,0.0,2,0,0,0
45360000,47.39775065813319,8.545607712338752,487.9358,-0.060668945,-0.0,-0.012583011,0.035541777,0.084764585,0.41092846,1.089194,1.0284421,0.0,2,0,0,0
45560000,47.39775066253328,8.545607743270658,487.93906,-0.056243896,-0.0,-0.013101631,0.03641987,0.080820195,0.41121304,1.0889734,1.0282618,0.0,2,0,0,0
45760000,47.397750669488055,8.545607771584685,487.94254,-0.051696777,-0.0,-0.008931878,0.034708798,0.078013696,0.41123906,1.088777,1.0284835,0.0,2,0,0,0
45960000,47.39775067879061,8.545607776358276,487.94827,-0.045043945,-0.0,-0.007806833,0.03384234,0.073006034,0.41138574,1.0886021,1.0283042,0.0,2,0,0,0
46160000,47.397750676901126,8.545607777344655,487.95093,-0.041534424,-0.0,-0.0069425665,0.031749863,0.07439714,0.4113131,1.088447,1.0285307,0.0,2,0,0,0
46360000,47.39775069552556,8.545607770337524,487.952,-0.039642334,-0.0,-0.0040680515,0.026815735,0.07379076,0.41142747,1.0883094,1.0283507,0.0,2,0,0,0
46560000,47.397750723791376,8.545607769328651,487.9535,-0.037384033,-0.0,0.0004686797,0.022076467,0.07065497,0.4116844,1.0881878,1.0285753,0.0,2,0,0,0
46760000,47.3977507463792,8.545607759871075,487.95395,-0.036193848,-0.0,-0.0011687791,0.019742507,0.06373116,0.41201967,1.0880806,1.0283988,0.0,2,0,0,0
46960000,47.39775075673334,8.545607748098025,487.9548,-0.03463745,-0.0,-0.00069613627,0.019322876,0.060226854,0.4121678,1.0879868,1.0282222,0.0,2,0,0,0
47160000,47.397750768433276,8.545607739441328,487.95767,-0.03112793,-0.0,0.0028497332,0.020988049,0.06059039,0.41216838,1.0879048,1.0284464,0.0,2,0,0,0
47360000,47.39775077599937,8.545607735733233,487.96185,-0.026397705,-0.0,0.00036887292,0.021116242,0.057451468,0.41204923,1.0878332,1.028271,0.0,2,0,0,0
47560000,47.39775077533309,8.54560772487252,487.96756,-0.020263672,-0.0,-0.0018498225,0.022074042,0.056565944,0.41224816,1.0877706,1.0285001,0.0,2,0,0,0
47760000,47.39775076876978,8.54560771583069,487.97025,-0.017211914,-0.0,-0.003919225,0.019692242,0.05851723,0.41268831,1.0877161,1.0283234,0.0,2,0,0,0
47960000,47.39775076174274,8.545607712021699,487.97107,-0.016052246,-0.0,-0.002980588,0.019642131,0.05930247,0.41284403,1.0876684,1.0285507,0.0,2,0,0,0
48160000,47.39775075474621,8.545607714243582,487.97263,-0.014190674,-0.0,-0.0033175594,0.019036267,0.056833915,0.41297534,1.087627,1.0283772,0.0,2,0,0,0
48360000,47.39775074458562,8.545607705228282,487.9786,-0.0082092285,-0.0,-0.0085921455,0.01604599,0.05666548,0.413012,1.0875913,1.0282035,0.0,2,0,0,0
48560000,47.39775072362184,8.545607702319256,487.9827,-0.00390625,-0.0,-0.012046141,0.01427876,0.057491757,0.41335002,1.0870233,1.0284202,0.0,2,0,0,0
48760000,47.39775069133555,8.545607689737606,487.9855,-0.0010375977,-0.0,-0.014595195,0.017028155,0.05731179,0.41361064,1.0865103,1.0282373,0.0,2,0,0,0
48960000,47.39775067024699,8.545607678332265,487.98618,-0.00036621094,-0.0,-0.01380907,0.017845728,0.059657577,0.41387966,1.0860469,1.0284579,0.0,2,0,0,0
49160000,47.397750665210445,8.545607666759244,487.98544,-0.0010986328,-0.0,-0.014139348,0.015694931,0.062263727,0.41404796,1.0856289,1.0282739,0.0,2,0,0,0
49360000,47.397750661347295,8.545607661361862,487.98502,-0.0014953613,-0.0,-0.01577599,0.019550726,0.063971855,0.4140349,1.0852517,1.028492,0.0,2,0,0,0
49560000,47.39775065359493,8.545607659512589,487.98666,0.00015258789,-0.0,-0.02125772,0.021057576,0.063314125,0.414122,1.0849117,1.0283113,0.0,2,0,0,0
49760000,47.397750643271806,8.545607668078713,487.98474,-0.0017700195,-0.0,-0.020996792,0.027617877,0.06486025,0.41401038,1.0846057,1.0281303,0.0,2,0,0,0
49960000,47.39775063405086,8.545607689406271,487.98093,-0.0055236816,-0.0,-0.02078981,0.029991252,0.06506908,0.41403958,1.0843308,1.0283477,0.0,2,0,0,0
50160000,47.39775062832272,8.545607702213438,487.97815,-0.008148193,-0.0,-0.022057848,0.032951605,0.064707994,0.41401723,1.0840844,1.028168,0.0,2,0,0,0
50360000,47.397750620030585,8.545607713153291,487.9802,-0.0059509277,-0.0,-0.024755755,0.03721916,0.06415816,0.41394415,1.0838639,1.0283899,0.0,2,0,0,0
50560000,47.397750606185554,8.545607731739484,487.98233,-0.0037231445,-0.0,-0.028500322,0.03521127,0.061704434,0.41393644,1.0836669,1.0282094,0.0,2,0,0,0
50760000,47.397750585707584,8.545607760741168,487.9829,-0.0030822754,-0.0,-0.029705271,0.038008843,0.06531572,0.41410214,1.0834912,1.0284296,0.0,2,0,0,0
50960000,47.3977505663941,8.545607801557829,487.9841,-0.0018310547,-0.0,-0.027804513,0.03904191,0.06342776,0.41432473,1.083335,1.0282527,0.0,2,0,0,0
51160000,47.39775055642086,8.545607826495486,487.98477,-0.0011291504,-0.0,-0.0274075,0.037657503,0.06294361,0.41431475,1.0831964,1.0280757,0.0,2,0,0,0
51360000,47.39775054569114,8.545607833716824,487.98416,-0.0017089844,-0.0,-0.02545214,0.037497435,0.063476115,0.41463476,1.0830739,1.0282958,0.0,2,0,0,0
51560000,47.397750536921194,8.545607834335838,487.98212,-0.003692627,-0.0,-0.026586477,0.037554387,0.06242035,0.41450432,1.0829656,1.02812,0.0,2,0,0,0
51760000,47.397750537831044,8.545607838683638,487.97964,-0.006072998,-0.0,-0.02761428,0.038169183,0.06441646,0.41455916,1.0828705,1.0283449,0.0,2,0,0,0
51960000,47.39775053904487,8.545607841842854,487.97748,-0.008087158,-0.0,-0.025420623,0.03784206,0.0639905,0.414776,1.082787,1.0281684,0.0,2,0,0,0
52160000,47.39775054491289,8.545607844447693,487.97583,-0.009552002,-0.0,-0.021370465,0.03746976,0.06206777,0.41501686,1.082714,1.0283915,0.0,2,0,0,0
52360000,47.39775055637109,8.54560785829125,487.97662,-0.008575439,-0.0,-0.019744977,0.035876065,0.06251838,0.41531944,1.0826503,1.0282184,0.0,2,0,0,0
52560000,47.3977505653638,8.545607869143625,487.97543,-0.0095825195,-0.0,-0.019130867,0.035745177,0.0666234,0.41559118,1.0825952,1.0280452,0.0,2,0,0,0
52760000,47.39775056956889,8.545607885479722,487.97482,-0.010009766,-0.0,-0.016280456,0.037837926,0.06552873,0.41597486,1.0825472,1.0282679,0.0,2,0,0,0
52960000,47.3977505794556,8.545607899857215,487.97403,-0.0105896,-0.0,-0.014405556,0.038881455,0.06594445,0.41640884,1.0825058,1.0280956,0.0,2,0,0,0
53160000,47.39775059146732,8.545607914113846,487.97388,-0.010528564,-0.0,-0.012077553,0.038284183,0.06588535,0.4165047,1.08247,1.0283229,0.0,2,0,0,0
53360000,47.397750595119795,8.545607925427745,487.97357,-0.010620117,-0.0,-0.011827695,0.036701106,0.06411832,0.41683838,1.0824393,1.0281495,0.0,2,0,0,0
53560000,47.39775058631006,8.545607954772349,487.97043,-0.013366699,-0.0,-0.011829883,0.03740597,0.06687451,0.41686216,1.0924344,1.0286994,0.0,2,0,0,0
53760000,47.397750592302195,8.54560797831637,487.96948,-0.014038086,-0.0,-0.010016043,0.040219218,0.06802548,0.41671774,1.0918698,1.0285156,0.0,2,0,0,0
53960000,47.397750612330256,8.545607986304907,487.96988,-0.013366699,-0.0,-0.0065005687,0.041079067,0.06686716,0.41712376,1.0913606,1.0283316,0.0,2,0,0,0
54160000,47.397750638147684,8.545607986240862,487.97092,-0.012084961,-0.0,-0.0066285445,0.040045746,0.06760738,0.4172721,1.0909015,1.0285513,0.0,2,0,0,0
54360000,47.397750649738285,8.545607988770522,487.9712,-0.011566162,-0.0,-0.0057233013,0.043803066,0.0666906,0.41744897,1.090488,1.0283682,0.0,2,0,0,0
54560000,47.39775066498955,8.545607995536669,487.972,-0.010559082,-0.0,-0.0020560937,0.042966016,0.0658766,0.41749638,1.0901157,1.0285922,0.0,2,0,0,0
54760000,47.39775068568721,8.545607997526355,487.9713,-0.011016846,-0.0,-0.0021082985,0.046854213,0.06495286,0.41785917,1.0897813,1.0284079,0.0,2,0,0,0
54960000,47.39775070159649,8.545608008972351,487.9737,-0.008453369,-0.0,-0.0024769495,0.047563586,0.063496485,0.41779822,1.0894812,1.0286299,0.0,2,0,0,0
55160000,47.397750700072116,8.545608017788318,487.9752,-0.00680542,-0.0,-0.002184566,0.048634898,0.06326145,0.41839638,1.0892124,1.0284489,0.0,2,0,0,0
55360000,47.39775069787208,8.545608017346739,487.97717,-0.0047302246,-0.0,-0.0015085685,0.044903018,0.0607354,0.41863295,1.088972,1.028268,0.0,2,0,0,0
55560000,47.39775070274169,8.545608030938624,487.9788,-0.0030517578,-0.0,0.001930751,0.044951387,0.06218111,0.41896424,1.0887575,1.0284894,0.0,2,0,0,0
55760000,47.39775070777842,8.545608038074437,487.97882,-0.002960205,-0.0,0.00025726893,0.04464366,0.06354711,0.4186838,1.0885664,1.0283096,0.0,2,0,0,0
55960000,47.39775071070226,8.545608037742335,487.981,-0.00076293945,-0.0,-0.00091608585,0.043423496,0.059777673,0.4185745,1.0883965,1.0285356,0.0,2,0,0,0
56160000,47.397750709642686,8.545608036076585,487.98148,-0.0002746582,-0.0,-0.0021354926,0.040750425,0.0604311,0.41849598,1.0882463,1.028355,0.0,2,0,0,0
56360000,47.39775070507601,8.545608030159991,487.97888,-0.0028076172,-0.0,-0.0020649068,0.040776215,0.060983744,0.41883898,1.0881134,1.0285792,0.0,2,0,0,0
56560000,47.39775070619423,8.545608027734666,487.97794,-0.003692627,-0.0,-0.0019170291,0.041630477,0.06024236,0.4190891,1.0879964,1.0284022,0.0,2,0,0,0
56760000,47.39775071039925,8.545608023351924,487.97937,-0.0021972656,-0.0,-0.0020487062,0.041989468,0.05951598,0.41942,1.0878936,1.028225,0.0,2,0,0,0
56960000,47.397750715929824,8.545608014526207,487.98294,0.0013427734,-0.0,-0.0020137457,0.039847054,0.058016814,0.41957682,1.0878036,1.0284488,0.0,2,0,0,0
57160000,47.397750714318924,8.545607998106417,487.98517,0.0035095215,-0.0,0.0006705035,0.03876049,0.05437407,0.41964087,1.087725,1.0282727,0.0,2,0,0,0
57360000,47.39775072983064,8.54560798325656,487.98657,0.0048217773,-0.0,0.0034652676,0.038874082,0.054435223,0.41974846,1.087657,1.0285014,0.0,2,0,0,0
57560000,47.39775074790455,8.545607977370304,487.9888,0.0068969727,-0.0,0.005609405,0.03902759,0.05481564,0.42002955,1.0875978,1.0283245,0.0,2,0,0,0
57760000,47.397750759060706,8.545607971712515,487.98917,0.0071105957,-0.0,0.006772184,0.03898821,0.052977215,0.41995305,1.0875467,1.0285512,0.0,2,0,0,0
57960000,47.397750771954854,8.545607981058309,487.99084,0.008605957,-0.0,0.008188231,0.039858516,0.05145941,0.42002308,1.0875028,1.0283774,0.0,2,0,0,0
58160000,47.39775077383603,8.54560797600117,487.99124,0.00881958,-0.0,0.009625046,0.039509658,0.04972381,0.42020506,1.0874654,1.0282034,0.0,2,0,0,0
58360000,47.39775079280961,8.545607972404087,487.9923,0.00970459,-0.0,0.012165408,0.040246304,0.04733871,0.4206001,1.0874335,1.0284295,0.0,2,0,0,0
58560000,47.39775080976979,8.54560797226105,487.99463,0.011779785,-0.0,0.0101748835,0.03969413,0.044035215,0.42088816,1.0874066,1.0282562,0.0,2,0,0,0
58760000,47.39775081809348,8.545607981684402,487.99484,0.011993408,-0.0,0.008916436,0.0413813,0.038892478,0.4207621,1.0873841,1.0284868,0.0,2,0,0,0
58960000,47.39775082472601,8.545608018352842,487.99472,0.011505127,-0.0,0.00841677,0.04212623,0.039294597,0.42104173,1.0868324,1.0283024,0.0,2,0,0,0
59160000,47.39775082677814,8.545608024580353,487.99588,0.012420654,-0.0,0.010017667,0.04024436,0.039106578,0.4209425,1.086334,1.0285207,0.0,2,0,0,0
59360000,47.39775082721217,8.545608028090674,487.99747,0.01373291,-0.0,0.012107233,0.03996676,0.036298808,0.42095244,1.0858836,1.028339,0.0,2,0,0,0
59560000,47.39775083607381,8.545608029812847,487.9993,0.015289307,-0.0,0.014344576,0.039484687,0.03543006,0.4208762,1.0854771,1.028157,0.0,2,0,0,0
59760000,47.39775084755546,8.54560802366616,488.0018,0.017456055,-0.0,0.017751873,0.03568053,0.032672927,0.42088643,1.0851101,1.028374,0.0,2,0,0,0
59960000,47.39775086667191,8.54560799976826,488.0049,0.020202637,-0.0,0.020225784,0.031904694,0.028607706,0.42106366,1.0847794,1.0281929,0.0,2,0,0,0
60160000,47.397750887563895,8.5456079611084,488.00653,0.021392822,-0.0,0.023403186,0.02777591,0.026584938,0.42102614,1.0844821,1.0284141,0.0,2,0,0,0
60360000,47.39775091034787,8.54560791664712,488.00995,0.024353027,-0.0,0.027365427,0.021960802,0.02909811,0.42098787,1.0842149,1.0282321,0.0,2,0,0,0
60560000,47.39775093531592,8.545607875809205,488.01132,0.02520752,-0.0,0.029861957,0.01996728,0.029825771,0.4208248,1.0839752,1.0284512,0.0,2,0,0,0
60760000,47.39775096350218,8.54560785446457,488.01285,0.0262146,-0.0,0.03370242,0.019948905,0.03033945,0.42113838,1.0837605,1.0282726,0.0,2,0,0,0
60960000,47.39775098800054,8.545607838209444,488.0135,0.02633667,-0.0,0.03404851,0.016368415,0.03319528,0.42136335,1.0835687,1.0280939,0.0,2,0,0,0
61160000,47.39775101074129,8.545607808459764,488.01468,0.027008057,-0.0,0.036365442,0.009388932,0.035085402,0.42146805,1.0833975,1.0283127,0.0,2,0,0,0
61360000,47.39775103005818,8.545607767527464,488.0164,0.028167725,-0.0,0.036559958,0.0035518706,0.03437247,0.4214448,1.0832453,1.0281353,0.0,2,0,0,0
61560000,47.39775104121563,8.54560773299699,488.0169,0.02810669,-0.0,0.039601155,-0.00016511619,0.037001796,0.42148983,1.0831102,1.0283587,0.0,2,0,0,0
61760000,47.39775104673604,8.545607704971163,488.0174,0.028045654,-0.0,0.038910277,-0.005512377,0.03765506,0.42147583,1.0829905,1.0281807,0.0,2,0,0,0
61960000,47.39775106180436,8.54560767215878,488.01624,0.02633667,-0.0,0.04150246,-0.011104636,0.038248032,0.42147428,1.0828849,1.0284023,0.0,2,0,0,0
62160000,47.39775108968217,8.545607629320019,488.0163,0.025878906,-0.0,0.046506584,-0.015416687,0.03729709,0.42152408,1.0827922,1.0282277,0.0,2,0,0,0
62360000,47.397751115927775,8.545607589871764,488.01962,0.028686523,-0.0,0.044993795,-0.018894415,0.03328156,0.4218191,1.0827109,1.028053,0.0,2,0,0,0
62560000,47.39775113593496,8.545607546408222,488.0216,0.030059814,-0.0,0.04957829,-0.023785932,0.03740502,0.42175138,1.08264,1.0282745,0.0,2,0,0,0
62760000,47.39775115797841,8.545607482076754,488.0216,0.029449463,-0.0,0.050546765,-0.025824748,0.03911912,0.4216201,1.0825785,1.028101,0.0,2,0,0,0
62960000,47.39775117538967,8.54560741990652,488.02182,0.029052734,-0.0,0.0501907,-0.031372577,0.039619084,0.42177662,1.0825248,1.0283271,0.0,2,0,0,0
63160000,47.39775118483361,8.545607369186731,488.01953,0.026184082,-0.0,0.048929688,-0.031954747,0.040988598,0.42171663,1.0824784,1.0281526,0.0,2,0,0,0
63360000,47.39775118490152,8.545607321258192,488.0162,0.022369385,-0.0,0.047070116,-0.032149296,0.04197626,0.4216846,1.0824385,1.0283769,0.0,2,0,0,0
63560000,47.39775117690595,8.545607269374253,488.0136,0.019348145,-0.0,0.04542406,-0.03615455,0.041960925,0.42156062,1.0824043,1.0282056,0.0,2,0,0,0
63760000,47.39775117161886,8.545607225298365,488.01413,0.019470215,-0.0,0.04291098,-0.03659683,0.04364157,0.42153865,1.082375,1.0280339,0.0,2,0,0,0
63960000,47.39775118394935,8.545607173443274,488.01407,0.018829346,-0.0,0.043153293,-0.037551403,0.042743087,0.42165837,1.0923473,1.0285794,0.0,2,0,0,0
64160000,47.39775119724988,8.545607117640301,488.01398,0.018341064,-0.0,0.042331845,-0.04201229,0.04136202,0.42181903,1.0917869,1.0283952,0.0,2,0,0,0
64360000,47.39775120687705,8.545607071812805,488.01434,0.018310547,-0.0,0.044545334,-0.042772427,0.04121342,0.4218255,1.091237,1.0286095,0.0,2,0,0,0
64559999,47.397751195977925,8.545607053394123,488.0128,0.016571045,-0.0,0.04274159,-0.04280106,0.041725002,0.42160365,1.0810037,1.0280924,0.0,2,0,0,0
64759999,47.397751186845056,8.545607027151075,488.01172,0.01550293,-0.0,0.036901735,-0.04300816,0.040484473,0.4213778,1.0907277,1.0286269,0.0,2,0,0,0
64967999,47.39775118054628,8.545606985248085,488.012,0.015319824,-0.0,0.0349309,-0.04545443,0.040169798,0.42132714,1.0906142,1.0285834,0.0,2,0,0,0
65168000,47.39775116552494,8.545606961661473,488.01294,0.015777588,-0.0,0.03502924,-0.0465094,0.037735987,0.42132512,1.0804994,1.0280751,0.0,2,0,0,0
65368000,47.39775114850271,8.545606952123844,488.01047,0.013031006,-0.0,0.033628773,-0.04575649,0.035759233,0.4213389,1.0805258,1.0282978,0.0,2,0,0,0
65568000,47.397751142642434,8.545606933341187,488.01038,0.012664795,-0.0,0.034995742,-0.048617356,0.030944195,0.4212922,1.0805198,1.0281245,0.0,2,0,0,0
65768000,47.39775113727302,8.545606907260677,488.01266,0.0146484375,-0.0,0.029806145,-0.05011451,0.03261172,0.42151147,1.0804833,1.0279485,0.0,2,0,0,0
65967999,47.397751141131785,8.545606887353033,488.01562,0.01727295,-0.0,0.03013067,-0.050540477,0.029989306,0.42129844,1.0804533,1.0281724,0.0,2,0,0,0
66168000,47.39775114902121,8.545606868670749,488.0204,0.021606445,-0.0,0.032883916,-0.04851032,0.026010172,0.42107493,1.0803937,1.0280051,0.0,2,0,0,0
66375999,47.397751153962034,8.54560685387177,488.02402,0.024749756,-0.0,0.031215401,-0.04840154,0.023047099,0.42127505,1.0807027,1.0279869,0.0,2,0,0,0
66576000,47.397751155266114,8.54560682955971,488.02765,0.027832031,-0.0,0.03197528,-0.044924468,0.015567299,0.42122445,1.0806221,1.0282173,0.0,2,0,0,0
66776000,47.39775116217028,8.545606828031202,488.03162,0.031158447,-0.0,0.03202561,-0.04077551,0.014041239,0.42136168,1.0805147,1.0280467,0.0,2,0,0,0
66976000,47.39775116557747,8.545606839866963,488.03632,0.03515625,-0.0,0.030852234,-0.03709506,0.013148624,0.4214172,1.0804186,1.0278815,0.0,2,0,0,0
67176000,47.39775116669075,8.545606866853598,488.042,0.040039062,-0.0,0.028935902,-0.03383375,0.008545289,0.42132074,1.0803323,1.028113,0.0,2,0,0,0
67376000,47.39775116270558,8.545606907242908,488.04733,0.04449463,-0.0,0.029202897,-0.029179009,0.002973592,0.42116302,1.0802547,1.0279508,0.0,2,0,0,0
67576000,47.397751160051826,8.545606938802736,488.05127,0.048431396,-0.0,0.030739425,-0.029016364,3.6850106e-06,0.4213702,1.0899082,1.0285072,0.0,2,0,0,0
67776000,47.39775117075244,8.545606957949268,488.05713,0.05279541,-0.0,0.03177857,-0.025044497,-0.002622415,0.42136264,1.0892732,1.028328,0.0,2,0,0,0
67976000,47.397751169827814,8.545606997557398,488.0599,0.054504395,-0.0,0.035548504,-0.0217627,-0.0018014418,0.421427,1.0887012,1.0285534,0.0,2,0,0,0
68176000,47.39775116955641,8.545607025933514,488.06152,0.055023193,-0.0,0.038160227,-0.018318795,-0.0027417124,0.42183602,1.0881859,1.028375,0.0,2,0,0,0
68376000,47.39775116657279,8.545607043279498,488.06274,0.055145264,-0.0,0.03955983,-0.017520156,-0.0058060214,0.4217731,1.087722,1.0281959,0.0,2,0,0,0
68576000,47.39775116672063,8.545607053262199,488.06644,0.05770874,-0.0,0.039526306,-0.017042842,-0.01193318,0.42184436,1.0873047,1.0284159,0.0,2,0,0,0
68776000,47.397751171635,8.54560707108973,488.0738,0.06387329,-0.0,0.039023064,-0.017109552,-0.015531763,0.4221437,1.0869302,1.0282385,0.0,2,0,0,0
68984000,47.397751175917236,8.545607086232515,488.08105,0.06982422,-0.0,0.03838487,-0.016743554,-0.021012757,0.4221288,1.0869874,1.0282103,0.0,2,0,0,0
69176000,47.3977511720393,8.545607100764924,488.08777,0.07510376,-0.0,0.038348347,-0.015628519,-0.026424583,0.4223724,1.0862936,1.0282807,0.0,2,0,0,0
69384000,47.39775116797989,8.545607123289308,488.09454,0.08035278,-0.0,0.038370382,-0.012758269,-0.030387722,0.42247978,1.0864148,1.0282508,0.0,2,0,0,0
69576000,47.39775116103596,8.54560713480336,488.1007,0.0848999,-0.0,0.034422625,-0.011514353,-0.035068087,0.42250025,1.0857852,1.0283248,0.0,2,0,0,0
69776000,47.397751147745716,8.545607146712914,488.10785,0.09030151,-0.0,0.027690543,-0.008868001,-0.038867004,0.422763,1.085572,1.0281458,0.0,2,0,0,0
69976000,47.39775113249839,8.545607166841865,488.11148,0.09210205,-0.0,0.027768228,-0.007154043,-0.040652853,0.42246044,1.084998,1.028215,0.0,2,0,0,0
70176000,47.39775111900359,8.545607189503347,488.11526,0.09402466,-0.0,0.026920943,-0.0046594804,-0.045287456,0.422566,1.0848696,1.0280552,0.0,2,0,0,0
70376000,47.39775110064645,8.545607204039491,488.1196,0.096466064,-0.0,0.024154983,-0.0007106359,-0.046035223,0.422769,1.0847576,1.0282943,0.0,2,0,0,0
70576000,47.39775108310114,8.545607230114447,488.12216,0.097076416,-0.0,0.024516908,0.0021117027,-0.04955298,0.42304853,1.0846603,1.028132,0.0,2,0,0,0
70776000,47.39775108316791,8.545607262644682,488.125,0.097961426,-0.0,0.025457326,0.0023102562,-0.050723664,0.42311263,1.084576,1.0283686,0.0,2,0,0,0
70976000,47.397751086962245,8.545607280697482,488.12827,0.099243164,-0.0,0.0246066,0.0038232005,-0.050483793,0.4229347,1.0845034,1.0282063,0.0,2,0,0,0
71176000,47.39775108434445,8.545607292635804,488.13306,0.10202026,-0.0,0.021209465,0.005093541,-0.05213612,0.42287016,1.084441,1.0280423,0.0,2,0,0,0
71376000,47.39775107236486,8.545607315284174,488.13525,0.10217285,-0.0,0.019870657,0.0061742975,-0.05319403,0.4227854,1.0843875,1.0282729,0.0,2,0,0,0
71576000,47.39775105190565,8.54560734328851,488.1348,0.09967041,-0.0,0.016423885,0.009845227,-0.046245895,0.42320904,1.0843422,1.0281096,0.0,2,0,0,0
71776000,47.39775103965671,8.545607365280997,488.13287,0.09576416,-0.0,0.013848476,0.010422741,-0.042506456,0.42332217,1.0843036,1.0283431,0.0,2,0,0,0
71976000,47.39775102768973,8.545607387087074,488.12848,0.08947754,-0.0,0.009489549,0.012352497,-0.037241593,0.42338267,1.084271,1.0281744,0.0,2,0,0,0
72176000,47.397751010602406,8.545607419379234,488.1211,0.080322266,-0.0,0.008638542,0.0121561745,-0.034760464,0.42355633,1.0842434,1.0284065,0.0,2,0,0,0
72376000,47.39775099370263,8.54560744284943,488.11862,0.07626343,-0.0,0.008193277,0.014676597,-0.034127682,0.423665,1.0842204,1.0282393,0.0,2,0,0,0
72576000,47.39775097291578,8.545607459154475,488.11746,0.07357788,-0.0,0.0073950095,0.017886829,-0.034131482,0.42349118,1.0842015,1.0280708,0.0,2,0,0,0
72776000,47.39775095130999,8.545607479728197,488.1178,0.07244873,-0.0,0.0075779776,0.018340183,-0.03361963,0.42359623,1.084186,1.0282981,0.0,2,0,0,0
72976000,47.397750938992516,8.545607501591428,488.11743,0.06991577,-0.0,0.0059127626,0.016438866,-0.034508467,0.42352173,1.0837114,1.0281227,0.0,2,0,0,0
73176000,47.397750924582766,8.545607530209072,488.11694,0.0680542,-0.0,0.0029652708,0.016003978,-0.03388098,0.4235301,1.0832814,1.0283444,0.0,2,0,0,0
73376000,47.39775091109101,8.545607535050483,488.1153,0.06506348,-0.0,0.001838587,0.013055518,-0.030111767,0.4235726,1.0828917,1.0281641,0.0,2,0,0,0
73576000,47.39775088855009,8.545607530316202,488.11334,0.061828613,-0.0,0.0039517954,0.0151357865,-0.03008592,0.42317796,1.0825387,1.0283847,0.0,2,0,0,0
73776000,47.39775087454698,8.54560753840021,488.11127,0.058532715,-0.0,0.001446584,0.01344776,-0.026529683,0.42322707,1.0822195,1.0282067,0.0,2,0,0,0
73976000,47.39775085767076,8.545607523673144,488.1116,0.05770874,-0.0,0.00030261686,0.013093174,-0.030067049,0.4231966,1.0819309,1.0280284,0.0,2,0,0,0
74176000,47.39775084535448,8.545607510150104,488.11426,0.059173584,-0.0,0.0009408903,0.009808965,-0.032351304,0.42296892,1.0816706,1.028245,0.0,2,0,0,0
74376000,47.397750826249066,8.54560749815817,488.11435,0.05807495,-0.0,-0.0031416733,0.0058595613,-0.03141349,0.4229022,1.0814363,1.0280693,0.0,2,0,0,0
74576000,47.39775081117181,8.545607479660669,488.1147,0.057250977,-0.0,-0.0037203874,-0.00019646175,-0.03125525,0.42296967,1.0812258,1.02829,0.0,2,0,0,0
74776000,47.397750802737654,8.545607452884262,488.1137,0.055145264,-0.0,-0.0017673506,-0.0020753816,-0.02796524,0.4229673,1.0810369,1.0281109,0.0,2,0,0,0
74976000,47.39775079250803,8.54560742138651,488.1131,0.05343628,-0.0,-0.0034667572,-0.0055328542,-0.027339078,0.42309,1.0808678,1.0283314,0.0,2,0,0,0
75176000,47.39775077824853,8.54560739454938,488.11435,0.053588867,-0.0,-0.0053771073,-0.0073878784,-0.023770014,0.42287368,1.0807165,1.0281554,0.0,2,0,0,0
75376000,47.3977507669562,8.545607396399378,488.1147,0.052856445,-0.0,-0.0068400134,-0.004642484,-0.022185681,0.42276964,1.0805817,1.0279794,0.0,2,0,0,0
75576000,47.39775076508674,8.545607400130452,488.1123,0.049438477,-0.0,-0.005928104,-0.0044718063,-0.01848663,0.42286217,1.0804616,1.0281973,0.0,2,0,0,0
75776000,47.39775075895458,8.545607398155191,488.10846,0.044647217,-0.0,-0.006831442,-0.0044108382,-0.017611155,0.4229857,1.0803553,1.0280244,0.0,2,0,0,0
75976000,47.39775075163235,8.545607390177715,488.1026,0.037963867,-0.0,-0.008289671,-0.0052174837,-0.013292698,0.42313838,1.0802611,1.0282469,0.0,2,0,0,0
76176000,47.397750745837,8.545607390353746,488.09918,0.033843994,-0.0,-0.009568337,9.846135e-05,-0.011815264,0.42326456,1.0801783,1.0280709,0.0,2,0,0,0
76376000,47.3977507289533,8.545607393689005,488.0991,0.033081055,-0.0,-0.011118909,0.00068392884,-0.008897239,0.423253,1.0801054,1.0282937,0.0,2,0,0,0
76576000,47.39775071709391,8.54560740648785,488.0994,0.032714844,-0.0,-0.0119154,0.0045285937,-0.0063496735,0.42355347,1.0800416,1.0281211,0.0,2,0,0,0
76776000,47.39775071446055,8.545607433481853,488.0968,0.02947998,-0.0,-0.013346743,0.006864814,-0.0025443775,0.4235252,1.079986,1.0279484,0.0,2,0,0,0
76976000,47.397750706825406,8.545607451244235,488.09293,0.025054932,-0.0,-0.015428377,0.0097689405,-0.00066790904,0.4236146,1.0799373,1.0281686,0.0,2,0,0,0
77176000,47.39775070457679,8.545607486367784,488.09018,0.021850586,-0.0,-0.017112307,0.012927137,-0.000538651,0.42360872,1.079895,1.0279989,0.0,2,0,0,0
77376000,47.397750697772366,8.545607498592474,488.08612,0.01739502,-0.0,-0.018885676,0.016198348,0.0019057583,0.42366818,1.0798588,1.0282239,0.0,2,0,0,0
77576000,47.397750689284706,8.545607514584407,488.0803,0.011291504,-0.0,-0.019583726,0.021548705,0.0034665833,0.4236738,1.0798277,1.0280508,0.0,2,0,0,0
77776000,47.39775069246121,8.545607541390824,488.0763,0.007293701,-0.0,-0.018448781,0.025205215,0.0062032687,0.42359588,1.0894184,1.0286021,0.0,2,0,0,0
77976000,47.397750685736504,8.545607577347958,488.0718,0.0026245117,-0.0,-0.021059375,0.027988002,0.009571142,0.42349118,1.0888397,1.0284182,0.0,2,0,0,0
78176000,47.397750668616794,8.545607606721676,488.06674,-0.0024719238,-0.0,-0.019185118,0.029217405,0.013079503,0.4233114,1.0883175,1.0282339,0.0,2,0,0,0
78376000,47.39775065058063,8.545607637007706,488.06055,-0.008605957,-0.0,-0.017855339,0.03393325,0.017470803,0.42358747,1.0878463,1.0284507,0.0,2,0,0,0
78576000,47.39775064141239,8.545607679287786,488.05402,-0.014923096,-0.0,-0.018695077,0.036083307,0.020268185,0.42357537,1.0874215,1.0282696,0.0,2,0,0,0
78776000,47.39775063570989,8.545607720648452,488.04938,-0.019226074,-0.0,-0.01823654,0.040621083,0.02491716,0.42364183,1.0870388,1.0284908,0.0,2,0,0,0
78984000,47.39775063733855,8.545607760427654,488.04614,-0.022064209,-0.0,-0.017720288,0.043104548,0.024689509,0.42365932,1.0870883,1.0284574,0.0,2,0,0,0
79176000,47.397750643435785,8.54560778687605,488.0445,-0.023254395,-0.0,-0.015057426,0.045017026,0.022919804,0.42389593,1.0863851,1.0285275,0.0,2,0,0,0
79376000,47.397750654046106,8.545607807870912,488.04294,-0.024353027,-0.0,-0.011188484,0.047740467,0.018967966,0.42397246,1.086108,1.0283465,0.0,2,0,0,0
79576000,47.39775066264478,8.54560782774762,488.04218,-0.024627686,-0.0,-0.0090826275,0.04905709,0.015174391,0.424062,1.0858601,1.0281656,0.0,2,0,0,0
79776000,47.3977506689232,8.54560784905464,488.04047,-0.025848389,-0.0,-0.008579866,0.048185848,0.018225556,0.42414683,1.085639,1.028384,0.0,2,0,0,0
79976000,47.3977506749056,8.545607866095128,488.03714,-0.028656006,-0.0,-0.005429912,0.04808357,0.019826042,0.42414686,1.085442,1.0282065,0.0,2,0,0,0
80176000,47.39775068346953,8.545607882800494,488.03552,-0.029693604,-0.0,-0.001790461,0.044076167,0.021682145,0.42413092,1.0852667,1.0284296,0.0,2,0,0,0
80376000,47.397750698257866,8.545607889277056,488.0367,-0.027923584,-0.0,0.0022913623,0.041349623,0.021718007,0.42434156,1.0851114,1.0282493,0.0,2,0,0,0
80576000,47.397750718348604,8.545607893129922,488.03946,-0.024627686,-0.0,0.006411963,0.03744386,0.024649568,0.4240441,1.0849738,1.0284729,0.0,2,0,0,0
80776000,47.39775073977191,8.545607896796543,488.04022,-0.023376465,-0.0,0.008254858,0.035305124,0.02394108,0.42409113,1.0848525,1.028296,0.0,2,0,0,0
80976000,47.39775076074343,8.545607898974303,488.04013,-0.023010254,-0.0,0.010322278,0.030249925,0.0261838,0.4238463,1.0847458,1.0281191,0.0,2,0,0,0
81176000,47.39775078792301,8.545607880884802,488.03976,-0.022918701,-0.0,0.0137621835,0.022191502,0.026573984,0.42364797,1.0846522,1.0283403,0.0,2,0,0,0
81376000,47.39775081498204,8.54560785141231,488.039,-0.023223877,-0.0,0.016291196,0.018430226,0.026074553,0.42386115,1.0845705,1.0281669,0.0,2,0,0,0
81576000,47.39775083688181,8.545607830548109,488.03796,-0.023803711,-0.0,0.018647304,0.014102089,0.029168764,0.42378786,1.0844995,1.0283929,0.0,2,0,0,0
81776000,47.397750855872715,8.545607814410356,488.03476,-0.026519775,-0.0,0.02260632,0.014140875,0.03114072,0.42384765,1.0844377,1.0282164,0.0,2,0,0,0
81976000,47.397750877386315,8.545607801539864,488.032,-0.028717041,-0.0,0.025190555,0.014137063,0.031572446,0.42411804,1.0843844,1.0284426,0.0,2,0,0,0
82176000,47.397750898012895,8.545607786654989,488.03232,-0.027832031,-0.0,0.026801681,0.012486735,0.03131522,0.42404947,1.0843388,1.0282694,0.0,2,0,0,0
82376000,47.397750911998855,8.545607768290651,488.0336,-0.026000977,-0.0,0.025157845,0.011735901,0.029668989,0.4238587,1.0842997,1.0280958,0.0,2,0,0,0
82576000,47.39775091553851,8.545607737454912,488.03394,-0.025146484,-0.0,0.027794704,0.009197972,0.027596194,0.42397374,1.0842664,1.0283195,0.0,2,0,0,0
82776000,47.397750922012435,8.545607703312637,488.0339,-0.02468872,-0.0,0.02973927,0.0077466764,0.027628183,0.42396584,1.0842384,1.028149,0.0,2,0,0,0
82976000,47.39775093475653,8.545607677045982,488.0313,-0.026763916,-0.0,0.029600402,0.005395854,0.025930744,0.423769,1.0842149,1.0283772,0.0,2,0,0,0
83176000,47.39775096132993,8.545607670419752,488.0289,-0.028320312,-0.0,0.03380662,0.0067210896,0.026027784,0.42343995,1.0837337,1.0281943,0.0,2,0,0,0
83376000,47.39775098599157,8.545607669410929,488.02618,-0.030426025,-0.0,0.03685648,0.0074711335,0.023478104,0.42355344,1.0832978,1.0284133,0.0,2,0,0,0
83576000,47.39775100730273,8.545607652431642,488.0255,-0.03048706,-0.0,0.038892727,0.008602421,0.027069254,0.42371002,1.0829033,1.0282332,0.0,2,0,0,0
83776000,47.397751010844964,8.545607653018287,488.02795,-0.02746582,-0.0,0.034751184,0.010612253,0.025590695,0.4235088,1.0825462,1.0280528,0.0,2,0,0,0
83976000,47.397751027088574,8.545607658666649,488.0301,-0.024810791,-0.0,0.03582877,0.010479801,0.027078617,0.42367363,1.0822234,1.0282683,0.0,2,0,0,0
84176000,47.397751026168315,8.545607654158292,488.03308,-0.021362305,-0.0,0.03372776,0.008357257,0.027448665,0.42381945,1.0819317,1.028091,0.0,2,0,0,0
84376000,47.39775102625929,8.545607642872776,488.03693,-0.017150879,-0.0,0.031178132,0.008690581,0.02286843,0.4239107,1.0816689,1.0283107,0.0,2,0,0,0
84576000,47.397751019101925,8.545607628333341,488.04102,-0.012786865,-0.0,0.030572167,0.005665189,0.024880774,0.42383578,1.0814323,1.02813,0.0,2,0,0,0
84776000,47.397751008737366,8.545607601659304,488.0403,-0.013244629,-0.0,0.025701813,0.0041153496,0.026493128,0.42362562,1.0812198,1.0283498,0.0,2,0,0,0
84976000,47.39775100362016,8.545607584738777,488.03754,-0.015716553,-0.0,0.022748314,0.00744174,0.028207112,0.42359105,1.0810289,1.0281725,0.0,2,0,0,0
85176000,47.39775100534074,8.545607581722436,488.03482,-0.018096924,-0.0,0.021939868,0.008666773,0.027539594,0.4234938,1.0808581,1.0279951,0.0,2,0,0,0
85376000,47.397751009211014,8.545607588906964,488.03262,-0.019897461,-0.0,0.020159654,0.010809952,0.029312933,0.42339158,1.0807058,1.0282122,0.0,2,0,0,0
85576000,47.3977510124741,8.54560758954611,488.03168,-0.02041626,-0.0,0.0199391,0.007371755,0.03056628,0.42341104,1.0805701,1.0280381,0.0,2,0,0,0
85776000,47.39775099428907,8.545607571652827,488.03198,-0.019714355,-0.0,0.018673474,0.004916147,0.031592716,0.42343712,1.0804497,1.0282599,0.0,2,0,0,0
85976000,47.39775097843834,8.54560754477463,488.0315,-0.019805908,-0.0,0.018581918,-0.0020187658,0.033251535,0.4233354,1.0803431,1.0280827,0.0,2,0,0,0
86176000,47.3977509747498,8.545607499534997,488.02753,-0.02331543,-0.0,0.021988675,-0.0067997114,0.034874696,0.42329457,1.080249,1.0283048,0.0,2,0,0,0
86376000,47.397750977153706,8.54560745022379,488.0231,-0.02722168,-0.0,0.022156816,-0.00975638,0.03684241,0.42311558,1.0801659,1.0281311,0.0,2,0,0,0
86576000,47.39775097624109,8.545607411693931,488.01877,-0.030944824,-0.0,0.022790011,-0.01178451,0.037217826,0.42316535,1.080093,1.0279573,0.0,2,0,0,0
86776000,47.3977509906066,8.54560738122748,488.0176,-0.031463623,-0.0,0.024700563,-0.013401787,0.03966099,0.4231763,1.0800296,1.0281769,0.0,2,0,0,0
86976000,47.397750996403076,8.545607355243686,488.01532,-0.033111572,-0.0,0.023708042,-0.015816528,0.041707292,0.42326325,1.0799743,1.0280063,0.0,2,0,0,0
87176000,47.39775101079348,8.545607324163871,488.0112,-0.036499023,-0.0,0.023126958,-0.016951963,0.04541061,0.4232781,1.0799261,1.0282305,0.0,2,0,0,0
87376000,47.39775101623045,8.545607305264248,488.00696,-0.03994751,-0.0,0.022835167,-0.014359364,0.04580337,0.42330787,1.0798844,1.0280567,0.0,2,0,0,0
87576000,47.39775101160706,8.54560729754742,488.00266,-0.04336548,-0.0,0.02161026,-0.01443712,0.045572057,0.42323303,1.0798484,1.0282812,0.0,2,0,0,0
87776000,47.39775100132375,8.545607286193134,488.00165,-0.04348755,-0.0,0.019718012,-0.016083809,0.043427862,0.42312795,1.0798175,1.0281104,0.0,2,0,0,0
87976000,47.39775099137949,8.545607272946715,488.00223,-0.042907715,-0.0,0.01953281,-0.017650755,0.043031383,0.42315003,1.0894058,1.0282578,0.0,2,0,0,0
88176000,47.397750996854896,8.545607252274372,488.00284,-0.041015625,-0.0,0.021891445,-0.019651027,0.043355685,0.42311266,1.0888281,1.0284746,0.0,2,0,0,0
88376000,47.397751003471086,8.545607242944218,488.00333,-0.03970337,-0.0,0.02515589,-0.023041448,0.04408508,0.4232415,1.0883068,1.0282927,0.0,2,0,0,0
88576000,47.39775100851219,8.545607236591712,488.0042,-0.038024902,-0.0,0.0265302,-0.021128278,0.042495716,0.4230585,1.0878366,1.0285134,0.0,2,0,0,0
88776000,47.39775101702691,8.545607231539623,488.0056,-0.035858154,-0.0,0.02619869,-0.02065436,0.042297594,0.42304456,1.0874127,1.0283281,0.0,2,0,0,0
88976000,47.397751022629244,8.545607226437816,488.00677,-0.033996582,-0.0,0.028558856,-0.019464074,0.041333836,0.42305073,1.0870311,1.0285486,0.0,2,0,0,0
89176000,47.39775102972618,8.545607230419982,488.0063,-0.033813477,-0.0,0.031878076,-0.020109,0.039203305,0.42324847,1.0866877,1.0283664,0.0,2,0,0,0
89376000,47.397751039622456,8.545607235509106,488.00827,-0.031158447,-0.0,0.033110257,-0.019685183,0.037997503,0.42329162,1.0863795,1.0281843,0.0,2,0,0,0
89576000,47.39775104954619,8.545607231303935,488.0108,-0.028015137,-0.0,0.034019228,-0.021188391,0.037355334,0.4232251,1.0861031,1.028402,0.0,2,0,0,0
89776000,47.39775105806883,8.545607229523917,488.01218,-0.02609253,-0.0,0.03596138,-0.021552665,0.037619077,0.42350206,1.0858558,1.0282233,0.0,2,0,0,0
89976000,47.39775106532611,8.545607232441505,488.01175,-0.026000977,-0.0,0.035008922,-0.021353813,0.03682731,0.4234834,1.085635,1.0284456,0.0,2,0,0,0
90176000,47.39775107816747,8.54560722884338,488.01068,-0.026550293,-0.0,0.0373835,-0.02323177,0.04024099,0.4231757,1.085438,1.0282639,0.0,2,0,0,0
90376000,47.39775109232436,8.545607206381977,488.0137,-0.023010254,-0.0,0.03733569,-0.027706273,0.036506888,0.42321852,1.0852629,1.0284866,0.0,2,0,0,0
90576000,47.39775109446162,8.545607175869417,488.01614,-0.020111084,-0.0,0.035658866,-0.029288441,0.02990536,0.42321628,1.0851077,1.0283084,0.0,2,0,0,0
