timestamp,magnetometer_ga[0],magnetometer_ga[1],magnetometer_ga[2]
2040000,0.19835013,-0.08336942,0.43055546
2048000,0.19835015,-0.083369434,0.43055543
2060000,0.19835015,-0.083369434,0.43055543
2068000,0.19835016,-0.08336942,0.43055543
2080000,0.1972791,-0.078940265,0.43128556
2088000,0.1972791,-0.07894029,0.43128556
2100000,0.1972791,-0.07894028,0.43128556
2108000,0.19727911,-0.07894027,0.43128553
2120000,0.19727911,-0.07894027,0.43128553
2128000,0.19943649,-0.08378955,0.42947474
2140000,0.1994365,-0.08378954,0.42947474
2148000,0.1994365,-0.08378956,0.42947474
2160000,0.19943652,-0.08378956,0.42947474
2168000,0.19943652,-0.08378955,0.42947474
2180000,0.19943653,-0.08378955,0.42947474
2188000,0.19858652,-0.08331694,0.42654717
2200000,0.19858654,-0.08331694,0.42654717
2208000,0.19858654,-0.08331695,0.42654717
2220000,0.19858655,-0.08331695,0.42654717
2228000,0.19858655,-0.083316945,0.42654717
2240000,0.19829607,-0.08433858,0.42913634
2248000,0.19829607,-0.084338576,0.42913634
2260000,0.19829609,-0.084338576,0.42913634
2268000,0.19829609,-0.08433859,0.4291363
2280000,0.19829609,-0.08433859,0.4291363
2288000,0.20168905,-0.07954119,0.428808
2300000,0.20168905,-0.079541184,0.428808
2308000,0.20168906,-0.07954118,0.428808
2320000,0.20168906,-0.07954118,0.428808
2328000,0.20168908,-0.07954119,0.428808
2340000,0.2013253,-0.08396354,0.42843276
2348000,0.20132531,-0.083963536,0.42843276
2360000,0.20132531,-0.083963536,0.42843276
2368000,0.20132531,-0.08396355,0.42843276
2380000,0.20132533,-0.08396354,0.42843276
2388000,0.20132533,-0.083963536,0.42843276
2400000,0.20060962,-0.08138184,0.43062192
2408000,0.20060962,-0.08138183,0.43062192
2420000,0.20060964,-0.08138183,0.43062192
2428000,0.20060964,-0.08138184,0.43062192
2440000,0.20234105,-0.08218734,0.43365452
2448000,0.20234105,-0.08218733,0.43365452
2460000,0.20234106,-0.082187325,0.43365452
2468000,0.20234106,-0.08218732,0.43365452
2480000,0.20234108,-0.08218732,0.43365452
2488000,0.20234108,-0.08218733,0.4336545
2500000,0.20494132,-0.07995327,0.42416072
2508000,0.20494133,-0.07995326,0.42416072
2520000,0.20494133,-0.07995325,0.42416072
2528000,0.20494133,-0.079953246,0.42416072
2540000,0.20494135,-0.079953246,0.42416072
2548000,0.20037301,-0.07948015,0.43202195
2560000,0.20037301,-0.07948014,0.43202195
2568000,0.20037302,-0.079480134,0.43202195
2580000,0.20037302,-0.079480134,0.43202195
2588000,0.20037302,-0.07948013,0.43202195
2600000,0.20421328,-0.08133188,0.42615995
2608000,0.20421328,-0.081331894,0.42615995
2620000,0.20421329,-0.081331894,0.42615995
2628000,0.20421329,-0.08133189,0.42615995
2640000,0.2042133,-0.08133188,0.42615995
2648000,0.2042133,-0.08133187,0.42615995
2660000,0.1980258,-0.08075069,0.4296179
2668000,0.19802581,-0.080750704,0.4296179
2680000,0.19802581,-0.080750704,0.4296179
2688000,0.19802582,-0.0807507,0.4296179
2700000,0.1988006,-0.08211316,0.42607695
2708000,0.19880061,-0.08211318,0.42607692
2720000,0.19880061,-0.08211318,0.42607692
2728000,0.19880061,-0.08211316,0.42607692
2740000,0.19880062,-0.08211316,0.42607692
2748000,0.19880062,-0.082113154,0.42607692
2760000,0.20023571,-0.081756614,0.42596418
2768000,0.20023571,-0.08175664,0.42596415
2780000,0.20023572,-0.08175663,0.42596415
2788000,0.20023572,-0.08175662,0.42596415
2800000,0.20023572,-0.08175662,0.42596415
2808000,0.20085658,-0.08129644,0.42991364
2820000,0.2008566,-0.08129643,0.42991364
2828000,0.2008566,-0.08129645,0.42991364
2840000,0.20085661,-0.081296444,0.42991364
2848000,0.20085661,-0.08129644,0.42991364
2860000,0.20164736,-0.08160702,0.4296162
2868000,0.20164736,-0.08160701,0.4296162
2880000,0.20164737,-0.08160701,0.4296162
2888000,0.20164737,-0.08160702,0.42961618
2900000,0.20164739,-0.08160702,0.42961618
2908000,0.19960046,-0.07978204,0.43097878
2920000,0.19960046,-0.07978203,0.43097878
2928000,0.19960047,-0.079782024,0.43097878
2940000,0.19960047,-0.079782024,0.43097878
2948000,0.19960049,-0.07978204,0.43097878
2960000,0.19829558,-0.08203031,0.43177015
2968000,0.1982956,-0.082030304,0.43177015
2980000,0.1982956,-0.082030304,0.43177015
2988000,0.1982956,-0.08203032,0.43177015
3000000,0.19829561,-0.08203032,0.43177012
3008000,0.19829561,-0.082030304,0.43177012
3020000,0.19398904,-0.07995244,0.4269615
3028000,0.19398904,-0.07995243,0.4269615
3040000,0.19398905,-0.07995243,0.4269615
3048000,0.19398905,-0.07995245,0.4269615
3060000,0.19398907,-0.07995245,0.4269615
3068000,0.20254321,-0.08182293,0.4312919
3080000,0.20254323,-0.08182293,0.4312919
3088000,0.20254323,-0.08182292,0.4312919
3100000,0.20254324,-0.08182292,0.4312919
3108000,0.20254324,-0.08182293,0.4312919
3120000,0.20081978,-0.07938747,0.42855713
3128000,0.20081978,-0.07938746,0.42855713
3140000,0.20081978,-0.07938746,0.42855713
3148000,0.20081979,-0.079387456,0.42855713
3160000,0.20081979,-0.07938745,0.42855713
3168000,0.2008198,-0.07938747,0.42855713
3180000,0.20236099,-0.08198662,0.42949918
3188000,0.20236099,-0.081986606,0.42949918
3200000,0.202361,-0.081986606,0.42949918
3208000,0.202361,-0.0819866,0.42949918
3220000,0.20203912,-0.08246891,0.4303637
3228000,0.20203912,-0.082468934,0.4303637
3240000,0.20203914,-0.082468934,0.43036368
3248000,0.20203914,-0.08246892,0.43036368
3260000,0.20203915,-0.08246892,0.43036368
3268000,0.20203915,-0.08246891,0.43036368
3280000,0.1991442,-0.07937612,0.42894495
3288000,0.1991442,-0.07937613,0.42894495
3300000,0.19914421,-0.07937613,0.42894495
3308000,0.19914421,-0.079376124,0.42894495
3320000,0.19914423,-0.07937612,0.42894495
3328000,0.20205662,-0.08483532,0.43344155
3340000,0.20205662,-0.08483532,0.43344155
3348000,0.20205663,-0.084835306,0.43344155
3360000,0.20205663,-0.084835306,0.43344155
3368000,0.20205665,-0.0848353,0.43344155
3380000,0.19985634,-0.08388188,0.4301801
3388000,0.19985634,-0.08388189,0.4301801
3400000,0.19985636,-0.08388189,0.4301801
3408000,0.19985636,-0.08388188,0.4301801
3420000,0.19985636,-0.08388188,0.4301801
3428000,0.20291995,-0.08184067,0.42851368
3440000,0.20291995,-0.081840664,0.42851365
3448000,0.20291995,-0.08184069,0.42851365
3460000,0.20291996,-0.08184068,0.42851365
3468000,0.20291996,-0.08184067,0.42851365
3480000,0.20291997,-0.08184067,0.42851365
3488000,0.19762786,-0.079087764,0.42854604
3500000,0.19762786,-0.079087764,0.42854604
3508000,0.19762786,-0.07908778,0.42854604
3520000,0.19762787,-0.07908778,0.428546
3528000,0.19762787,-0.07908777,0.428546
3540000,0.203601,-0.079153195,0.42959177
3548000,0.203601,-0.07915319,0.42959177
3560000,0.20360102,-0.07915318,0.42959177
3568000,0.20360102,-0.0791532,0.42959175
3580000,0.20360103,-0.079153195,0.42959175
3588000,0.20020236,-0.07965918,0.4324152
3600000,0.20020238,-0.07965918,0.4324152
3608000,0.20020238,-0.079659194,0.4324152
3620000,0.20020238,-0.079659194,0.4324152
3628000,0.20020239,-0.07965918,0.4324152
3640000,0.1993616,-0.08254587,0.42923722
3648000,0.19936162,-0.08254586,0.42923722
3660000,0.19936162,-0.08254586,0.42923722
3668000,0.19936162,-0.08254588,0.4292372
3680000,0.19936164,-0.08254588,0.4292372
3688000,0.19936164,-0.08254587,0.4292372
3700000,0.1997637,-0.08013669,0.42736965
3708000,0.1997637,-0.08013667,0.42736965
3720000,0.19976372,-0.08013667,0.42736965
3728000,0.19976372,-0.08013669,0.42736965
3740000,0.20162055,-0.07896436,0.43001017
3748000,0.20162056,-0.07896435,0.43001017
3760000,0.20162056,-0.078964345,0.43001017
3768000,0.20162056,-0.07896434,0.43001017
3780000,0.20162058,-0.07896434,0.43001014
3788000,0.20162058,-0.07896435,0.43001014
3800000,0.20037274,-0.07827225,0.4287332
3808000,0.20037276,-0.078272246,0.4287332
3820000,0.20037276,-0.078272246,0.4287332
3828000,0.20037277,-0.07827223,0.4287332
3840000,0.20037277,-0.07827223,0.4287332
3848000,0.20022847,-0.083331734,0.43086904
3860000,0.20022847,-0.083331734,0.43086904
3868000,0.20022847,-0.08333172,0.43086904
3880000,0.20022848,-0.08333172,0.43086904
3888000,0.20022848,-0.08333171,0.43086904
3900000,0.20233046,-0.07948112,0.42974958
3908000,0.20233046,-0.07948111,0.42974958
3920000,0.20233047,-0.07948111,0.42974958
3928000,0.20233047,-0.079481095,0.42974958
3940000,0.20233048,-0.079481095,0.42974958
3948000,0.20233048,-0.07948111,0.42974958
3960000,0.20133038,-0.08222275,0.43148783
3968000,0.2013304,-0.082222745,0.43148783
3980000,0.2013304,-0.082222745,0.43148783
3988000,0.2013304,-0.08222273,0.43148783
3999999,0.20061766,-0.07855458,0.42884365
4012000,0.20061766,-0.07855457,0.42884365
4020000,0.20061767,-0.07855459,0.42884365
4028000,0.20061767,-0.07855458,0.42884365
4039999,0.20061767,-0.07855458,0.42884365
4052000,0.1984713,-0.08421657,0.429947
4060000,0.19847131,-0.08421656,0.429947
4068000,0.19847131,-0.08421658,0.429947
4079999,0.19847132,-0.08421657,0.429947
4092000,0.19847132,-0.08421657,0.429947
4100000,0.19847132,-0.084216565,0.429947
4108000,0.19933864,-0.08037641,0.43162286
4119999,0.19933864,-0.08037641,0.43162286
4132000,0.19933866,-0.0803764,0.43162286
4140000,0.19933866,-0.080376424,0.43162286
4148000,0.19933867,-0.08037641,0.43162286
4159999,0.20103276,-0.078595474,0.42738026
4172000,0.20103276,-0.07859547,0.42738026
4180000,0.20103276,-0.07859546,0.42738026
4188000,0.20103277,-0.078595474,0.42738026
4200000,0.20103277,-0.078595474,0.42738023
4208000,0.20103279,-0.07859547,0.42738023
4220000,0.19971891,-0.0808786,0.4267352
4228000,0.19971891,-0.080878615,0.4267352
4240000,0.19971892,-0.080878615,0.4267352
4248000,0.19971892,-0.08087861,0.4267352
4260000,0.19859242,-0.079150304,0.4310816
4268000,0.19859244,-0.0791503,0.4310816
4280000,0.19859244,-0.07915029,0.4310816
4288000,0.19859245,-0.07915031,0.43108156
4300000,0.19859245,-0.079150304,0.43108156
4308000,0.19859245,-0.0791503,0.43108156
4320000,0.20260313,-0.08214497,0.42733192
4328000,0.20260313,-0.08214496,0.42733192
4340000,0.20260315,-0.08214495,0.42733192
4348000,0.20260315,-0.082144976,0.4273319
4360000,0.20260315,-0.08214497,0.4273319
4368000,0.20159264,-0.08248352,0.42843398
4380000,0.20159264,-0.08248352,0.42843398
4388000,0.20159264,-0.08248351,0.42843398
4400000,0.20159265,-0.08248351,0.42843398
4408000,0.20159265,-0.08248352,0.42843398
4420000,0.19713137,-0.08542195,0.43223798
4428000,0.19713137,-0.085421935,0.43223798
4440000,0.19713138,-0.085421935,0.43223798
4448000,0.19713138,-0.08542193,0.43223798
4460000,0.1971314,-0.08542193,0.43223798
4468000,0.19895181,-0.078086235,0.42913547
4480000,0.19895181,-0.078086235,0.42913547
4488000,0.19895183,-0.07808623,0.42913547
4500000,0.19895183,-0.07808623,0.42913547
4508000,0.19895184,-0.07808621,0.42913547
4520000,0.19895184,-0.07808624,0.42913547
4528000,0.19842874,-0.08162039,0.42963946
4540000,0.19842875,-0.08162039,0.42963943
4548000,0.19842875,-0.08162038,0.42963943
4560000,0.19842876,-0.08162037,0.42963943
4568000,0.19842876,-0.081620395,0.42963943
4580000,0.20120448,-0.081115805,0.43080893
4588000,0.2012045,-0.0811158,0.43080893
4600000,0.2012045,-0.0811158,0.43080893
4608000,0.2012045,-0.08111578,0.43080893
4620000,0.20120451,-0.08111578,0.43080893
4628000,0.2005826,-0.08310688,0.42556217
4640000,0.2005826,-0.08310688,0.42556217
4648000,0.20058261,-0.083106875,0.42556217
4660000,0.20058261,-0.08310687,0.42556217
4668000,0.20058262,-0.08310686,0.42556217
4680000,0.2026173,-0.083070114,0.42714587
4688000,0.2026173,-0.08307013,0.42714587
4700000,0.20261732,-0.08307013,0.42714587
4708000,0.20261732,-0.083070114,0.42714587
4720000,0.20261733,-0.083070114,0.42714587
4728000,0.2020348,-0.0837576,0.42601582
4740000,0.20203482,-0.0837576,0.4260158
4748000,0.20203482,-0.08375762,0.4260158
4760000,0.20203483,-0.08375762,0.4260158
4768000,0.20203483,-0.0837576,0.4260158
4780000,0.19981372,-0.08304999,0.42958823
4788000,0.19981374,-0.08304998,0.42958823
4800000,0.19981374,-0.083049975,0.42958823
4808000,0.19981375,-0.08305,0.42958823
4820000,0.19981375,-0.08304999,0.42958823
4828000,0.19981375,-0.08304998,0.4295882
4840000,0.19930646,-0.08065841,0.42940405
4848000,0.19930647,-0.08065843,0.42940405
4860000,0.19930647,-0.08065843,0.42940405
4868000,0.19930647,-0.08065841,0.42940405
4880000,0.19930649,-0.08065841,0.42940405
4888000,0.20078719,-0.07940732,0.4301857
4900000,0.20078719,-0.07940732,0.4301857
4908000,0.2007872,-0.079407334,0.4301857
4920000,0.2007872,-0.079407334,0.4301857
4928000,0.20078722,-0.07940732,0.4301857
4940000,0.19994828,-0.078328,0.42774275
4948000,0.19994828,-0.07832799,0.42774275
4960000,0.1999483,-0.07832799,0.42774275
4968000,0.1999483,-0.078328006,0.42774275
4980000,0.19994831,-0.078328006,0.42774275
4988000,0.19994831,-0.07832799,0.42774275
5000000,0.20026287,-0.08322632,0.4310337
5008000,0.20026289,-0.083226316,0.4310337
5020000,0.20026289,-0.08322631,0.43103367
5028000,0.2002629,-0.08322633,0.43103367
5040000,0.2002629,-0.08322633,0.43103367
5048000,0.20063621,-0.080954656,0.42731214
5060000,0.20063621,-0.08095465,0.42731214
5068000,0.20063622,-0.08095464,0.42731214
5080000,0.20063622,-0.08095464,0.42731214
5088000,0.20063624,-0.080954656,0.42731214
5100000,0.20177998,-0.08050701,0.42939016
5108000,0.20177998,-0.080507,0.42939016
5120000,0.20177999,-0.080507,0.42939016
5128000,0.20177999,-0.08050702,0.42939016
5140000,0.20178,-0.08050702,0.42939016
5148000,0.20299856,-0.080192745,0.42720008
5160000,0.20299858,-0.080192745,0.42720008
5168000,0.20299858,-0.08019273,0.42720008
5180000,0.20299858,-0.08019273,0.42720008
5188000,0.2029986,-0.080192745,0.42720008
5200000,0.19760676,-0.0827814,0.42685163
5208000,0.19760676,-0.08278139,0.42685163
5220000,0.19760677,-0.08278139,0.42685163
5228000,0.19760677,-0.082781374,0.42685163
5240000,0.19760677,-0.082781374,0.42685163
5248000,0.19760679,-0.08278139,0.42685163
5260000,0.19975358,-0.08270379,0.42957693
5268000,0.1997536,-0.082703784,0.42957693
5280000,0.1997536,-0.082703784,0.42957693
5288000,0.19975361,-0.08270378,0.42957693
5300000,0.19975361,-0.08270377,0.42957693
5308000,0.20013608,-0.08267114,0.43149513
5320000,0.20013608,-0.08267114,0.4314951
5328000,0.20013608,-0.082671136,0.4314951
5340000,0.2001361,-0.082671136,0.4314951
5348000,0.2001361,-0.08267112,0.4314951
5360000,0.20053709,-0.08282404,0.42868116
5368000,0.20053709,-0.08282405,0.42868114
5380000,0.2005371,-0.08282405,0.42868114
5388000,0.2005371,-0.082824044,0.42868114
5400000,0.20053712,-0.082824044,0.42868114
5408000,0.19862205,-0.080105044,0.42991126
5420000,0.19862205,-0.08010504,0.42991126
5428000,0.19862206,-0.08010506,0.42991126
5440000,0.19862206,-0.08010505,0.42991126
5448000,0.19862208,-0.080105044,0.42991126
5460000,0.2015733,-0.079871714,0.42786464
5468000,0.2015733,-0.07987173,0.42786464
5480000,0.20157331,-0.07987173,0.42786464
5488000,0.20157331,-0.07987172,0.42786464
5500000,0.20157333,-0.079871714,0.42786464
5508000,0.20237704,-0.08058837,0.42792028
5520000,0.20237705,-0.08058836,0.42792028
5528000,0.20237705,-0.080588385,0.42792028
5540000,0.20237705,-0.08058838,0.42792028
5548000,0.20237707,-0.08058837,0.42792028
5560000,0.19765969,-0.079149336,0.4297834
5568000,0.1976597,-0.07914933,0.4297834
5580000,0.1976597,-0.07914933,0.4297834
5588000,0.1976597,-0.07914934,0.42978337
5600000,0.19765972,-0.07914934,0.42978337
5608000,0.19765972,-0.079149336,0.42978337
5620000,0.20369367,-0.08049427,0.42741203
5628000,0.20369369,-0.080494255,0.42741203
5640000,0.20369369,-0.080494255,0.42741203
5648000,0.20369369,-0.08049427,0.427412
5660000,0.2036937,-0.08049427,0.427412
5668000,0.20197994,-0.07966024,0.4265533
5680000,0.20197994,-0.07966024,0.4265533
5688000,0.20197994,-0.07966023,0.4265533
5700000,0.20197995,-0.07966022,0.4265533
5708000,0.20197995,-0.079660244,0.4265533
5720000,0.20163931,-0.08110177,0.4285211
5728000,0.20163932,-0.08110176,0.4285211
5740000,0.20163932,-0.08110176,0.4285211
5748000,0.20163934,-0.081101775,0.4285211
5760000,0.20163934,-0.081101775,0.4285211
5768000,0.20163934,-0.08110177,0.4285211
5780000,0.19819084,-0.08169972,0.4292265
5788000,0.19819084,-0.081699714,0.4292265
5800000,0.19819085,-0.081699714,0.4292265
5808000,0.19819085,-0.08169973,0.4292265
5820000,0.1999465,-0.08130684,0.42970115
5828000,0.19994651,-0.08130683,0.42970115
5840000,0.19994651,-0.08130682,0.42970115
5848000,0.19994652,-0.081306815,0.42970115
5860000,0.19994652,-0.081306815,0.42970115
5868000,0.19994652,-0.08130683,0.42970112
5880000,0.19963029,-0.083231375,0.42812815
5888000,0.19963029,-0.08323137,0.42812815
5900000,0.1996303,-0.08323136,0.42812812
5908000,0.1996303,-0.08323135,0.42812812
5920000,0.19963032,-0.08323135,0.42812812
5928000,0.20380117,-0.07744572,0.42616925
5940000,0.20380118,-0.07744572,0.42616922
5948000,0.20380118,-0.07744571,0.42616922
5960000,0.2038012,-0.07744571,0.42616922
5968000,0.2038012,-0.0774457,0.42616922
5980000,0.20144896,-0.08270375,0.43084422
5988000,0.20144896,-0.08270376,0.43084422
6000000,0.20144898,-0.08270376,0.43084422
6008000,0.20144898,-0.082703754,0.43084422
6020000,0.20144899,-0.08270375,0.43084422
6028000,0.20144899,-0.08270374,0.43084422
6040000,0.19923249,-0.081742875,0.42883036
6048000,0.19923249,-0.08174289,0.42883033
6060000,0.1992325,-0.08174289,0.42883033
6068000,0.1992325,-0.081742875,0.42883033
6080000,0.1999537,-0.08112594,0.4293446
6088000,0.19995372,-0.08112596,0.4293446
6100000,0.19995372,-0.08112595,0.4293446
6108000,0.19995372,-0.081125945,0.4293446
6120000,0.19995373,-0.081125945,0.4293446
6128000,0.19995373,-0.08112593,0.4293446
6140000,0.20314561,-0.07952658,0.42475465
6148000,0.20314561,-0.079526596,0.42475465
6160000,0.20314561,-0.079526596,0.42475465
6168000,0.20314562,-0.07952659,0.42475465
6180000,0.20314562,-0.07952659,0.42475462
6188000,0.20119001,-0.083611734,0.42846105
6200000,0.20119001,-0.08361173,0.42846105
6208000,0.20119002,-0.08361174,0.42846105
6220000,0.20119002,-0.08361174,0.42846105
6228000,0.20119004,-0.083611734,0.42846105
6240000,0.20223211,-0.08054474,0.42787477
6248000,0.20223211,-0.08054473,0.42787477
6260000,0.20223212,-0.08054473,0.42787477
6268000,0.20223212,-0.08054475,0.42787477
6280000,0.20223214,-0.08054475,0.42787477
6288000,0.20223214,-0.08054474,0.42787477
6300000,0.20333293,-0.08233993,0.43274212
6308000,0.20333295,-0.08233992,0.43274212
6320000,0.20333295,-0.08233992,0.43274212
6328000,0.20333295,-0.082339935,0.43274212
6340000,0.20010148,-0.082317926,0.42804807
6348000,0.2001015,-0.08231792,0.42804807
6360000,0.2001015,-0.08231792,0.42804807
6368000,0.20010151,-0.08231793,0.42804807
6380000,0.20010151,-0.08231793,0.42804807
6388000,0.20010152,-0.08231792,0.42804807
6400000,0.20150898,-0.08305929,0.4285597
6408000,0.20150898,-0.08305928,0.4285597
6420000,0.201509,-0.08305928,0.4285597
6428000,0.201509,-0.083059296,0.4285597
6440000,0.201509,-0.083059296,0.4285597
6448000,0.20095491,-0.07875562,0.42719206
6460000,0.20095491,-0.07875562,0.42719203
6468000,0.20095491,-0.07875561,0.42719203
6480000,0.20095493,-0.07875561,0.42719203
6488000,0.20095493,-0.078755625,0.42719203
6500000,0.20000951,-0.08036468,0.43209538
6508000,0.20000952,-0.080364674,0.43209538
6520000,0.20000952,-0.080364674,0.43209538
6528000,0.20000954,-0.08036466,0.43209538
6540000,0.20000954,-0.08036466,0.43209538
6548000,0.20104094,-0.08027641,0.43004993
6560000,0.20104095,-0.08027641,0.4300499
6568000,0.20104095,-0.08027639,0.4300499
6580000,0.20104097,-0.08027639,0.4300499
6588000,0.20104097,-0.080276385,0.4300499
6600000,0.20104097,-0.080276385,0.4300499
6608000,0.20009956,-0.08291216,0.42849997
6620000,0.20009957,-0.08291216,0.42849997
6628000,0.20009957,-0.082912154,0.42849997
6640000,0.20009957,-0.08291215,0.42849997
6648000,0.20009959,-0.08291214,0.42849997
6660000,0.1998464,-0.07908247,0.4287175
6668000,0.19984642,-0.07908246,0.4287175
6680000,0.19984642,-0.07908245,0.4287175
6688000,0.19984643,-0.079082444,0.4287175
6700000,0.19984643,-0.079082444,0.4287175
6708000,0.19985487,-0.08193177,0.43304768
6720000,0.19985487,-0.08193177,0.43304768
6728000,0.19985488,-0.081931755,0.43304768
6740000,0.19985488,-0.081931755,0.43304765
6748000,0.1998549,-0.08193175,0.43304765
6760000,0.20036341,-0.08003175,0.42998385
6768000,0.20036341,-0.08003177,0.42998385
6780000,0.20036343,-0.08003177,0.42998385
6788000,0.20036343,-0.08003175,0.42998385
6800000,0.20036344,-0.08003175,0.42998385
6808000,0.20036344,-0.080031745,0.42998385
6820000,0.19889237,-0.07923889,0.42833948
6828000,0.19889237,-0.07923891,0.42833948
6840000,0.19889238,-0.07923891,0.42833948
6848000,0.19889238,-0.0792389,0.42833948
6860000,0.1994879,-0.082740724,0.42987412
6868000,0.1994879,-0.08274072,0.42987412
6880000,0.19948791,-0.08274072,0.42987412
6888000,0.19948791,-0.08274073,0.42987412
6900000,0.19948792,-0.08274073,0.42987412
6908000,0.19948792,-0.082740724,0.42987412
6920000,0.19762821,-0.08180546,0.4291171
6928000,0.19762821,-0.08180545,0.4291171
6940000,0.19762823,-0.08180545,0.4291171
6948000,0.19762823,-0.08180547,0.4291171
6960000,0.19762824,-0.08180547,0.4291171
6968000,0.2016546,-0.08080647,0.42902893
6980000,0.20165461,-0.080806464,0.42902893
6988000,0.20165461,-0.08080649,0.42902893
7000000,0.20165461,-0.08080648,0.4290289
7008000,0.20165463,-0.08080647,0.4290289
7020000,0.20434651,-0.07984231,0.4279857
7028000,0.20434651,-0.0798423,0.42798567
7040000,0.20434652,-0.07984229,0.42798567
7048000,0.20434652,-0.079842314,0.42798567
7060000,0.20434654,-0.07984231,0.42798567
7068000,0.20225362,-0.08289381,0.42845368
7080000,0.20225364,-0.08289381,0.42845368
7088000,0.20225364,-0.0828938,0.42845368
7100000,0.20225365,-0.0828938,0.42845368
7108000,0.20225365,-0.08289382,0.42845368
7120000,0.20225365,-0.08289382,0.42845365
7128000,0.20072275,-0.08046565,0.4318158
7140000,0.20072275,-0.08046565,0.4318158
7148000,0.20072277,-0.080465645,0.4318158
7160000,0.20072277,-0.080465645,0.4318158
7168000,0.20072278,-0.08046566,0.4318158
7180000,0.20030272,-0.08082229,0.43005517
7188000,0.20030272,-0.080822274,0.43005517
7200000,0.20030273,-0.080822274,0.43005517
7208000,0.20030273,-0.08082227,0.43005517
7220000,0.20030275,-0.08082227,0.43005517
7228000,0.20177953,-0.08292445,0.42743176
7240000,0.20177953,-0.08292445,0.42743176
7248000,0.20177954,-0.08292444,0.42743176
7260000,0.20177954,-0.08292443,0.42743176
7268000,0.20177956,-0.082924426,0.42743176
7280000,0.19922234,-0.083938524,0.427249
7288000,0.19922236,-0.08393852,0.427249
7300000,0.19922236,-0.08393852,0.427249
7308000,0.19922237,-0.0839385,0.427249
7320000,0.19922237,-0.0839385,0.427249
7328000,0.20081423,-0.08218216,0.430378
7340000,0.20081423,-0.08218216,0.430378
7348000,0.20081423,-0.08218215,0.430378
7360000,0.20081425,-0.08218215,0.430378
7368000,0.20081425,-0.08218214,0.430378
7380000,0.20081426,-0.08218213,0.430378
7388000,0.19945571,-0.083270416,0.43067238
7400000,0.19945572,-0.083270416,0.43067238
7408000,0.19945572,-0.08327041,0.43067238
7420000,0.19945574,-0.08327041,0.43067238
7428000,0.19945574,-0.08327039,0.43067238
7440000,0.19940291,-0.080436364,0.42844874
7448000,0.19940291,-0.080436386,0.4284487
7460000,0.19940291,-0.08043638,0.4284487
7468000,0.19940293,-0.08043637,0.4284487
7480000,0.19940293,-0.08043637,0.4284487
7488000,0.20141399,-0.08010556,0.42845425
7500000,0.201414,-0.08010556,0.42845425
7508000,0.201414,-0.08010557,0.42845422
7520000,0.20141402,-0.08010557,0.42845422
7528000,0.20141402,-0.08010556,0.42845422
7540000,0.20023099,-0.082696505,0.4273918
7548000,0.200231,-0.08269649,0.4273918
7560000,0.200231,-0.08269649,0.42739177
7568000,0.20023102,-0.082696505,0.42739177
7580000,0.20023102,-0.082696505,0.42739177
7588000,0.20162457,-0.07975768,0.42798916
7600000,0.20162459,-0.07975768,0.42798913
7608000,0.20162459,-0.0797577,0.42798913
7620000,0.20162459,-0.07975769,0.42798913
7628000,0.2016246,-0.07975768,0.42798913
7640000,0.2016246,-0.07975768,0.42798913
7648000,0.19995353,-0.080656774,0.4283452
7660000,0.19995354,-0.080656774,0.4283452
7668000,0.19995354,-0.08065679,0.42834517
7680000,0.19995356,-0.08065679,0.42834517
7688000,0.19995356,-0.080656774,0.42834517
7700000,0.20113738,-0.08070597,0.42749366
7708000,0.2011374,-0.080705956,0.42749366
7720000,0.2011374,-0.080705956,0.42749366
7728000,0.2011374,-0.08070597,0.42749366
7740000,0.20113741,-0.08070597,0.42749366
7748000,0.20101519,-0.08399321,0.4296449
7760000,0.20101519,-0.08399321,0.4296449
7768000,0.2010152,-0.083993204,0.4296449
7780000,0.2010152,-0.083993204,0.42964488
7788000,0.2010152,-0.08399322,0.42964488
7800000,0.20188913,-0.08245867,0.42684573
7808000,0.20188913,-0.08245866,0.42684573
7820000,0.20188914,-0.08245865,0.42684573
7828000,0.20188914,-0.082458645,0.42684573
7840000,0.20188916,-0.082458645,0.42684573
7848000,0.20147754,-0.082797214,0.43051544
7860000,0.20147756,-0.082797214,0.43051544
7868000,0.20147756,-0.08279721,0.43051544
7880000,0.20147756,-0.08279721,0.43051544
7888000,0.20147757,-0.08279719,0.43051544
7900000,0.20147757,-0.08279722,0.43051544
7908000,0.20046015,-0.07906235,0.43146154
7920000,0.20046017,-0.07906235,0.43146154
7928000,0.20046017,-0.079062335,0.43146154
7940000,0.20046018,-0.079062335,0.43146154
7948000,0.20046018,-0.07906235,0.43146154
7960000,0.19923398,-0.08419325,0.43003276
7968000,0.19923398,-0.084193245,0.43003273
7980000,0.199234,-0.084193245,0.43003273
7988000,0.199234,-0.08419323,0.43003273
8000000,0.199234,-0.08419323,0.43003273
8008000,0.20229465,-0.08268728,0.428727
8019999,0.20229466,-0.08268728,0.428727
8028000,0.20229466,-0.08268727,0.428727
8040000,0.20229466,-0.082687266,0.428727
8048000,0.20229468,-0.08268726,0.428727
8060000,0.20263934,-0.08364893,0.4276983
8072000,0.20263936,-0.08364893,0.4276983
8080000,0.20263936,-0.08364894,0.42769828
8088000,0.20263936,-0.083648935,0.42769828
8099999,0.20263937,-0.083648935,0.42769828
8108000,0.20251805,-0.0824973,0.42746222
8120000,0.20251806,-0.08249729,0.42746222
8128000,0.20251806,-0.08249731,0.42746222
8140000,0.20251808,-0.082497306,0.4274622
8152000,0.20251808,-0.082497306,0.4274622
8160000,0.20251809,-0.0824973,0.4274622
8168000,0.19763775,-0.08086727,0.42967406
8179999,0.19763777,-0.08086726,0.42967406
8188000,0.19763777,-0.08086728,0.42967406
8200000,0.19763778,-0.080867276,0.42967406
8208000,0.19763778,-0.08086727,0.42967406
8220000,0.201018,-0.079190575,0.4317113
8232000,0.20101802,-0.079190575,0.43171126
8240000,0.20101802,-0.07919059,0.43171126
8248000,0.20101802,-0.07919058,0.43171126
8259999,0.20101804,-0.079190575,0.43171126
8268000,0.20192277,-0.084758766,0.4308796
8280000,0.20192277,-0.084758766,0.4308796
8288000,0.20192279,-0.08475878,0.43087956
8300000,0.20192279,-0.08475878,0.43087956
8312000,0.2019228,-0.08475878,0.43087956
8320000,0.19931908,-0.080807425,0.4309484
8328000,0.1993191,-0.08080742,0.4309484
8339999,0.1993191,-0.08080741,0.43094838
8348000,0.1993191,-0.08080743,0.43094838
8360000,0.19931911,-0.080807425,0.43094838
8368000,0.19984928,-0.080738366,0.4284596
8380000,0.19984928,-0.080738366,0.4284596
8388000,0.1998493,-0.08073836,0.4284596
8400000,0.1998493,-0.08073835,0.4284596
8408000,0.1998493,-0.08073837,0.42845958
8420000,0.19984931,-0.080738366,0.42845958
8428000,0.20126139,-0.08376489,0.4283136
8440000,0.2012614,-0.08376489,0.4283136
8448000,0.2012614,-0.08376488,0.4283136
8460000,0.20126142,-0.08376487,0.42831358
8468000,0.20126142,-0.083764896,0.42831358
8480000,0.19971606,-0.080796525,0.43189287
8488000,0.19971606,-0.08079652,0.43189287
8500000,0.19971608,-0.08079652,0.43189284
8508000,0.19971608,-0.08079653,0.43189284
8520000,0.19971608,-0.08079653,0.43189284
8528000,0.19845574,-0.08214014,0.42993683
8540000,0.19845575,-0.08214013,0.42993683
8548000,0.19845575,-0.082140125,0.42993683
8560000,0.19845575,-0.082140125,0.42993683
8568000,0.19845577,-0.08214014,0.42993683
8580000,0.20061569,-0.07712974,0.4308261
8588000,0.20061569,-0.07712973,0.43082607
8600000,0.20061569,-0.07712972,0.43082607
8608000,0.2006157,-0.077129714,0.43082607
8620000,0.2006157,-0.077129714,0.43082607
8628000,0.19877575,-0.081539825,0.43076685
8640000,0.19877575,-0.081539825,0.43076685
8648000,0.19877575,-0.08153981,0.43076685
8660000,0.19877577,-0.08153981,0.43076685
8668000,0.19877577,-0.0815398,0.43076685
8680000,0.19877578,-0.081539795,0.43076685
8688000,0.19945565,-0.08186468,0.42858356
8700000,0.19945566,-0.08186468,0.42858356
8708000,0.19945566,-0.08186466,0.42858353
8720000,0.19945568,-0.08186466,0.42858353
8728000,0.19945568,-0.081864655,0.42858353
8740000,0.2020802,-0.07965132,0.42757818
8748000,0.2020802,-0.07965133,0.42757818
8760000,0.20208022,-0.07965133,0.42757818
8768000,0.20208022,-0.079651326,0.42757818
8780000,0.20208023,-0.07965132,0.42757818
8788000,0.20273562,-0.080167815,0.42882138
8800000,0.20273562,-0.08016781,0.42882136
8808000,0.20273563,-0.08016783,0.42882136
8820000,0.20273563,-0.08016782,0.42882136
8828000,0.20273565,-0.080167815,0.42882136
8840000,0.20088848,-0.0819026,0.43244255
8848000,0.2008885,-0.081902616,0.43244255
8860000,0.2008885,-0.081902616,0.43244252
8868000,0.2008885,-0.08190261,0.43244252
8880000,0.20088851,-0.0819026,0.43244252
8888000,0.20094544,-0.08161217,0.4277486
8900000,0.20094544,-0.08161217,0.4277486
8908000,0.20094545,-0.081612185,0.4277486
8920000,0.20094545,-0.081612185,0.4277486
8928000,0.20094547,-0.08161217,0.4277486
8940000,0.20094547,-0.08161217,0.4277486
8948000,0.20152931,-0.08114362,0.4313801
8960000,0.20152931,-0.08114362,0.4313801
8968000,0.20152931,-0.08114363,0.43138006
8980000,0.20152932,-0.08114363,0.43138006
8988000,0.20152932,-0.08114362,0.43138006
9000000,0.20019308,-0.08243271,0.42796767
9008000,0.20019308,-0.082432695,0.42796767
9020000,0.20019309,-0.082432695,0.42796767
9028000,0.20019309,-0.08243271,0.42796767
9040000,0.2001931,-0.08243271,0.42796767
9048000,0.20518064,-0.08252612,0.4308131
9060000,0.20518066,-0.08252612,0.4308131
9068000,0.20518066,-0.08252611,0.4308131
9080000,0.20518067,-0.0825261,0.4308131
9088000,0.20518067,-0.082526125,0.4308131
9100000,0.20101434,-0.083001114,0.43243703
9108000,0.20101435,-0.08300111,0.43243703
9120000,0.20101435,-0.0830011,0.43243703
9128000,0.20101435,-0.08300112,0.43243703
9140000,0.20101437,-0.083001114,0.43243703
9148000,0.20016906,-0.08054848,0.4285054
9160000,0.20016906,-0.08054848,0.4285054
9168000,0.20016906,-0.080548465,0.4285054
9180000,0.20016907,-0.080548465,0.4285054
9188000,0.20016907,-0.08054848,0.42850536
9200000,0.20016909,-0.08054848,0.42850536
9208000,0.19976977,-0.079467855,0.43146262
9220000,0.19976978,-0.079467855,0.43146262
9228000,0.19976978,-0.07946785,0.43146262
9240000,0.1997698,-0.07946785,0.43146262
9248000,0.1997698,-0.07946786,0.43146262
9260000,0.19984855,-0.08108167,0.4306617
9268000,0.19984855,-0.081081666,0.4306617
9280000,0.19984856,-0.08108166,0.4306617
9288000,0.19984856,-0.08108165,0.4306617
9300000,0.19984858,-0.08108165,0.4306617
9308000,0.1999116,-0.08315421,0.43103436
9320000,0.19991161,-0.08315421,0.43103436
9328000,0.19991161,-0.083154194,0.43103436
9340000,0.19991162,-0.083154194,0.43103436
9348000,0.19991162,-0.08315419,0.43103436
9360000,0.20148815,-0.08110685,0.42985806
9368000,0.20148815,-0.081106864,0.42985806
9380000,0.20148817,-0.081106864,0.42985806
9388000,0.20148817,-0.08110686,0.42985806
9400000,0.20148818,-0.08110685,0.42985806
9408000,0.20148818,-0.08110684,0.42985806
9420000,0.20278119,-0.08270682,0.4314258
9428000,0.20278119,-0.08270683,0.4314258
9440000,0.2027812,-0.08270683,0.43142578
9448000,0.2027812,-0.082706824,0.43142578
9460000,0.19902085,-0.08205733,0.43008402
9468000,0.19902085,-0.08205735,0.43008402
9480000,0.19902086,-0.08205734,0.43008402
9488000,0.19902086,-0.082057334,0.43008402
9500000,0.19902088,-0.082057334,0.43008402
9508000,0.19902088,-0.08205732,0.43008402
9520000,0.19765556,-0.08021156,0.42859295
9528000,0.19765557,-0.08021157,0.42859292
9540000,0.19765557,-0.08021157,0.42859292
9548000,0.19765559,-0.080211565,0.42859292
9560000,0.19765559,-0.08021156,0.42859292
9568000,0.19784054,-0.07961524,0.4318434
9580000,0.19784054,-0.07961524,0.4318434
9588000,0.19784054,-0.07961526,0.4318434
9600000,0.19784056,-0.07961526,0.4318434
9608000,0.19784056,-0.07961525,0.4318434
9620000,0.19994062,-0.08104742,0.42841387
9628000,0.19994062,-0.081047416,0.42841387
9640000,0.19994064,-0.08104741,0.42841387
9648000,0.19994064,-0.08104743,0.42841387
9660000,0.19994065,-0.08104742,0.42841387
9668000,0.19951063,-0.080238044,0.42973554
9680000,0.19951065,-0.080238044,0.42973554
9688000,0.19951065,-0.08023803,0.42973554
9700000,0.19951066,-0.08023803,0.42973554
9708000,0.19951066,-0.08023805,0.4297355
9720000,0.19951068,-0.080238044,0.4297355
9728000,0.19977367,-0.0798955,0.430677
9740000,0.19977368,-0.0798955,0.430677
9748000,0.19977368,-0.07989551,0.430677
9760000,0.19977368,-0.07989551,0.430677
9768000,0.1997737,-0.0798955,0.430677
9780000,0.19999987,-0.0796931,0.4307088
9788000,0.19999987,-0.07969309,0.4307088
9800000,0.19999988,-0.07969309,0.43070877
9808000,0.19999988,-0.0796931,0.43070877
9820000,0.1999999,-0.0796931,0.43070877
9828000,0.20222305,-0.082314886,0.42712122
9840000,0.20222306,-0.082314886,0.42712122
9848000,0.20222306,-0.08231488,0.42712122
9860000,0.20222308,-0.08231488,0.42712122
9868000,0.20222308,-0.08231489,0.42712122
9880000,0.20155981,-0.08284709,0.42897704
9888000,0.20155981,-0.08284708,0.42897704
9900000,0.20155983,-0.08284708,0.42897704
9908000,0.20155983,-0.082847066,0.42897704
9920000,0.20155983,-0.082847066,0.42897704
9928000,0.19712798,-0.07865898,0.42592743
9940000,0.19712798,-0.07865898,0.42592743
9948000,0.197128,-0.078658976,0.42592743
9960000,0.197128,-0.07865897,0.42592743
9968000,0.19712801,-0.07865896,0.42592743
9980000,0.19712801,-0.07865896,0.42592743
9988000,0.1982476,-0.08075837,0.4293135
10000000,0.1982476,-0.08075837,0.4293135
10008000,0.19824761,-0.08075836,0.4293135
10020000,0.19824761,-0.08075836,0.4293135
10028000,0.19824761,-0.08075835,0.4293135
10040000,0.19867724,-0.0819017,0.4287001
10048000,0.19867726,-0.08190172,0.4287001
10060000,0.19867726,-0.081901714,0.42870006
10068000,0.19867727,-0.08190171,0.42870006
10080000,0.19867727,-0.08190171,0.42870006
10088000,0.2034399,-0.08226682,0.43187824
10100000,0.20343992,-0.08226682,0.43187824
10108000,0.20343992,-0.082266815,0.43187824
10120000,0.20343994,-0.08226681,0.43187824
10128000,0.20343994,-0.0822668,0.43187824
10140000,0.19947888,-0.07884091,0.42679015
10148000,0.1994789,-0.078840934,0.42679012
10160000,0.1994789,-0.07884093,0.42679012
10168000,0.19947891,-0.07884092,0.42679012
10180000,0.19947891,-0.07884092,0.42679012
10188000,0.2036199,-0.08143917,0.42707792
10200000,0.20361991,-0.08143916,0.42707792
10208000,0.20361991,-0.08143918,0.42707792
10220000,0.20361993,-0.081439175,0.42707792
10228000,0.20361993,-0.08143917,0.42707792
10240000,0.20207173,-0.07917203,0.42846343
10248000,0.20207173,-0.07917202,0.42846343
10260000,0.20207174,-0.079172015,0.42846343
10268000,0.20207174,-0.07917204,0.42846343
10280000,0.20207176,-0.07917204,0.42846343
10288000,0.20207176,-0.07917202,0.42846343
10300000,0.1994889,-0.07826416,0.43277168
10308000,0.1994889,-0.07826415,0.43277168
10320000,0.19948891,-0.07826415,0.43277168
10328000,0.19948891,-0.07826416,0.43277168
10340000,0.19948892,-0.07826416,0.43277168
10348000,0.19919243,-0.07934833,0.43112248
10360000,0.19919243,-0.07934833,0.43112248
10368000,0.19919245,-0.07934835,0.43112245
10380000,0.19919245,-0.07934835,0.43112245
10388000,0.19919245,-0.07934834,0.43112245
10400000,0.20269892,-0.081655055,0.4285293
10408000,0.20269892,-0.08165505,0.4285293
10420000,0.20269893,-0.08165505,0.4285293
10428000,0.20269893,-0.08165506,0.4285293
10440000,0.20269895,-0.08165506,0.42852926
10448000,0.19857259,-0.07765595,0.4290102
10460000,0.1985726,-0.07765594,0.4290102
10468000,0.1985726,-0.077655934,0.4290102
10480000,0.19857262,-0.077655934,0.4290102
10488000,0.19857262,-0.07765595,0.4290102
10500000,0.20024784,-0.07905281,0.42922547
10508000,0.20024784,-0.079052806,0.42922547
10520000,0.20024784,-0.079052806,0.42922544
10528000,0.20024785,-0.07905279,0.42922544
10540000,0.20024785,-0.07905279,0.42922544
10548000,0.20024787,-0.079052806,0.42922544
10560000,0.2021135,-0.08140181,0.4266152
10568000,0.2021135,-0.081401795,0.4266152
10580000,0.20211351,-0.081401795,0.42661518
10588000,0.20211351,-0.08140179,0.42661518
10600000,0.20211351,-0.08140179,0.42661518
10608000,0.20114325,-0.08316431,0.43259248
10620000,0.20114325,-0.083164304,0.43259248
10628000,0.20114326,-0.0831643,0.43259248
10640000,0.20114326,-0.0831643,0.43259248
10648000,0.20114328,-0.08316429,0.43259248
10660000,0.20158319,-0.080679536,0.43007043
10668000,0.20158319,-0.08067955,0.43007043
10680000,0.2015832,-0.08067955,0.43007043
10688000,0.2015832,-0.080679536,0.43007043
10700000,0.2015832,-0.080679536,0.43007043
10708000,0.19536719,-0.07914199,0.4291122
10720000,0.1953672,-0.07914199,0.4291122
10728000,0.1953672,-0.079141974,0.4291122
10740000,0.19536722,-0.079141974,0.4291122
10748000,0.19536722,-0.07914197,0.4291122
10760000,0.20422342,-0.079617165,0.42811522
10768000,0.20422344,-0.07961719,0.42811522
10780000,0.20422344,-0.07961718,0.42811522
10788000,0.20422345,-0.07961717,0.42811522
10800000,0.20422345,-0.07961717,0.42811522
10808000,0.20422345,-0.07961716,0.42811522
10820000,0.1986085,-0.08358445,0.42686692
10828000,0.19860852,-0.083584465,0.42686692
10840000,0.19860852,-0.083584465,0.42686692
10848000,0.19860853,-0.08358446,0.42686692
10860000,0.19860853,-0.08358446,0.42686692
10868000,0.19892268,-0.08196922,0.42838502
10880000,0.1989227,-0.08196922,0.42838502
10888000,0.1989227,-0.08196923,0.42838502
10900000,0.19892271,-0.08196923,0.42838502
10908000,0.19892271,-0.081969224,0.42838502
10920000,0.2019174,-0.08126538,0.4291591
10928000,0.2019174,-0.08126537,0.4291591
10940000,0.20191741,-0.08126537,0.4291591
10948000,0.20191741,-0.08126538,0.4291591
10960000,0.20191742,-0.08126538,0.4291591
10968000,0.20191742,-0.081265375,0.4291591
10980000,0.20165505,-0.08180606,0.4305468
10988000,0.20165506,-0.081806086,0.4305468
11000000,0.20165506,-0.08180608,0.4305468
11008000,0.20165506,-0.08180607,0.4305468
11020000,0.1968695,-0.08208783,0.4302604
11028000,0.1968695,-0.08208782,0.4302604
11040000,0.19686952,-0.08208782,0.4302604
11048000,0.19686952,-0.08208784,0.43026036
11060000,0.19686952,-0.08208784,0.43026036
11068000,0.19686954,-0.08208783,0.43026036
11080000,0.20155759,-0.08269374,0.43053904
11088000,0.20155759,-0.08269373,0.43053904
11100000,0.2015576,-0.082693726,0.43053904
11108000,0.2015576,-0.08269375,0.430539
11120000,0.20155762,-0.08269374,0.430539
11128000,0.20305914,-0.07964395,0.43104577
11140000,0.20305914,-0.07964395,0.43104577
11148000,0.20305915,-0.07964394,0.43104577
11160000,0.20305915,-0.07964394,0.43104577
11168000,0.20305915,-0.07964396,0.43104574
11180000,0.19820859,-0.08121648,0.42757785
11188000,0.19820859,-0.08121647,0.42757785
11200000,0.1982086,-0.08121647,0.42757785
11208000,0.1982086,-0.081216455,0.42757785
11220000,0.1982086,-0.081216455,0.42757785
11228000,0.19965476,-0.082205005,0.43269816
11240000,0.19965477,-0.082205005,0.43269816
11248000,0.19965477,-0.08220499,0.43269816
11260000,0.19965477,-0.08220499,0.43269816
11268000,0.19965479,-0.08220498,0.43269813
11280000,0.19949093,-0.08280687,0.42804244
11288000,0.19949095,-0.08280686,0.42804244
11300000,0.19949095,-0.082806855,0.42804244
11308000,0.19949095,-0.08280685,0.42804244
11320000,0.19949096,-0.08280685,0.42804244
11328000,0.19949096,-0.08280686,0.42804244
11340000,0.20076858,-0.08286449,0.42946377
11348000,0.20076859,-0.082864486,0.42946377
11360000,0.20076859,-0.082864486,0.42946377
11368000,0.20076859,-0.08286447,0.42946377
11380000,0.2007686,-0.08286447,0.42946377
11388000,0.20022258,-0.0833687,0.4294458
11400000,0.2002226,-0.0833687,0.4294458
11408000,0.2002226,-0.08336869,0.4294458
11420000,0.20022261,-0.08336869,0.4294458
11428000,0.20022261,-0.08336868,0.4294458
11440000,0.20008592,-0.084044784,0.42766756
11448000,0.20008592,-0.0840448,0.42766756
11460000,0.20008594,-0.0840448,0.42766756
11468000,0.20008594,-0.08404479,0.42766756
11480000,0.20008595,-0.08404479,0.42766756
11488000,0.20161505,-0.08181014,0.42649668
11500000,0.20161507,-0.08181013,0.42649668
11508000,0.20161507,-0.081810154,0.42649665
11520000,0.20161508,-0.08181015,0.42649665
11528000,0.20161508,-0.08181014,0.42649665
11540000,0.20196025,-0.07908769,0.43034053
11548000,0.20196025,-0.079087675,0.43034053
11560000,0.20196025,-0.079087675,0.43034053
11568000,0.20196027,-0.07908769,0.43034053
11580000,0.20196027,-0.07908769,0.4303405
11588000,0.20196028,-0.07908768,0.4303405
11600000,0.20147851,-0.08259359,0.43149567
11608000,0.20147851,-0.082593605,0.43149567
11620000,0.20147853,-0.082593605,0.43149567
11628000,0.20147853,-0.08259359,0.43149567
11640000,0.20147853,-0.08259359,0.43149564
11648000,0.20231846,-0.07950432,0.43026534
11660000,0.20231847,-0.07950432,0.43026534
11668000,0.20231847,-0.07950433,0.43026534
11680000,0.20231849,-0.079504326,0.43026534
11688000,0.20231849,-0.07950432,0.43026534
11700000,0.19993033,-0.085110776,0.42878628
11708000,0.19993034,-0.08511077,0.42878628
11720000,0.19993034,-0.08511077,0.42878628
11728000,0.19993034,-0.08511078,0.42878628
11740000,0.19993035,-0.08511078,0.42878628
11748000,0.20032851,-0.0800359,0.42952883
11760000,0.20032851,-0.0800359,0.42952883
11768000,0.20032853,-0.08003589,0.42952883
11780000,0.20032853,-0.08003589,0.42952883
11788000,0.20032853,-0.0800359,0.42952883
11800000,0.20032854,-0.0800359,0.42952883
11808000,0.20135325,-0.08124636,0.43009683
11820000,0.20135327,-0.08124636,0.43009683
11828000,0.20135327,-0.081246346,0.43009683
11840000,0.20135328,-0.081246346,0.43009683
11848000,0.20135328,-0.08124636,0.43009683
11860000,0.20037505,-0.07878122,0.42961508
11868000,0.20037505,-0.0787812,0.42961508
11880000,0.20037507,-0.0787812,0.42961508
11888000,0.20037507,-0.078781195,0.42961508
11900000,0.20037508,-0.07878122,0.42961508
11908000,0.20136091,-0.08198759,0.42857185
11920000,0.20136093,-0.08198758,0.42857185
11928000,0.20136093,-0.081987575,0.42857185
11940000,0.20136094,-0.081987575,0.42857185
11948000,0.20136094,-0.08198759,0.42857182
11960000,0.19989322,-0.08161571,0.42734295
11968000,0.19989322,-0.0816157,0.42734295
11980000,0.19989324,-0.0816157,0.42734295
11988000,0.19989324,-0.08161569,0.42734295
12000000,0.19989325,-0.08161569,0.42734295
12008000,0.19989325,-0.0816157,0.42734295
12020000,0.19919223,-0.081891984,0.4253317
12028000,0.19919223,-0.08189197,0.4253317
12040000,0.19919224,-0.08189197,0.4253317
12048000,0.19919224,-0.08189196,0.4253317
12060000,0.19919226,-0.08189196,0.4253317
12068000,0.2001914,-0.08002783,0.426383
12080000,0.20019141,-0.08002783,0.426383
12088000,0.20019141,-0.080027826,0.426383
12100000,0.20019142,-0.08002782,0.426383
12108000,0.20019142,-0.08002781,0.426383
12120000,0.20038715,-0.079102114,0.43055648
12128000,0.20038715,-0.07910213,0.43055648
12140000,0.20038716,-0.07910213,0.43055648
12148000,0.20038716,-0.07910212,0.43055648
12160000,0.20038718,-0.07910212,0.43055648
12168000,0.20220087,-0.0786463,0.4270766
12180000,0.20220087,-0.0786463,0.4270766
12188000,0.20220089,-0.07864632,0.4270766
12200000,0.20220089,-0.07864632,0.42707658
12208000,0.20220089,-0.07864631,0.42707658
12220000,0.19593492,-0.08102412,0.4289702
12228000,0.19593492,-0.08102413,0.4289702
12240000,0.19593494,-0.08102413,0.4289702
12248000,0.19593494,-0.08102412,0.4289702
12260000,0.19593495,-0.08102412,0.4289702
12268000,0.20334625,-0.08220347,0.4301435
12280000,0.20334625,-0.08220347,0.4301435
12288000,0.20334625,-0.082203485,0.43014348
12300000,0.20334627,-0.082203485,0.43014348
12308000,0.20334627,-0.08220347,0.43014348
12320000,0.20125559,-0.08313518,0.42805025
12328000,0.20125559,-0.08313517,0.42805025
12340000,0.2012556,-0.08313517,0.42805025
12348000,0.2012556,-0.08313519,0.42805022
12360000,0.20125562,-0.08313519,0.42805022
12368000,0.20125562,-0.08313517,0.42805022
12380000,0.20061332,-0.08448251,0.43193948
12388000,0.20061332,-0.084482506,0.43193948
12400000,0.20061333,-0.084482506,0.43193948
12408000,0.20061333,-0.08448252,0.43193948
12420000,0.20061335,-0.08448252,0.43193948
12428000,0.20081486,-0.08300728,0.43143538
12440000,0.20081487,-0.08300728,0.43143535
12448000,0.20081487,-0.08300727,0.43143535
12460000,0.20081487,-0.08300727,0.43143535
12468000,0.20081489,-0.08300729,0.43143535
12480000,0.20073462,-0.07936357,0.4311174
12488000,0.20073462,-0.07936356,0.4311174
12500000,0.20073462,-0.07936356,0.4311174
12508000,0.20073463,-0.07936355,0.4311174
12520000,0.20073463,-0.07936358,0.4311174
12528000,0.19843921,-0.08261984,0.42979807
12540000,0.19843921,-0.08261984,0.42979807
12548000,0.19843921,-0.08261982,0.42979807
12560000,0.19843923,-0.08261982,0.42979807
12568000,0.19843923,-0.08261984,0.42979807
12580000,0.19843924,-0.08261984,0.42979807
12588000,0.19977894,-0.08069046,0.43041378
12600000,0.19977896,-0.08069046,0.43041378
12608000,0.19977896,-0.08069045,0.43041378
12620000,0.19977897,-0.08069045,0.43041378
12628000,0.19977897,-0.080690466,0.43041378
12640000,0.1997469,-0.08197942,0.4278093
12648000,0.1997469,-0.08197941,0.4278093
12660000,0.19974692,-0.0819794,0.4278093
12668000,0.19974692,-0.081979394,0.4278093
12680000,0.19974694,-0.081979394,0.4278093
12688000,0.20232147,-0.07913003,0.42836502
12700000,0.20232148,-0.07913003,0.42836502
12708000,0.20232148,-0.07913002,0.42836502
12720000,0.20232148,-0.07913002,0.42836502
12728000,0.2023215,-0.07913001,0.42836502
12740000,0.20020404,-0.08283786,0.42827624
12748000,0.20020406,-0.08283787,0.42827624
12760000,0.20020406,-0.08283787,0.42827624
12768000,0.20020407,-0.08283786,0.42827624
12780000,0.20020407,-0.08283786,0.42827624
12788000,0.19877128,-0.08017317,0.42989528
12800000,0.1987713,-0.08017317,0.42989528
12808000,0.1987713,-0.08017319,0.42989525
12820000,0.19877131,-0.08017319,0.42989525
12828000,0.19877131,-0.08017318,0.42989525
12840000,0.20004994,-0.08127527,0.43110624
12848000,0.20004994,-0.081275284,0.43110624
12860000,0.20004995,-0.081275284,0.4311062
12868000,0.20004995,-0.08127528,0.4311062
12880000,0.20004997,-0.08127528,0.4311062
12888000,0.20004997,-0.08127526,0.4311062
12900000,0.20047005,-0.08338117,0.4286459
12908000,0.20047006,-0.08338118,0.42864588
12920000,0.20047006,-0.08338118,0.42864588
12928000,0.20047006,-0.083381176,0.42864588
12940000,0.20047008,-0.08338117,0.42864588
12948000,0.19887532,-0.077566445,0.42811522
12960000,0.19887534,-0.077566445,0.42811522
12968000,0.19887534,-0.07756646,0.42811522
12980000,0.19887535,-0.07756646,0.42811522
12988000,0.19887535,-0.077566445,0.42811522
13000000,0.20178343,-0.080267414,0.42904186
13008000,0.20178343,-0.08026741,0.42904186
13020000,0.20178343,-0.08026741,0.42904186
13028000,0.20178345,-0.08026742,0.42904186
13040000,0.20178345,-0.08026742,0.42904186
13048000,0.20178346,-0.080267414,0.42904186
13060000,0.19830726,-0.07808441,0.42714912
13068000,0.19830726,-0.0780844,0.42714912
13080000,0.19830728,-0.078084394,0.42714912
13088000,0.19830728,-0.07808442,0.4271491
13100000,0.19992211,-0.079340436,0.4265143
13108000,0.19992213,-0.07934043,0.4265143
13120000,0.19992213,-0.07934043,0.4265143
13128000,0.19992214,-0.07934044,0.4265143
13140000,0.19992214,-0.079340436,0.4265143
13148000,0.19992214,-0.07934043,0.4265143
13160000,0.19890279,-0.083062924,0.43038416
13168000,0.19890279,-0.08306292,0.43038416
13180000,0.19890279,-0.08306291,0.43038416
13188000,0.1989028,-0.08306293,0.43038416
13200000,0.1989028,-0.083062924,0.43038416
13208000,0.20037806,-0.08043523,0.42604527
13220000,0.20037808,-0.08043523,0.42604527
13228000,0.20037808,-0.08043522,0.42604527
13240000,0.20037809,-0.08043522,0.42604527
13248000,0.20037809,-0.08043523,0.42604524
13260000,0.19918339,-0.08164515,0.43192208
13268000,0.1991834,-0.081645146,0.43192208
13280000,0.1991834,-0.08164514,0.43192208
13288000,0.19918342,-0.08164513,0.43192208
13300000,0.19918342,-0.08164513,0.43192208
13308000,0.20330384,-0.08317308,0.429102
13320000,0.20330386,-0.08317308,0.429102
13328000,0.20330386,-0.083173074,0.429102
13340000,0.20330386,-0.083173074,0.429102
13348000,0.20330387,-0.08317306,0.429102
13360000,0.1983325,-0.08084025,0.4279702
13368000,0.1983325,-0.08084027,0.4279702
13380000,0.19833252,-0.08084027,0.4279702
13388000,0.19833252,-0.08084025,0.4279702
13400000,0.19833252,-0.08084025,0.4279702
13408000,0.19833253,-0.080840245,0.4279702
13420000,0.20177096,-0.085101105,0.42695457
13428000,0.20177096,-0.08510112,0.42695457
13440000,0.20177096,-0.08510112,0.42695457
13448000,0.20177098,-0.08510111,0.42695457
13460000,0.20177098,-0.08510111,0.42695457
13468000,0.20092793,-0.080010474,0.42973635
13480000,0.20092793,-0.080010474,0.42973635
13488000,0.20092794,-0.08001047,0.42973635
13500000,0.20092794,-0.08001046,0.42973635
13508000,0.20092796,-0.08001045,0.42973635
13520000,0.19926834,-0.083509296,0.43120852
13528000,0.19926834,-0.08350931,0.4312085
13540000,0.19926836,-0.08350931,0.4312085
13548000,0.19926836,-0.0835093,0.4312085
13560000,0.19926837,-0.083509296,0.4312085
13568000,0.19926837,-0.08350929,0.4312085
13580000,0.20174736,-0.08203886,0.42951745
13588000,0.20174736,-0.08203887,0.42951745
13600000,0.20174736,-0.08203887,0.42951745
13608000,0.20174737,-0.082038864,0.42951745
13620000,0.20162007,-0.082529835,0.42854157
13628000,0.20162007,-0.08252983,0.42854157
13640000,0.20162007,-0.08252984,0.42854157
13648000,0.20162009,-0.08252984,0.42854157
13660000,0.2016201,-0.082529835,0.42854157
13668000,0.2016201,-0.08252983,0.42854157
13680000,0.19898553,-0.08138345,0.42789936
13688000,0.19898553,-0.081383444,0.42789936
13700000,0.19898553,-0.08138344,0.42789936
13708000,0.19898555,-0.08138346,0.42789933
13720000,0.19898555,-0.08138345,0.42789933
13728000,0.2017166,-0.08177967,0.42878374
13740000,0.20171662,-0.08177967,0.42878374
13748000,0.20171662,-0.08177969,0.42878374
13760000,0.20171663,-0.08177969,0.42878374
13768000,0.20171663,-0.08177968,0.42878374
13780000,0.20069462,-0.08353228,0.42726648
13788000,0.20069462,-0.083532274,0.42726648
13800000,0.20069462,-0.08353227,0.42726648
13808000,0.20069464,-0.08353229,0.42726648
13820000,0.20069464,-0.08353228,0.42726648
13828000,0.20069465,-0.083532274,0.42726648
13840000,0.19962499,-0.08099645,0.43025512
13848000,0.19962499,-0.08099644,0.43025512
13860000,0.199625,-0.08099644,0.4302551
13868000,0.199625,-0.080996454,0.4302551
13880000,0.20077088,-0.08416554,0.42838526
13888000,0.20077088,-0.084165536,0.42838526
13900000,0.2007709,-0.084165536,0.42838526
13908000,0.2007709,-0.08416552,0.42838523
13920000,0.20077091,-0.08416552,0.42838523
13928000,0.20077091,-0.084165536,0.42838523
13940000,0.19916356,-0.08085607,0.4294437
13948000,0.19916356,-0.08085606,0.4294437
13960000,0.19916357,-0.08085606,0.4294437
13968000,0.19916357,-0.08085605,0.4294437
13980000,0.19916359,-0.08085605,0.4294437
13988000,0.20052919,-0.0789351,0.4278914
14000000,0.2005292,-0.0789351,0.4278914
14008000,0.2005292,-0.078935094,0.4278914
14020000,0.20052922,-0.078935094,0.4278914
14028000,0.20052922,-0.07893508,0.4278914
14040000,0.20232873,-0.080733195,0.4286475
14048000,0.20232873,-0.08073321,0.4286475
14060000,0.20232874,-0.08073321,0.4286475
14068000,0.20232874,-0.0807332,0.4286475
14080000,0.20232876,-0.0807332,0.4286475
14088000,0.20018615,-0.08198574,0.43160418
14100000,0.20018615,-0.08198574,0.43160415
14108000,0.20018616,-0.081985734,0.43160415
14120000,0.20018616,-0.081985734,0.43160415
14128000,0.20018618,-0.08198572,0.43160415
14140000,0.20018618,-0.08198572,0.43160415
14148000,0.20160125,-0.079687774,0.42745325
14160000,0.20160127,-0.079687774,0.42745325
14168000,0.20160127,-0.07968776,0.42745322
14180000,0.20160128,-0.07968776,0.42745322
14188000,0.20160128,-0.07968775,0.42745322
14200000,0.20155491,-0.08140995,0.42899892
14208000,0.20155491,-0.08140997,0.42899892
14220000,0.20155492,-0.08140997,0.42899892
14228000,0.20155492,-0.08140995,0.42899892
14240000,0.20155492,-0.08140995,0.42899892
14248000,0.19728015,-0.07863358,0.4278166
14260000,0.19728015,-0.07863358,0.4278166
14268000,0.19728017,-0.07863359,0.4278166
14280000,0.19728017,-0.07863359,0.4278166
14288000,0.19728017,-0.078633584,0.4278166
14300000,0.200142,-0.07931851,0.4316921
14308000,0.200142,-0.0793185,0.4316921
14320000,0.20014201,-0.0793185,0.4316921
14328000,0.20014201,-0.079318516,0.43169206
14340000,0.20014203,-0.079318516,0.43169206
14348000,0.2017656,-0.08093266,0.4262695
14360000,0.20176561,-0.08093266,0.4262695
14368000,0.20176561,-0.08093268,0.4262695
14380000,0.20176563,-0.08093268,0.4262695
14388000,0.20176563,-0.08093267,0.4262695
14400000,0.20203404,-0.07898951,0.42826334
14408000,0.20203406,-0.0789895,0.42826334
14420000,0.20203406,-0.0789895,0.42826334
14428000,0.20203407,-0.07898951,0.42826334
14440000,0.20203407,-0.07898951,0.42826334
14448000,0.20203409,-0.078989506,0.42826334
14460000,0.19896851,-0.08260321,0.4300352
14468000,0.19896853,-0.082603194,0.4300352
14480000,0.19896853,-0.082603194,0.4300352
14488000,0.19896853,-0.08260321,0.4300352
14500000,0.19896854,-0.08260321,0.4300352
14508000,0.20054692,-0.08179102,0.42844358
14520000,0.20054692,-0.08179102,0.42844358
14528000,0.20054694,-0.081791006,0.42844358
14540000,0.20054694,-0.081791006,0.42844358
14548000,0.20054695,-0.08179102,0.42844358
14560000,0.202918,-0.083065,0.42948434
14568000,0.20291801,-0.083064996,0.42948434
14580000,0.20291801,-0.083064996,0.4294843
14588000,0.20291802,-0.08306498,0.4294843
14600000,0.20291802,-0.08306498,0.4294843
14608000,0.20291804,-0.083064996,0.4294843
14620000,0.19796996,-0.080970526,0.42993104
14628000,0.19796997,-0.08097052,0.42993104
14640000,0.19796997,-0.08097052,0.42993104
14648000,0.19796999,-0.0809705,0.42993104
14660000,0.19942164,-0.083582476,0.42495778
14668000,0.19942164,-0.0835825,0.42495778
14680000,0.19942166,-0.08358249,0.42495778
14688000,0.19942166,-0.08358248,0.42495778
14700000,0.19942167,-0.08358248,0.42495775
14708000,0.19942167,-0.0835825,0.42495775
14720000,0.201505,-0.08068515,0.42700142
14728000,0.201505,-0.080685146,0.42700142
14740000,0.20150502,-0.080685146,0.42700142
14748000,0.20150502,-0.08068513,0.42700142
14760000,0.20150504,-0.08068513,0.42700142
14768000,0.20056202,-0.081999056,0.42981145
14780000,0.20056202,-0.081999056,0.42981145
14788000,0.20056203,-0.08199904,0.42981145
14800000,0.20056203,-0.08199904,0.42981145
14808000,0.20056204,-0.08199903,0.42981145
14820000,0.2010483,-0.083207436,0.4311708
14828000,0.2010483,-0.08320745,0.4311708
14840000,0.20104831,-0.08320745,0.4311708
14848000,0.20104831,-0.08320744,0.4311708
14860000,0.20104831,-0.08320744,0.43117076
14868000,0.2014605,-0.08200775,0.42904228
14880000,0.2014605,-0.08200775,0.42904228
14888000,0.2014605,-0.082007766,0.42904228
14900000,0.20146051,-0.082007766,0.42904228
14908000,0.20146051,-0.08200775,0.42904228
14920000,0.20080078,-0.08001151,0.4326167
14928000,0.20080078,-0.0800115,0.4326167
14940000,0.20080079,-0.0800115,0.4326167
14948000,0.20080079,-0.08001152,0.4326167
14960000,0.2008008,-0.08001152,0.4326167
14968000,0.2008008,-0.08001151,0.4326167
14980000,0.20106846,-0.08227815,0.4299993
14988000,0.20106848,-0.08227816,0.4299993
15000000,0.20106848,-0.08227816,0.4299993
15008000,0.20106848,-0.08227815,0.4299993
15020000,0.20106849,-0.08227815,0.4299993
15028000,0.19851603,-0.081156164,0.428475
15040000,0.19851604,-0.081156164,0.428475
15048000,0.19851604,-0.08115618,0.428475
15060000,0.19851604,-0.08115618,0.428475
15068000,0.19851606,-0.08115617,0.428475
15080000,0.19991723,-0.08163295,0.43060014
15088000,0.19991723,-0.081632935,0.43060014
15100000,0.19991724,-0.081632935,0.43060014
15108000,0.19991724,-0.08163295,0.43060014
15120000,0.19991724,-0.08163295,0.43060014
15128000,0.1985611,-0.078393295,0.428454
15140000,0.1985611,-0.07839329,0.42845398
15148000,0.19856112,-0.07839328,0.42845398
15160000,0.19856112,-0.07839328,0.42845398
15168000,0.19856113,-0.078393295,0.42845398
15180000,0.19856113,-0.078393295,0.42845398
15188000,0.2021265,-0.0790285,0.43059754
15200000,0.20212652,-0.0790285,0.43059754
15208000,0.20212652,-0.079028495,0.43059754
15220000,0.20212653,-0.07902849,0.43059754
15228000,0.20212653,-0.07902851,0.43059754
15240000,0.20271076,-0.081999205,0.43322048
15248000,0.20271078,-0.0819992,0.43322048
15260000,0.20271078,-0.0819992,0.43322048
15268000,0.20271079,-0.08199919,0.43322048
15280000,0.20271079,-0.08199918,0.43322045
15288000,0.19811489,-0.08231977,0.43100286
15300000,0.19811489,-0.08231976,0.43100286
15308000,0.1981149,-0.08231975,0.43100286
15320000,0.1981149,-0.08231975,0.43100283
15328000,0.1981149,-0.08231977,0.43100283
15340000,0.19894867,-0.08537129,0.42659777
15348000,0.19894867,-0.08537128,0.42659777
15360000,0.19894868,-0.08537128,0.42659777
15368000,0.19894868,-0.08537127,0.42659777
15380000,0.1989487,-0.08537127,0.42659777
15388000,0.20057964,-0.08583541,0.42836878
15400000,0.20057964,-0.08583541,0.42836878
15408000,0.20057966,-0.085835405,0.42836878
15420000,0.20057966,-0.085835405,0.42836878
15428000,0.20057967,-0.08583539,0.42836878
15440000,0.20129354,-0.08281346,0.42729762
15448000,0.20129354,-0.08281347,0.42729762
15460000,0.20129356,-0.08281347,0.42729762
15468000,0.20129356,-0.082813464,0.42729762
15480000,0.20129356,-0.082813464,0.42729762
15488000,0.20129357,-0.08281345,0.42729762
15500000,0.19847716,-0.08156371,0.42994618
15508000,0.19847716,-0.081563726,0.42994618
15520000,0.19847718,-0.081563726,0.42994618
15528000,0.19847718,-0.08156372,0.42994618
15540000,0.1984772,-0.08156371,0.42994618
15548000,0.20240481,-0.08188895,0.42914978
15560000,0.20240483,-0.08188895,0.42914978
15568000,0.20240483,-0.081888966,0.42914978
15580000,0.20240484,-0.081888966,0.42914978
15588000,0.20240484,-0.08188895,0.42914978
15600000,0.20196177,-0.08101398,0.42957684
15608000,0.20196179,-0.08101399,0.42957684
15620000,0.20196179,-0.08101399,0.42957684
15628000,0.2019618,-0.081013985,0.42957684
15640000,0.2019618,-0.081013985,0.42957684
15648000,0.20148245,-0.081296295,0.43056855
15660000,0.20148246,-0.081296295,0.43056855
15668000,0.20148246,-0.08129631,0.43056855
15680000,0.20148247,-0.08129631,0.43056855
15688000,0.20148247,-0.081296295,0.43056855
15700000,0.1992562,-0.08277273,0.4291348
15708000,0.1992562,-0.082772724,0.4291348
15720000,0.19925621,-0.08277272,0.4291348
15728000,0.19925621,-0.08277274,0.4291348
15740000,0.19925621,-0.08277273,0.4291348
15748000,0.19925623,-0.082772724,0.4291348
15760000,0.20073238,-0.0843862,0.4295482
15768000,0.20073238,-0.084386185,0.4295482
15780000,0.2007324,-0.084386185,0.4295482
15788000,0.2007324,-0.0843862,0.42954817
15800000,0.20073241,-0.0843862,0.42954817
15808000,0.20078951,-0.08382591,0.42827943
15820000,0.20078951,-0.08382591,0.42827943
15828000,0.20078953,-0.08382589,0.42827943
15840000,0.20078953,-0.08382589,0.42827943
15848000,0.20078954,-0.083825916,0.42827943
15860000,0.20284094,-0.08200736,0.42913654
15868000,0.20284094,-0.082007356,0.42913654
15880000,0.20284095,-0.082007356,0.42913654
15888000,0.20284095,-0.08200735,0.42913654
15900000,0.20284097,-0.08200737,0.4291365
15908000,0.20168908,-0.080872074,0.42757922
15920000,0.20168908,-0.08087207,0.42757922
15928000,0.2016891,-0.08087206,0.42757922
15940000,0.2016891,-0.08087206,0.42757922
15948000,0.2016891,-0.080872074,0.42757922
15960000,0.20168911,-0.080872074,0.42757922
15968000,0.19951445,-0.082686335,0.43126673
15980000,0.19951445,-0.082686335,0.43126673
15988000,0.19951446,-0.08268633,0.43126673
16000000,0.19951446,-0.08268633,0.43126673
16008000,0.19951446,-0.08268634,0.43126673
16020000,0.20418543,-0.08100972,0.4309788
16028000,0.20418543,-0.081009716,0.4309788
16040000,0.20418544,-0.081009716,0.4309788
16048000,0.20418544,-0.0810097,0.4309788
16060000,0.20418546,-0.0810097,0.4309788
16068000,0.2000155,-0.079809695,0.42727685
16080000,0.20001552,-0.079809695,0.42727685
16092000,0.20001552,-0.079809695,0.42727685
16100000,0.20001552,-0.07980969,0.42727685
16112000,0.20001553,-0.07980968,0.42727682
16119999,0.20526995,-0.08267611,0.43004075
16128000,0.20526995,-0.08267613,0.43004075
16139999,0.20526996,-0.08267613,0.43004072
16148000,0.20526996,-0.08267611,0.43004072
16160000,0.20526996,-0.08267611,0.43004072
16168000,0.20273773,-0.07914743,0.42924625
16180000,0.20273773,-0.07914743,0.42924625
16188000,0.20273775,-0.07914744,0.42924625
16200000,0.20273775,-0.07914744,0.42924625
16208000,0.20273776,-0.07914743,0.42924625
16220000,0.20328219,-0.08312022,0.42977917
16228000,0.20328219,-0.083120234,0.42977917
16240000,0.2032822,-0.083120234,0.42977917
