timestamp,timestamp_sample,control[0],control[1],control[2],control[3],control[4],control[5],control[6],control[7]
1940000,1940000,-0.008306532,0.0060909446,0.00048675956,0.0,0.0,0.0,0.0,0.0
2040000,2040000,-0.0015232436,0.0016527605,-9.4413015e-05,0.0,0.0,0.0,0.0,0.0
2140000,2140000,-0.008782671,-0.0014170838,-0.00085279223,0.0,0.0,0.0,0.0,0.0
2240000,2240000,-0.008610416,-0.0068571228,-0.00069439417,0.0,0.0,0.0,0.0,0.0
2340000,2340000,0.025643239,0.021204978,-0.00046171978,0.08,0.0,0.0,0.0,-1.0
2440000,2440000,0.01901033,0.021324914,0.00020762968,0.08,0.0,0.0,0.0,-1.0
2540000,2540000,0.025684731,0.030793777,-0.0006564152,0.08,0.0,0.0,0.0,-1.0
2640000,2640000,0.03117042,0.028707385,-0.0007205694,0.08,0.0,0.0,0.0,-1.0
2744000,2744000,0.027154313,0.029815132,0.0020044697,0.08,0.0,0.0,0.0,-1.0
2840000,2840000,0.03069254,0.027466396,-0.0009276893,0.08,0.0,0.0,0.0,-1.0
2940000,2940000,0.026605712,0.036239404,-0.0012783223,0.08,0.0,0.0,0.0,-1.0
3040000,3040000,0.025128927,0.02582587,0.0004618886,0.08,0.0,0.0,0.0,-1.0
3140000,3140000,0.02516812,0.03453003,0.00026240383,0.08,0.0,0.0,0.0,-1.0
3240000,3240000,0.03340178,0.029262261,0.0008982812,0.08,0.0,0.0,0.0,-1.0
3340000,3340000,0.024580866,0.035137773,-0.0018275244,0.08,0.0,0.0,0.0,-1.0
3440000,3440000,0.02566263,0.034132138,-1.7622999e-05,0.08,0.0,0.0,0.0,-1.0
3540000,3540000,0.031949535,0.03714212,5.410217e-05,0.08,0.0,0.0,0.0,-1.0
3640000,3640000,0.024506973,0.037105657,0.001004093,0.08,0.0,0.0,0.0,-1.0
3740000,3740000,0.030575108,0.035817042,3.4933862e-05,0.08,0.0,0.0,0.0,-1.0
3840000,3840000,0.03776052,0.038406584,0.0016999053,0.08,0.0,0.0,0.0,-1.0
3940000,3940000,0.022305386,0.042665455,1.8186356e-05,0.08,0.0,0.0,0.0,-1.0
4039999,4039999,0.027431048,0.05246911,0.0008859089,0.08,0.0,0.0,0.0,-1.0
4143999,4143999,0.02676236,0.046945937,0.00097362464,0.08,0.0,0.0,0.0,-1.0
4244000,4244000,0.03334061,0.049214248,0.0010837595,0.08,0.0,0.0,0.0,-1.0
4344000,4344000,0.022115082,0.040655635,-0.00055703445,0.08,0.0,0.0,0.0,-1.0
4444000,4444000,0.030424701,0.041307434,0.0014000167,0.08,0.0,0.0,0.0,-1.0
4544000,4544000,0.025008941,0.04659607,0.0005706802,0.08,0.0,0.0,0.0,-1.0
4648000,4648000,0.03597687,0.04711402,0.0014052585,0.08,0.0,0.0,0.0,-1.0
4744000,4744000,0.025598608,0.052587498,0.0009928022,0.08,0.0,0.0,0.0,-1.0
4848000,4848000,0.028296467,0.03912279,-0.0010054939,0.08,0.0,0.0,0.0,-1.0
4948000,4948000,0.024250448,0.045771256,0.00062934915,0.08,0.0,0.0,0.0,-1.0
5044000,5044000,0.03650255,0.039122023,-0.00035568606,0.08,0.0,0.0,0.0,-1.0
5148000,5148000,0.030419623,0.045463767,-0.0024215986,0.08,0.0,0.0,0.0,-1.0
5244000,5244000,0.04181848,0.040494286,-0.001360672,0.08,0.0,0.0,0.0,-1.0
5344000,5344000,0.026034571,0.048020452,-0.00023066885,0.08,0.0,0.0,0.0,-1.0
5444000,5444000,0.025373697,0.048914157,0.00016364032,0.08,0.0,0.0,0.0,-1.0
5544000,5544000,0.028935887,0.03854214,0.00049337273,0.08,0.0,0.0,0.0,-1.0
5648000,5648000,0.033551153,0.04574623,0.0015813254,0.08,0.0,0.0,0.0,-1.0
5744000,5744000,0.030729735,0.052437883,-8.662807e-05,0.08,0.0,0.0,0.0,-1.0
5844000,5844000,0.019281175,0.053635128,-0.0005013047,0.08,0.0,0.0,0.0,-1.0
5944000,5944000,0.023890149,0.03688258,0.0013261618,0.08,0.0,0.0,0.0,-1.0
6048000,6048000,0.027611718,0.043411165,0.0006885833,0.08,0.0,0.0,0.0,-1.0
6148000,6148000,0.022749985,0.045760345,-0.0007627668,0.08,0.0,0.0,0.0,-1.0
6244000,6244000,0.023114624,0.037762746,0.00017170246,0.08,0.0,0.0,0.0,-1.0
6344000,6344000,0.020775413,0.049493346,-0.0011290081,0.08,0.0,0.0,0.0,-1.0
6444000,6444000,0.027712397,0.047559902,-0.00048459554,0.08,0.0,0.0,0.0,-1.0
6544000,6544000,0.02816673,0.035742126,0.0012852957,0.08,0.0,0.0,0.0,-1.0
6644000,6644000,0.027483072,0.044011254,9.153733e-05,0.08,0.0,0.0,0.0,-1.0
6748000,6748000,0.03165449,0.038357444,0.0017360499,0.08,0.0,0.0,0.0,-1.0
6848000,6848000,0.030992687,0.037471067,-0.00145927,0.08,0.0,0.0,0.0,-1.0
6944000,6944000,0.02789334,0.040427722,0.0018665927,0.08,0.0,0.0,0.0,-1.0
7048000,7048000,0.02433421,0.0351388,-0.0010798573,0.08,0.0,0.0,0.0,-1.0
7144000,7144000,0.032389853,0.0536484,0.00066983694,0.08,0.0,0.0,0.0,-1.0
7244000,7244000,0.03619783,0.0385596,0.00090893096,0.08,0.0,0.0,0.0,-1.0
7344000,7344000,0.020528603,0.032798983,0.00038924615,0.08,0.0,0.0,0.0,-1.0
7444000,7444000,0.016475093,0.042892516,-0.00055798556,0.08,0.0,0.0,0.0,-1.0
7544000,7544000,0.027533075,0.043925397,-0.0017129009,0.08,0.0,0.0,0.0,-1.0
7644000,7644000,0.033662062,0.029116774,0.0007443162,0.08,0.0,0.0,0.0,-1.0
7744000,7744000,0.016968235,0.031682163,-0.0010025309,0.08,0.0,0.0,0.0,-1.0
7848000,7848000,0.011315175,0.033681426,0.0012523766,0.08,0.0,0.0,0.0,-1.0
7944000,7944000,0.031011978,0.032111894,-0.002236269,0.08,0.0,0.0,0.0,-1.0
8048000,8048000,0.019332336,0.04045124,0.0014724004,0.08,0.0,0.0,0.0,-1.0
8147999,8147999,0.026348272,0.03239176,0.0015661874,0.08,0.0,0.0,0.0,-1.0
8248000,8248000,0.020964205,0.034801953,-0.0010343802,0.08,0.0,0.0,0.0,-1.0
8348000,8348000,0.018972576,0.038923133,-0.00035522785,0.08,0.0,0.0,0.0,-1.0
8448000,8448000,0.017273124,0.031367466,0.0011083881,0.08,0.0,0.0,0.0,-1.0
8548000,8548000,0.023969319,0.027404495,0.00052124745,0.08,0.0,0.0,0.0,-1.0
8648000,8648000,0.018707333,0.030166993,0.0009147466,0.08,0.0,0.0,0.0,-1.0
8748000,8748000,0.027806303,0.02967299,-0.0010107775,0.08,0.0,0.0,0.0,-1.0
8852000,8852000,0.021408059,0.031669714,-0.0007127585,0.08,0.0,0.0,0.0,-1.0
8952000,8952000,0.022486798,0.024629565,-9.840783e-05,0.08,0.0,0.0,0.0,-1.0
9048000,9048000,0.021713052,0.03289628,-0.0021434638,0.08,0.0,0.0,0.0,-1.0
9148000,9148000,0.026840607,0.031518742,-0.00055963703,0.08,0.0,0.0,0.0,-1.0
9248000,9248000,0.019493448,0.023918783,-0.0008987111,0.08,0.0,0.0,0.0,-1.0
9352000,9352000,0.019937478,0.029535,-0.0015164483,0.08,0.0,0.0,0.0,-1.0
9448000,9448000,0.008007744,0.022635873,-7.2249327e-06,0.08,0.0,0.0,0.0,-1.0
9548000,9548000,0.01670097,0.031969026,0.00019193527,0.08,0.0,0.0,0.0,-1.0
9648000,9648000,0.027689673,0.022730853,-0.0005513068,0.08,0.0,0.0,0.0,-1.0
9748000,9748000,0.023235954,0.029936748,0.00011549024,0.08,0.0,0.0,0.0,-1.0
9848000,9848000,0.03477576,0.031389825,-0.00012308433,0.08,0.0,0.0,0.0,-1.0
9952000,9952000,0.017211542,0.02053317,0.00064335245,0.08,0.0,0.0,0.0,-1.0
10048000,10048000,0.028093979,0.02856569,0.0006077521,0.08,0.0,0.0,0.0,-1.0
10148000,10148000,0.018927347,0.021186056,-0.00062478625,0.08,0.0,0.0,0.0,-1.0
10252000,10252000,0.021800708,0.027518421,0.00013715224,0.08,0.0,0.0,0.0,-1.0
10348000,10348000,0.020716785,0.027542448,0.00067425106,0.08,0.0,0.0,0.0,-1.0
10448000,10448000,0.028891964,0.022130784,-0.0016608008,0.08,0.0,0.0,0.0,-1.0
10548000,10548000,0.02059163,0.021479972,-0.0016664456,0.08,0.0,0.0,0.0,-1.0
10652000,10652000,0.03313628,0.025543379,-0.0012864197,0.08,0.0,0.0,0.0,-1.0
10748000,10748000,0.02559366,0.025402902,-0.00055143173,0.08,0.0,0.0,0.0,-1.0
10848000,10848000,0.030858733,0.0331292,9.665886e-05,0.08,0.0,0.0,0.0,-1.0
10948000,10948000,0.027469596,0.023483586,-0.00050775654,0.08,0.0,0.0,0.0,-1.0
11048000,11048000,0.020835944,0.02579085,0.00052723434,0.08,0.0,0.0,0.0,-1.0
11148000,11148000,0.02122581,0.030463353,0.00064894365,0.08,0.0,0.0,0.0,-1.0
11248000,11248000,0.02770882,0.033621967,-0.0015461855,0.08,0.0,0.0,0.0,-1.0
11348000,11348000,0.027449725,0.028892074,0.00027662047,0.08,0.0,0.0,0.0,-1.0
11452000,11452000,0.026026325,0.018349774,0.0002183301,0.08,0.0,0.0,0.0,-1.0
11548000,11548000,0.031693365,0.030522987,0.0010144346,0.08,0.0,0.0,0.0,-1.0
11652000,11652000,0.021336956,0.022416528,0.0017973159,0.08,0.0,0.0,0.0,-1.0
11748000,11748000,0.03148867,0.022639532,-0.00071152806,0.08,0.0,0.0,0.0,-1.0
11848000,11848000,0.040337212,0.02050807,0.0009988367,0.08,0.0,0.0,0.0,-1.0
11948000,11948000,0.028218769,0.017387567,0.0006323461,0.08,0.0,0.0,0.0,-1.0
12048000,12048000,0.028153883,0.01591681,0.00082861277,0.08,0.0,0.0,0.0,-1.0
12148000,12148000,0.02560148,0.018435096,0.00015805529,0.08,0.0,0.0,0.0,-1.0
12252000,12252000,0.024538713,0.032946788,0.0013179764,0.08,0.0,0.0,0.0,-1.0
12348000,12348000,0.022729062,0.023236556,0.00016832731,0.08,0.0,0.0,0.0,-1.0
12448000,12448000,0.024765925,0.023622349,2.0362902e-05,0.08,0.0,0.0,0.0,-1.0
12548000,12548000,0.030821264,0.013728306,0.00010533235,0.08,0.0,0.0,0.0,-1.0
12648000,12648000,0.02269111,0.026898151,0.0009890525,0.08,0.0,0.0,0.0,-1.0
12748000,12748000,0.02238179,0.023255324,0.0013086135,0.08,0.0,0.0,0.0,-1.0
12848000,12848000,0.029528975,0.036772467,0.00069609116,0.08,0.0,0.0,0.0,-1.0
12948000,12948000,0.0313485,0.015531768,-0.0001497779,0.08,0.0,0.0,0.0,-1.0
13052000,13052000,0.028569689,0.02877371,-0.0003493258,0.08,0.0,0.0,0.0,-1.0
13148000,13148000,0.023491038,0.032288246,0.002129915,0.08,0.0,0.0,0.0,-1.0
13248000,13248000,0.020359155,0.030447405,0.0017645732,0.08,0.0,0.0,0.0,-1.0
13352000,13352000,0.029448126,0.03695787,0.0012705313,0.08,0.0,0.0,0.0,-1.0
13448000,13448000,0.028421577,0.017248774,0.0026663248,0.08,0.0,0.0,0.0,-1.0
13548000,13548000,0.035700623,0.027280133,0.00041363706,0.08,0.0,0.0,0.0,-1.0
13648000,13648000,0.015284161,0.01509059,0.0015406832,0.08,0.0,0.0,0.0,-1.0
13748000,13748000,0.024727829,0.014835795,-0.0012916944,0.08,0.0,0.0,0.0,-1.0
13848000,13848000,0.023163207,0.022164224,0.0009894773,0.08,0.0,0.0,0.0,-1.0
13952000,13952000,0.025739785,0.028259542,0.000100319645,0.08,0.0,0.0,0.0,-1.0
14052000,14052000,0.034942962,0.014543729,-0.0003840439,0.08,0.0,0.0,0.0,-1.0
14148000,14148000,0.007825021,0.034726672,0.001528389,0.08,0.0,0.0,0.0,-1.0
14248000,14248000,0.019440476,0.03549909,0.002061623,0.08,0.0,0.0,0.0,-1.0
14348000,14348000,0.023131529,0.03171005,-0.00035806542,0.08,0.0,0.0,0.0,-1.0
14452000,14452000,0.021499354,0.024463993,0.00010882332,0.08,0.0,0.0,0.0,-1.0
14548000,14548000,0.026232086,0.034631956,0.00033935817,0.08,0.0,0.0,0.0,-1.0
14648000,14648000,0.019907424,0.012152591,-0.00038051195,0.08,0.0,0.0,0.0,-1.0
14748000,14748000,0.036241572,0.0235735,0.0009503839,0.08,0.0,0.0,0.0,-1.0
14848000,14848000,0.019972168,0.032458894,0.0015118812,0.08,0.0,0.0,0.0,-1.0
14948000,14948000,0.026303362,0.021246454,0.0025631401,0.08,0.0,0.0,0.0,-1.0
15048000,15048000,0.0262775,0.023580475,0.0027309752,0.08,0.0,0.0,0.0,-1.0
15148000,15148000,0.029626593,0.014036656,-0.00074472727,0.08,0.0,0.0,0.0,-1.0
15248000,15248000,0.030593734,0.019398926,0.0014524229,0.08,0.0,0.0,0.0,-1.0
15348000,15348000,0.02899765,0.008552501,0.0006707204,0.08,0.0,0.0,0.0,-1.0
15448000,15448000,0.020498808,0.024344474,-0.0010213795,0.08,0.0,0.0,0.0,-1.0
15552000,15552000,0.03247157,0.02827306,0.0005426206,0.08,0.0,0.0,0.0,-1.0
15648000,15648000,0.028023843,0.02926318,0.0012210176,0.08,0.0,0.0,0.0,-1.0
15748000,15748000,0.03647312,0.020958276,-0.0007342533,0.08,0.0,0.0,0.0,-1.0
15848000,15848000,0.029752765,0.018222129,0.00032645062,0.08,0.0,0.0,0.0,-1.0
15948000,15948000,0.018577613,0.02332719,0.00025143262,0.08,0.0,0.0,0.0,-1.0
16048000,16048000,0.031080093,0.038505398,0.0003862433,0.08,0.0,0.0,0.0,-1.0
16156000,16156000,0.024595656,0.017763577,-0.00097440643,0.08,0.0,0.0,0.0,-1.0
16256000,16256000,0.03739641,0.013473215,-0.0006409228,0.08,0.0,0.0,0.0,-1.0
16352000,16352000,0.01851476,0.01999782,-0.00023321612,0.08,0.0,0.0,0.0,-1.0
16452000,16452000,0.026236504,0.019182233,0.0008762662,0.08,0.0,0.0,0.0,-1.0
16555999,16555999,0.026746208,0.021314548,0.00041319994,0.08,0.0,0.0,0.0,-1.0
16660000,16660000,0.029869122,0.020077366,-0.0008657911,0.08,0.0,0.0,0.0,-1.0
16760000,16760000,0.025833735,0.018766433,0.001390649,0.08,0.0,0.0,0.0,-1.0
16860000,16860000,0.027553126,0.032358367,-0.00030642748,0.08,0.0,0.0,0.0,-1.0
16956000,16956000,0.022829726,0.017425075,0.001505521,0.08,0.0,0.0,0.0,-1.0
17056000,17056000,0.024946108,0.016041862,0.00079935754,0.08,0.0,0.0,0.0,-1.0
17156000,17156000,0.020649903,0.019442247,0.00076972914,0.08,0.0,0.0,0.0,-1.0
17256000,17256000,0.027769696,0.027794238,-0.0007430203,0.08,0.0,0.0,0.0,-1.0
17356000,17356000,0.04070721,0.036535222,0.00095833367,0.08,0.0,0.0,0.0,-1.0
17456000,17456000,0.017876271,0.022809707,0.0014477402,0.08,0.0,0.0,0.0,-1.0
17556000,17556000,0.026058171,0.024943052,0.0004893737,0.08,0.0,0.0,0.0,-1.0
17660000,17660000,0.029199308,0.024881424,-0.0007360394,0.08,0.0,0.0,0.0,-1.0
17756000,17756000,0.04396905,0.025932651,0.0015673348,0.08,0.0,0.0,0.0,-1.0
17856000,17856000,0.017280396,0.028365659,0.0006287004,0.08,0.0,0.0,0.0,-1.0
17956000,17956000,0.019576112,0.016966881,0.0007617754,0.08,0.0,0.0,0.0,-1.0
18056000,18056000,0.027768025,0.02056627,-4.5442583e-05,0.08,0.0,0.0,0.0,-1.0
18156000,18156000,0.025388164,0.01079882,0.0016553033,0.08,0.0,0.0,0.0,-1.0
18260000,18260000,0.03435178,0.028668933,0.00039879588,0.08,0.0,0.0,0.0,-1.0
18356000,18356000,0.03037659,0.017805316,0.0012720558,0.08,0.0,0.0,0.0,-1.0
18460000,18460000,0.030827511,0.029198553,-0.00019449806,0.08,0.0,0.0,0.0,-1.0
18556000,18556000,0.02507671,0.01746526,-0.001671244,0.08,0.0,0.0,0.0,-1.0
18660000,18660000,0.015910733,0.025754739,-0.00026936628,0.08,0.0,0.0,0.0,-1.0
18756000,18756000,0.016995156,0.023193093,0.00013379741,0.08,0.0,0.0,0.0,-1.0
18856000,18856000,0.02328483,0.028441448,0.00083885714,0.08,0.0,0.0,0.0,-1.0
18956000,18956000,0.03453365,0.027038198,0.0003311096,0.08,0.0,0.0,0.0,-1.0
19056000,19056000,0.033023898,0.035812393,0.00020310318,0.08,0.0,0.0,0.0,-1.0
19160000,19160000,0.030990768,0.007935704,-0.0003944113,0.08,0.0,0.0,0.0,-1.0
19256000,19256000,0.01751632,0.02657941,-7.634517e-05,0.08,0.0,0.0,0.0,-1.0
19356000,19356000,0.020752007,0.016052656,0.0014694533,0.08,0.0,0.0,0.0,-1.0
19456000,19456000,0.018684607,0.028530456,0.0013700543,0.08,0.0,0.0,0.0,-1.0
19556000,19556000,0.014014555,0.023003202,0.0021968733,0.08,0.0,0.0,0.0,-1.0
19660000,19660000,0.031470314,0.024264412,0.0001421038,0.08,0.0,0.0,0.0,-1.0
19760000,19760000,0.018047323,0.028858762,0.0010294209,0.08,0.0,0.0,0.0,-1.0
19856000,19856000,0.025597414,0.02047584,-0.00082263583,0.08,0.0,0.0,0.0,-1.0
19956000,19956000,0.033544455,0.03201156,0.0015596206,0.08,0.0,0.0,0.0,-1.0
20056000,20056000,0.020165965,0.03276299,0.00077206775,0.08,0.0,0.0,0.0,-1.0
20156000,20156000,0.016107902,0.016852338,0.0012992028,0.08,0.0,0.0,0.0,-1.0
20256000,20256000,0.019731088,0.020634634,-0.0005011481,0.08,0.0,0.0,0.0,-1.0
20356000,20356000,0.021917596,0.01771164,0.0001428464,0.08,0.0,0.0,0.0,-1.0
20456000,20456000,0.0230371,0.013526067,0.0009666959,0.08,0.0,0.0,0.0,-1.0
20556000,20556000,0.028069008,0.01565836,0.0013851433,0.08,0.0,0.0,0.0,-1.0
20656000,20656000,0.016297843,0.023914624,0.0016889606,0.08,0.0,0.0,0.0,-1.0
20756000,20756000,0.02716848,0.034376483,3.9501258e-05,0.08,0.0,0.0,0.0,-1.0
20856000,20856000,0.020339487,0.008492615,-0.0017144019,0.08,0.0,0.0,0.0,-1.0
20956000,20956000,0.030706815,0.025248941,0.00042636678,0.08,0.0,0.0,0.0,-1.0
21056000,21056000,0.02821152,0.025413109,-0.0011314678,0.08,0.0,0.0,0.0,-1.0
21156000,21156000,0.018031327,0.030907318,-0.0003653787,0.08,0.0,0.0,0.0,-1.0
21256000,21256000,0.011176554,0.022552488,0.002122389,0.08,0.0,0.0,0.0,-1.0
21356000,21356000,0.025270723,0.025490262,-0.00021024053,0.08,0.0,0.0,0.0,-1.0
21456000,21456000,0.026320938,0.020406911,0.00087566173,0.08,0.0,0.0,0.0,-1.0
21560000,21560000,0.031388193,0.031002486,-0.00048716925,0.08,0.0,0.0,0.0,-1.0
21656000,21656000,0.025714925,0.023980776,-3.387495e-05,0.08,0.0,0.0,0.0,-1.0
21760000,21760000,0.03141355,0.027698746,0.0015191857,0.08,0.0,0.0,0.0,-1.0
21856000,21856000,0.032951612,0.030141352,0.0006767592,0.08,0.0,0.0,0.0,-1.0
21956000,21956000,0.026093721,0.024153661,0.002148261,0.08,0.0,0.0,0.0,-1.0
22056000,22056000,0.032719336,0.020002905,-0.0011084279,0.08,0.0,0.0,0.0,-1.0
22156000,22156000,0.03529657,0.023841908,6.921282e-05,0.08,0.0,0.0,0.0,-1.0
22256000,22256000,0.02507487,0.015374305,0.000689335,0.08,0.0,0.0,0.0,-1.0
22356000,22356000,0.030905098,0.016037488,0.00087472884,0.08,0.0,0.0,0.0,-1.0
22456000,22456000,0.018243896,0.026060719,0.00033013948,0.08,0.0,0.0,0.0,-1.0
22556000,22556000,0.015562392,0.01655956,0.0010562233,0.08,0.0,0.0,0.0,-1.0
22656000,22656000,0.02492173,0.019478433,0.0015702486,0.08,0.0,0.0,0.0,-1.0
22756000,22756000,0.027756087,0.015961539,-2.6563835e-05,0.08,0.0,0.0,0.0,-1.0
22856000,22856000,0.024645966,0.038815103,0.00011892337,0.08,0.0,0.0,0.0,-1.0
22960000,22960000,0.035675686,0.033967275,-2.8897077e-05,0.08,0.0,0.0,0.0,-1.0
23060000,23060000,0.016901415,0.0346931,0.0012940202,0.08,0.0,0.0,0.0,-1.0
23156000,23156000,0.019407604,0.02036775,0.003057789,0.08,0.0,0.0,0.0,-1.0
23256000,23256000,0.03589771,0.030475844,0.0010434625,0.08,0.0,0.0,0.0,-1.0
23356000,23356000,0.019862909,0.0133802295,0.0017564001,0.08,0.0,0.0,0.0,-1.0
23456000,23456000,0.032678444,0.02507449,0.0004571289,0.08,0.0,0.0,0.0,-1.0
23560000,23560000,0.02598921,0.019619966,-0.00018183654,0.08,0.0,0.0,0.0,-1.0
23656000,23656000,0.028443724,0.021337807,0.0019507289,0.08,0.0,0.0,0.0,-1.0
23756000,23756000,0.019769603,0.010939836,0.00021340903,0.08,0.0,0.0,0.0,-1.0
23856000,23856000,0.01797349,0.018933607,0.0005796576,0.08,0.0,0.0,0.0,-1.0
23960000,23960000,0.02497304,0.021196377,0.0010215796,0.08,0.0,0.0,0.0,-1.0
24056000,24056000,0.019440599,0.020348035,0.0004878121,0.08,0.0,0.0,0.0,-1.0
24156000,24156000,0.022306155,0.03442402,0.0031867733,0.08,0.0,0.0,0.0,-1.0
24256000,24256000,0.027656725,0.01703889,0.0015767155,0.08,0.0,0.0,0.0,-1.0
24356000,24356000,0.026800033,0.016345235,0.0022083018,0.08,0.0,0.0,0.0,-1.0
24456000,24456000,0.01921745,0.021101328,0.0028973867,0.08,0.0,0.0,0.0,-1.0
24556000,24556000,0.0281333,0.013622051,-0.000255399,0.08,0.0,0.0,0.0,-1.0
24656000,24656000,0.0027959514,0.017319119,0.000574372,0.08,0.0,0.0,0.0,-1.0
24756000,24756000,0.020099591,0.020730946,0.00072106236,0.08,0.0,0.0,0.0,-1.0
24856000,24856000,0.029289708,0.019695513,-0.00069631095,0.08,0.0,0.0,0.0,-1.0
24956000,24956000,0.028426006,0.014010237,-0.0010114436,0.08,0.0,0.0,0.0,-1.0
25056000,25056000,0.02962848,0.019171145,0.00045187894,0.08,0.0,0.0,0.0,-1.0
25156000,25156000,0.023239251,0.01776821,0.0015986335,0.08,0.0,0.0,0.0,-1.0
25256000,25256000,0.026361119,0.0166624,-0.0012130768,0.08,0.0,0.0,0.0,-1.0
25360000,25360000,0.021825014,0.039605588,0.000845306,0.08,0.0,0.0,0.0,-1.0
25456000,25456000,0.022310948,0.026741976,0.0020102162,0.08,0.0,0.0,0.0,-1.0
25556000,25556000,0.019759327,0.030305225,0.0009791345,0.08,0.0,0.0,0.0,-1.0
25656000,25656000,0.015075639,0.014711011,0.0032579214,0.08,0.0,0.0,0.0,-1.0
25760000,25760000,0.020521224,0.017098084,0.0010649263,0.08,0.0,0.0,0.0,-1.0
25856000,25856000,0.010739765,0.021465432,0.0007129758,0.08,0.0,0.0,0.0,-1.0
25960000,25960000,0.022287307,0.023336025,0.0009061416,0.08,0.0,0.0,0.0,-1.0
26060000,26060000,0.030861126,0.030959997,0.0024365387,0.08,0.0,0.0,0.0,-1.0
26156000,26156000,0.031882346,0.020366106,0.0005835505,0.08,0.0,0.0,0.0,-1.0
26256000,26256000,0.017347403,0.014895678,0.0015519494,0.08,0.0,0.0,0.0,-1.0
26356000,26356000,0.03148266,0.01883865,0.00092462444,0.08,0.0,0.0,0.0,-1.0
26456000,26456000,0.025335692,0.018938292,0.00044124128,0.08,0.0,0.0,0.0,-1.0
26556000,26556000,0.021956025,0.021411188,0.0013168565,0.08,0.0,0.0,0.0,-1.0
26656000,26656000,0.021486834,0.025754541,0.001640882,0.08,0.0,0.0,0.0,-1.0
26760000,26760000,0.022083666,0.011415773,0.00014793388,0.08,0.0,0.0,0.0,-1.0
26856000,26856000,0.028170489,0.024984187,0.0009711299,0.08,0.0,0.0,0.0,-1.0
26956000,26956000,0.038010456,0.012546042,0.0017013475,0.08,0.0,0.0,0.0,-1.0
27056000,27056000,0.032629,0.023079822,0.0025726168,0.08,0.0,0.0,0.0,-1.0
27160000,27160000,0.04900974,0.020479538,0.002479556,0.08,0.0,0.0,0.0,-1.0
27260000,27260000,0.010428623,0.019665398,0.0016947536,0.08,0.0,0.0,0.0,-1.0
27356000,27356000,0.008268156,0.023693021,-9.96286e-05,0.08,0.0,0.0,0.0,-1.0
27456000,27456000,0.003558511,0.027453281,0.00027190018,0.08,0.0,0.0,0.0,-1.0
27556000,27556000,0.029432915,0.029374491,0.0015005243,0.08,0.0,0.0,0.0,-1.0
27656000,27656000,0.022098646,0.021991795,0.0024543037,0.08,0.0,0.0,0.0,-1.0
27760000,27760000,0.024012886,0.019168768,0.0003142626,0.08,0.0,0.0,0.0,-1.0
27856000,27856000,0.02935262,0.03646433,-4.8415084e-05,0.08,0.0,0.0,0.0,-1.0
27960000,27960000,0.022119245,0.024456067,0.00025786675,0.08,0.0,0.0,0.0,-1.0
28056000,28056000,0.031182533,0.018154774,0.0014071516,0.08,0.0,0.0,0.0,-1.0
28156000,28156000,0.028985018,0.021324703,0.0012563051,0.08,0.0,0.0,0.0,-1.0
28256000,28256000,0.014545312,0.02139192,0.00071578723,0.08,0.0,0.0,0.0,-1.0
28356000,28356000,0.023644496,0.016199535,0.0019341226,0.08,0.0,0.0,0.0,-1.0
28456000,28456000,0.027638651,0.020136978,0.00045314027,0.08,0.0,0.0,0.0,-1.0
28556000,28556000,0.02770377,0.026504777,0.0017058619,0.08,0.0,0.0,0.0,-1.0
28656000,28656000,0.029275928,0.021104705,0.0008080259,0.08,0.0,0.0,0.0,-1.0
28756000,28756000,0.020305403,0.023559209,0.0004794645,0.08,0.0,0.0,0.0,-1.0
28856000,28856000,0.030099649,0.026136896,0.0016987742,0.08,0.0,0.0,0.0,-1.0
28956000,28956000,0.028888833,0.026850557,0.0004058239,0.08,0.0,0.0,0.0,-1.0
29056000,29056000,0.018219085,0.03150418,-0.00080928014,0.08,0.0,0.0,0.0,-1.0
29156000,29156000,0.028413542,0.029648725,0.0011535995,0.08,0.0,0.0,0.0,-1.0
29260000,29260000,0.013965048,0.012733585,0.0018518623,0.08,0.0,0.0,0.0,-1.0
29356000,29356000,0.033596296,0.0015564356,-0.0008875088,0.08,0.0,0.0,0.0,-1.0
29456000,29456000,0.02328389,0.024900025,0.0010683498,0.08,0.0,0.0,0.0,-1.0
29556000,29556000,0.022771277,0.030553782,-0.0003212542,0.08,0.0,0.0,0.0,-1.0
29656000,29656000,0.023879584,0.019734874,0.00014722867,0.08,0.0,0.0,0.0,-1.0
29760000,29760000,0.02202133,0.03541144,-0.0017602027,0.08,0.0,0.0,0.0,-1.0
29856000,29856000,0.02422154,0.01583916,0.0013741183,0.08,0.0,0.0,0.0,-1.0
29960000,29960000,0.02055404,0.026070964,0.0012147691,0.08,0.0,0.0,0.0,-1.0
30056000,30056000,0.028841319,0.020659046,0.00022355844,0.08,0.0,0.0,0.0,-1.0
30156000,30156000,0.03361592,0.033127837,-0.0017817229,0.08,0.0,0.0,0.0,-1.0
30260000,30260000,0.019197399,0.024932856,-0.0018255551,0.08,0.0,0.0,0.0,-1.0
30360000,30360000,0.02687985,0.027541097,0.002400027,0.08,0.0,0.0,0.0,-1.0
30456000,30456000,0.029404629,0.022142008,0.0010112372,0.08,0.0,0.0,0.0,-1.0
30556000,30556000,0.019020332,0.029169884,-0.0014044375,0.08,0.0,0.0,0.0,-1.0
30656000,30656000,0.03592497,0.03672164,0.00014366141,0.08,0.0,0.0,0.0,-1.0
30760000,30760000,0.029300941,0.0256261,0.0016673666,0.08,0.0,0.0,0.0,-1.0
30856000,30856000,0.020961842,0.024998672,0.001510622,0.08,0.0,0.0,0.0,-1.0
30956000,30956000,0.02206559,0.019782683,0.0014044645,0.08,0.0,0.0,0.0,-1.0
31060000,31060000,0.0347034,0.024362052,0.003698632,0.08,0.0,0.0,0.0,-1.0
31156000,31156000,0.019682512,0.025388988,0.0021159821,0.08,0.0,0.0,0.0,-1.0
31256000,31256000,0.02643577,0.030401023,0.0007500717,0.08,0.0,0.0,0.0,-1.0
31356000,31356000,0.037723556,0.030258691,0.0024604795,0.08,0.0,0.0,0.0,-1.0
31456000,31456000,0.017406011,0.038859367,0.0024406372,0.08,0.0,0.0,0.0,-1.0
31556000,31556000,0.030418556,0.0121434685,0.0016669153,0.08,0.0,0.0,0.0,-1.0
31656000,31656000,0.024159022,0.017683359,0.0007278946,0.08,0.0,0.0,0.0,-1.0
31756000,31756000,0.024325836,0.02596095,-0.00023666145,0.08,0.0,0.0,0.0,-1.0
31856000,31856000,0.019480363,0.0147574125,0.0006857254,0.08,0.0,0.0,0.0,-1.0
31956000,31956000,0.0187549,0.023160892,0.001653792,0.08,0.0,0.0,0.0,-1.0
32056000,32056000,0.024911612,0.017425667,0.0020016672,0.08,0.0,0.0,0.0,-1.0
32155999,32155999,0.016453136,0.02229701,0.0017200792,0.08,0.0,0.0,0.0,-1.0
32255999,32255999,0.025339864,0.018026216,0.0017094348,0.08,0.0,0.0,0.0,-1.0
32359999,32359999,0.020913268,0.024762979,0.0011285709,0.08,0.0,0.0,0.0,-1.0
32460000,32460000,0.022493415,0.02289312,0.0006317071,0.08,0.0,0.0,0.0,-1.0
32563999,32563999,0.040384065,0.011245435,0.0001451111,0.08,0.0,0.0,0.0,-1.0
32667999,32667999,0.0337934,0.019044697,2.1344982e-05,0.08,0.0,0.0,0.0,-1.0
32768000,32768000,0.034048922,0.037741322,0.0008895714,0.08,0.0,0.0,0.0,-1.0
32871999,32871999,0.020033078,0.039693616,0.0010608024,0.08,0.0,0.0,0.0,-1.0
32975999,32975999,0.020337839,0.038345695,0.0026651318,0.08,0.0,0.0,0.0,-1.0
33076000,33076000,0.029355738,0.029462285,-4.621968e-06,0.08,0.0,0.0,0.0,-1.0
33179999,33179999,0.021727601,0.019694146,0.00010484127,0.08,0.0,0.0,0.0,-1.0
33283999,33283999,0.022197891,0.02161279,-0.0005158174,0.08,0.0,0.0,0.0,-1.0
33383999,33383999,0.028119842,0.026880965,-0.0004604444,0.08,0.0,0.0,0.0,-1.0
33487999,33487999,0.017019162,0.032527715,0.00049226807,0.08,0.0,0.0,0.0,-1.0
33588000,33588000,0.026929125,0.016567912,0.0015235974,0.08,0.0,0.0,0.0,-1.0
33688000,33688000,0.031431157,0.032274794,0.0023818337,0.08,0.0,0.0,0.0,-1.0
33788000,33788000,0.030215139,0.032762285,0.002572424,0.08,0.0,0.0,0.0,-1.0
33888000,33888000,0.034095123,0.02249385,0.0004705864,0.08,0.0,0.0,0.0,-1.0
33988000,33988000,0.020880159,0.036515485,0.002640091,0.08,0.0,0.0,0.0,-1.0
34088000,34088000,0.03483002,0.018057587,0.0016931937,0.08,0.0,0.0,0.0,-1.0
34188000,34188000,0.02118373,0.02796934,0.0016030994,0.08,0.0,0.0,0.0,-1.0
34292000,34292000,0.023051543,0.03102243,0.0010704091,0.08,0.0,0.0,0.0,-1.0
34388000,34388000,0.032639444,0.021019878,-0.00015731408,0.08,0.0,0.0,0.0,-1.0
34488000,34488000,0.026630165,0.022247396,-0.0012763244,0.08,0.0,0.0,0.0,-1.0
34592000,34592000,0.017641418,0.026119411,0.0016594529,0.08,0.0,0.0,0.0,-1.0
34688000,34688000,0.039291658,0.03163091,0.0004833764,0.08,0.0,0.0,0.0,-1.0
34788000,34788000,0.027744377,0.03821842,0.0021633783,0.08,0.0,0.0,0.0,-1.0
34888000,34888000,0.021016814,0.03686404,0.0019982348,0.08,0.0,0.0,0.0,-1.0
34988000,34988000,0.019611657,0.025896331,0.0007713681,0.08,0.0,0.0,0.0,-1.0
35088000,35088000,0.020089377,0.029094843,-0.00041209694,0.08,0.0,0.0,0.0,-1.0
35188000,35188000,0.02823752,0.014357524,0.00029994204,0.08,0.0,0.0,0.0,-1.0
35288000,35288000,0.023087632,0.021764822,8.1518664e-07,0.08,0.0,0.0,0.0,-1.0
35388000,35388000,0.021927437,0.033306733,-0.00049435714,0.08,0.0,0.0,0.0,-1.0
35488000,35488000,0.014534562,0.021362493,-0.0026544337,0.08,0.0,0.0,0.0,-1.0
35588000,35588000,0.031258866,0.03278258,-0.00037550202,0.08,0.0,0.0,0.0,-1.0
35688000,35688000,0.022192873,0.024497781,0.00017644097,0.08,0.0,0.0,0.0,-1.0
35792000,35792000,0.024751054,0.02103725,-0.0006757243,0.08,0.0,0.0,0.0,-1.0
35888000,35888000,0.02108461,0.031830985,0.00040892535,0.08,0.0,0.0,0.0,-1.0
35988000,35988000,0.026529705,0.00860948,0.00077788776,0.08,0.0,0.0,0.0,-1.0
36088000,36088000,0.024655832,0.023944229,0.00084556825,0.08,0.0,0.0,0.0,-1.0
36188000,36188000,0.020294834,0.022564014,0.0007878059,0.08,0.0,0.0,0.0,-1.0
36288000,36288000,0.025089668,0.0164927,0.00038835465,0.08,0.0,0.0,0.0,-1.0
36388000,36388000,0.037732497,0.019905373,0.002275713,0.08,0.0,0.0,0.0,-1.0
36488000,36488000,0.025076438,0.018481273,0.0013430426,0.08,0.0,0.0,0.0,-1.0
36588000,36588000,0.020907331,0.024897123,0.0011884917,0.08,0.0,0.0,0.0,-1.0
36688000,36688000,0.023609497,0.02307979,0.0023245423,0.08,0.0,0.0,0.0,-1.0
36792000,36792000,0.017555393,0.028592583,0.00051805715,0.08,0.0,0.0,0.0,-1.0
36888000,36888000,0.027399788,0.029498413,0.00045526004,0.08,0.0,0.0,0.0,-1.0
36988000,36988000,0.02492401,0.032930233,0.0026530952,0.08,0.0,0.0,0.0,-1.0
37088000,37088000,0.0316281,0.02790131,0.0016894169,0.08,0.0,0.0,0.0,-1.0
37188000,37188000,0.03743699,0.024026552,0.0011604812,0.08,0.0,0.0,0.0,-1.0
37288000,37288000,0.01609993,0.023584312,0.0012255562,0.08,0.0,0.0,0.0,-1.0
37392000,37392000,0.034767136,0.033035852,0.001985998,0.08,0.0,0.0,0.0,-1.0
37492000,37492000,0.03240233,0.026893068,-0.0013919611,0.08,0.0,0.0,0.0,-1.0
37588000,37588000,0.034055013,0.022628449,0.001034852,0.08,0.0,0.0,0.0,-1.0
37688000,37688000,0.021946084,0.030571936,0.0012835304,0.08,0.0,0.0,0.0,-1.0
37792000,37792000,0.017731538,0.033530317,0.00063645124,0.08,0.0,0.0,0.0,-1.0
37888000,37888000,0.025454933,0.02679226,-0.0013795476,0.08,0.0,0.0,0.0,-1.0
37988000,37988000,0.026796335,0.030218508,0.0032267466,0.08,0.0,0.0,0.0,-1.0
38088000,38088000,0.026652817,0.026849827,0.00047363612,0.08,0.0,0.0,0.0,-1.0
38188000,38188000,0.018835744,0.009606593,0.0007541871,0.08,0.0,0.0,0.0,-1.0
38292000,38292000,0.028346766,0.03577306,0.0013934684,0.08,0.0,0.0,0.0,-1.0
38388000,38388000,0.01388638,0.02301818,0.0012586496,0.08,0.0,0.0,0.0,-1.0
38492000,38492000,0.022351656,0.032668576,0.0019834898,0.08,0.0,0.0,0.0,-1.0
38588000,38588000,0.027959092,0.029858934,0.0004609591,0.08,0.0,0.0,0.0,-1.0
38688000,38688000,0.027082955,0.03620906,-0.0006389616,0.08,0.0,0.0,0.0,-1.0
38788000,38788000,0.021851085,0.017308401,0.0012770093,0.08,0.0,0.0,0.0,-1.0
38888000,38888000,0.027759613,0.031258523,0.0005229714,0.08,0.0,0.0,0.0,-1.0
38988000,38988000,0.031783476,0.018105358,-0.0013998799,0.08,0.0,0.0,0.0,-1.0
39088000,39088000,0.02096375,0.029997203,6.7013134e-05,0.08,0.0,0.0,0.0,-1.0
39188000,39188000,0.021552796,0.025647141,0.0013454866,0.08,0.0,0.0,0.0,-1.0
39292000,39292000,0.023423973,0.036230776,0.00022095696,0.08,0.0,0.0,0.0,-1.0
39388000,39388000,0.016812839,0.030124791,-0.001299037,0.08,0.0,0.0,0.0,-1.0
39492000,39492000,0.03134577,0.026747474,0.0009796324,0.08,0.0,0.0,0.0,-1.0
39592000,39592000,0.037755277,0.02457872,0.0008397464,0.08,0.0,0.0,0.0,-1.0
39688000,39688000,0.0205468,0.02307244,0.0011459937,0.08,0.0,0.0,0.0,-1.0
39788000,39788000,0.021784848,0.01569566,0.00094292633,0.08,0.0,0.0,0.0,-1.0
39892000,39892000,0.021220747,0.020540018,0.00087612803,0.08,0.0,0.0,0.0,-1.0
39988000,39988000,0.01512825,0.026143895,-0.0019570244,0.08,0.0,0.0,0.0,-1.0
40088000,40088000,0.020578979,0.02297936,-0.00018314917,0.08,0.0,0.0,0.0,-1.0
40188000,40188000,0.03156144,0.025834283,-0.0003399991,0.08,0.0,0.0,0.0,-1.0
40288000,40288000,0.023340367,0.033179697,-0.001270156,0.08,0.0,0.0,0.0,-1.0
40388000,40388000,0.013693426,0.032383423,-0.0008748492,0.08,0.0,0.0,0.0,-1.0
40492000,40492000,0.015538066,0.034836464,-6.8977526e-05,0.08,0.0,0.0,0.0,-1.0
40592000,40592000,0.03175804,0.02475332,0.00020508944,0.08,0.0,0.0,0.0,-1.0
40688000,40688000,0.02140949,0.0363603,-0.0005578301,0.08,0.0,0.0,0.0,-1.0
40788000,40788000,0.031286173,0.018998452,0.0001519246,0.08,0.0,0.0,0.0,-1.0
40892000,40892000,0.02460969,0.035498746,7.859864e-05,0.08,0.0,0.0,0.0,-1.0
40992000,40992000,0.020763539,0.012854008,-0.0017601151,0.08,0.0,0.0,0.0,-1.0
41092000,41092000,0.026599748,0.022955453,0.0002639035,0.08,0.0,0.0,0.0,-1.0
41192000,41192000,0.025883542,0.027140075,-0.0007046154,0.08,0.0,0.0,0.0,-1.0
41288000,41288000,0.013066935,0.033035032,-0.0008633776,0.08,0.0,0.0,0.0,-1.0
41388000,41388000,0.014146748,0.029187862,-0.0009118908,0.08,0.0,0.0,0.0,-1.0
41488000,41488000,0.026534854,0.030895459,0.00018465538,0.08,0.0,0.0,0.0,-1.0
41588000,41588000,0.024561364,0.030308064,-3.982568e-06,0.08,0.0,0.0,0.0,-1.0
41688000,41688000,0.01957189,0.03365524,4.9344544e-05,0.08,0.0,0.0,0.0,-1.0
41792000,41792000,0.025999572,0.029259268,0.00031966597,0.08,0.0,0.0,0.0,-1.0
41888000,41888000,0.021571653,0.044216454,0.0010764765,0.08,0.0,0.0,0.0,-1.0
41992000,41992000,0.016346922,0.029540015,-0.0036636614,0.08,0.0,0.0,0.0,-1.0
42088000,42088000,0.025193164,0.027856678,-0.00018365346,0.08,0.0,0.0,0.0,-1.0
42188000,42188000,0.023132252,0.025318157,-0.0020368802,0.08,0.0,0.0,0.0,-1.0
42288000,42288000,0.0373723,0.01114449,-0.0018395629,0.08,0.0,0.0,0.0,-1.0
42388000,42388000,0.027810786,0.025843566,-0.0025472841,0.08,0.0,0.0,0.0,-1.0
42488000,42488000,0.026661316,0.03153777,-0.0015146037,0.08,0.0,0.0,0.0,-1.0
42588000,42588000,0.031742785,0.027759904,1.3311394e-06,0.08,0.0,0.0,0.0,-1.0
42688000,42688000,0.021767227,0.03587139,-0.0012473984,0.08,0.0,0.0,0.0,-1.0
42792000,42792000,0.035322502,0.022361625,-0.0014736485,0.08,0.0,0.0,0.0,-1.0
42892000,42892000,0.019257423,0.021523885,-0.0012902248,0.08,0.0,0.0,0.0,-1.0
42988000,42988000,0.019665003,0.020011589,-0.0015339371,0.08,0.0,0.0,0.0,-1.0
43088000,43088000,0.027913988,0.035935096,-0.0024181863,0.08,0.0,0.0,0.0,-1.0
43188000,43188000,0.019453801,0.03496787,-0.0020637873,0.08,0.0,0.0,0.0,-1.0
43288000,43288000,0.03657585,0.032749496,-0.001978305,0.08,0.0,0.0,0.0,-1.0
43388000,43388000,0.011638641,0.027158227,-0.0019036146,0.08,0.0,0.0,0.0,-1.0
43488000,43488000,0.026718894,0.027274324,0.00023931042,0.08,0.0,0.0,0.0,-1.0
43588000,43588000,0.023237567,0.032260843,-0.002800551,0.08,0.0,0.0,0.0,-1.0
43688000,43688000,0.03205132,0.023328178,-0.0031486664,0.08,0.0,0.0,0.0,-1.0
43788000,43788000,0.012123783,0.030231947,-0.002048946,0.08,0.0,0.0,0.0,-1.0
43888000,43888000,0.02263856,0.0329406,-0.0015310645,0.08,0.0,0.0,0.0,-1.0
43988000,43988000,0.02418271,0.034396417,-0.0039239004,0.08,0.0,0.0,0.0,-1.0
44088000,44088000,0.02090216,0.022865608,-0.0012140507,0.08,0.0,0.0,0.0,-1.0
44188000,44188000,0.024140162,0.026881095,-0.002276324,0.08,0.0,0.0,0.0,-1.0
44292000,44292000,0.015952744,0.0184578,-0.00033403691,0.08,0.0,0.0,0.0,-1.0
44388000,44388000,0.025357606,0.029637443,-0.0012383283,0.08,0.0,0.0,0.0,-1.0
44488000,44488000,0.013287453,0.037587784,-0.0055022975,0.08,0.0,0.0,0.0,-1.0
44588000,44588000,0.014376916,0.028112404,-0.0032786615,0.08,0.0,0.0,0.0,-1.0
44688000,44688000,0.022392027,0.03256546,-0.0020253202,0.08,0.0,0.0,0.0,-1.0
44788000,44788000,0.019899193,0.026362713,-0.0031988218,0.08,0.0,0.0,0.0,-1.0
44888000,44888000,0.018049572,0.03457394,-0.0030194805,0.08,0.0,0.0,0.0,-1.0
44992000,44992000,0.028705778,0.027184214,-0.0020315775,0.08,0.0,0.0,0.0,-1.0
45088000,45088000,0.015980832,0.030110624,-0.002947515,0.08,0.0,0.0,0.0,-1.0
45188000,45188000,0.027322687,0.025119083,-0.0021638896,0.08,0.0,0.0,0.0,-1.0
45288000,45288000,0.023622233,0.01964663,-0.0018700202,0.08,0.0,0.0,0.0,-1.0
45388000,45388000,0.026671175,0.020820595,-0.0036328267,0.08,0.0,0.0,0.0,-1.0
45488000,45488000,0.01254175,0.023977805,-0.002729614,0.08,0.0,0.0,0.0,-1.0
45592000,45592000,0.018031117,0.031954885,-0.000870404,0.08,0.0,0.0,0.0,-1.0
45688000,45688000,0.017055854,0.03338148,-0.004000061,0.08,0.0,0.0,0.0,-1.0
45788000,45788000,0.026094355,0.02254021,-0.0020165807,0.08,0.0,0.0,0.0,-1.0
45888000,45888000,0.023209758,0.03263755,-0.0050643194,0.08,0.0,0.0,0.0,-1.0
45988000,45988000,0.027479779,0.03431188,-0.0010800058,0.08,0.0,0.0,0.0,-1.0
46088000,46088000,0.021423273,0.03174437,-0.0012024117,0.08,0.0,0.0,0.0,-1.0
46188000,46188000,0.010686983,0.02952277,-0.0025522788,0.08,0.0,0.0,0.0,-1.0
46288000,46288000,0.02156556,0.0330804,-0.001668053,0.08,0.0,0.0,0.0,-1.0
46392000,46392000,0.026754258,0.023024369,-0.0031814766,0.08,0.0,0.0,0.0,-1.0
46488000,46488000,0.02358685,0.03107268,-0.0022492078,0.08,0.0,0.0,0.0,-1.0
46592000,46592000,0.01793921,0.024822595,-0.0024111948,0.08,0.0,0.0,0.0,-1.0
46692000,46692000,0.016045105,0.020055681,-0.0012496843,0.08,0.0,0.0,0.0,-1.0
46792000,46792000,0.019142067,0.02783874,-0.0038055275,0.08,0.0,0.0,0.0,-1.0
46888000,46888000,0.018286142,0.029744431,-0.003757614,0.08,0.0,0.0,0.0,-1.0
46988000,46988000,0.021342898,0.024953656,-0.0037487403,0.08,0.0,0.0,0.0,-1.0
47088000,47088000,0.018081693,0.03278523,-0.0022862856,0.08,0.0,0.0,0.0,-1.0
47188000,47188000,0.015815765,0.018209826,-0.0033601616,0.08,0.0,0.0,0.0,-1.0
47288000,47288000,0.03498745,0.025585776,-0.002392179,0.08,0.0,0.0,0.0,-1.0
47388000,47388000,0.00923024,0.020174515,-0.0033951197,0.08,0.0,0.0,0.0,-1.0
47488000,47488000,0.024343902,0.030564854,-0.0010874557,0.08,0.0,0.0,0.0,-1.0
47588000,47588000,0.022401977,0.018344734,-0.0036536846,0.08,0.0,0.0,0.0,-1.0
47692000,47692000,0.01960174,0.027429104,-0.0024665191,0.08,0.0,0.0,0.0,-1.0
47788000,47788000,0.019759638,0.022279508,-0.0023759657,0.08,0.0,0.0,0.0,-1.0
47892000,47892000,0.017636735,0.016743384,-0.0030579085,0.08,0.0,0.0,0.0,-1.0
47988000,47988000,0.020214595,0.021293698,-0.00403172,0.08,0.0,0.0,0.0,-1.0
48088000,48088000,0.024320297,0.025102934,-0.0027379605,0.08,0.0,0.0,0.0,-1.0
48188000,48188000,0.021527769,0.026470078,-0.0041253082,0.08,0.0,0.0,0.0,-1.0
48288000,48288000,0.031793218,0.025436977,-0.001774723,0.08,0.0,0.0,0.0,-1.0
48392000,48392000,0.0209031,0.032057807,-0.0046901903,0.08,0.0,0.0,0.0,-1.0
48488000,48488000,0.035584614,0.02625112,-0.0035205733,0.08,0.0,0.0,0.0,-1.0
48592000,48592000,0.023537977,0.024949972,-0.003727084,0.08,0.0,0.0,0.0,-1.0
48688000,48688000,0.017531391,0.032548796,-0.005415927,0.08,0.0,0.0,0.0,-1.0
48788000,48788000,0.017241202,0.037201595,-0.0053114058,0.08,0.0,0.0,0.0,-1.0
48888000,48888000,0.023273313,0.022907093,-0.0034051125,0.08,0.0,0.0,0.0,-1.0
48988000,48988000,0.024117539,0.030773824,-0.0053902455,0.08,0.0,0.0,0.0,-1.0
49088000,49088000,0.018958554,0.029574946,-0.0048279734,0.08,0.0,0.0,0.0,-1.0
49188000,49188000,0.012136679,0.030248433,-0.004787974,0.08,0.0,0.0,0.0,-1.0
49288000,49288000,0.0068615014,0.033908017,-0.0066369325,0.08,0.0,0.0,0.0,-1.0
49388000,49388000,0.020793892,0.03718836,-0.0039967704,0.08,0.0,0.0,0.0,-1.0
49488000,49488000,0.018515337,0.024014072,-0.0026386578,0.08,0.0,0.0,0.0,-1.0
49588000,49588000,0.01870564,0.031324,-0.0065490305,0.08,0.0,0.0,0.0,-1.0
49688000,49688000,0.02079808,0.023537343,-0.004053417,0.08,0.0,0.0,0.0,-1.0
49788000,49788000,0.00797541,0.033013567,-0.0045643807,0.08,0.0,0.0,0.0,-1.0
49888000,49888000,0.008502597,0.039045963,-0.0050104484,0.08,0.0,0.0,0.0,-1.0
49988000,49988000,0.015917996,0.03338056,-0.0048706364,0.08,0.0,0.0,0.0,-1.0
50088000,50088000,0.024573158,0.029300334,-0.004829061,0.08,0.0,0.0,0.0,-1.0
50188000,50188000,0.024762623,0.03282064,-0.0037800688,0.08,0.0,0.0,0.0,-1.0
50288000,50288000,0.02125052,0.02381994,-0.004244599,0.08,0.0,0.0,0.0,-1.0
50388000,50388000,0.025457134,0.029148245,-0.0057128235,0.08,0.0,0.0,0.0,-1.0
50488000,50488000,0.024517627,0.020004496,-0.0030176458,0.08,0.0,0.0,0.0,-1.0
50588000,50588000,0.017549448,0.023734186,-0.004046831,0.08,0.0,0.0,0.0,-1.0
50688000,50688000,0.024083741,0.025319636,-0.0034163638,0.08,0.0,0.0,0.0,-1.0
50792000,50792000,0.02017117,0.029967815,-0.00456713,0.08,0.0,0.0,0.0,-1.0
50888000,50888000,0.028693745,0.037587076,-0.004325044,0.08,0.0,0.0,0.0,-1.0
50988000,50988000,0.0167533,0.03019075,-0.0075716004,0.08,0.0,0.0,0.0,-1.0
51088000,51088000,0.023863489,0.03394953,-0.0023524556,0.08,0.0,0.0,0.0,-1.0
51188000,51188000,0.028564116,0.03390067,-0.0045608636,0.08,0.0,0.0,0.0,-1.0
51288000,51288000,0.028538521,0.028996237,-0.005477407,0.08,0.0,0.0,0.0,-1.0
51388000,51388000,0.020756405,0.026520263,-0.0039724074,0.08,0.0,0.0,0.0,-1.0
51488000,51488000,0.014218891,0.039612982,-0.004090061,0.08,0.0,0.0,0.0,-1.0
51588000,51588000,0.032554995,0.027604556,-0.003986984,0.08,0.0,0.0,0.0,-1.0
51688000,51688000,0.019294903,0.029494056,-0.005696486,0.08,0.0,0.0,0.0,-1.0
51788000,51788000,0.02866314,0.031431664,-0.002732532,0.08,0.0,0.0,0.0,-1.0
51888000,51888000,0.022496779,0.034285832,-0.0043529077,0.08,0.0,0.0,0.0,-1.0
51988000,51988000,0.018473055,0.029813122,-0.0057629845,0.08,0.0,0.0,0.0,-1.0
52092000,52092000,0.01905636,0.025938928,-0.0033101991,0.08,0.0,0.0,0.0,-1.0
52192000,52192000,0.018853772,0.026841465,-0.0059678303,0.08,0.0,0.0,0.0,-1.0
52288000,52288000,0.023208605,0.034381382,-0.0050507593,0.08,0.0,0.0,0.0,-1.0
52388000,52388000,0.010430172,0.025407648,-0.0041342587,0.08,0.0,0.0,0.0,-1.0
52488000,52488000,0.023843026,0.039331917,-0.005430715,0.08,0.0,0.0,0.0,-1.0
52588000,52588000,0.010544719,0.034765366,-0.006313184,0.08,0.0,0.0,0.0,-1.0
52688000,52688000,0.027265139,0.03225284,-0.0053358073,0.08,0.0,0.0,0.0,-1.0
52788000,52788000,0.02160525,0.028501581,-0.0066506923,0.08,0.0,0.0,0.0,-1.0
52888000,52888000,0.020052673,0.03318387,-0.0052855876,0.08,0.0,0.0,0.0,-1.0
52988000,52988000,0.034598336,0.037605196,-0.0043410864,0.08,0.0,0.0,0.0,-1.0
53088000,53088000,0.034092348,0.03043307,-0.0042954064,0.08,0.0,0.0,0.0,-1.0
53188000,53188000,0.022327032,0.029927962,-0.0059394683,0.08,0.0,0.0,0.0,-1.0
53288000,53288000,0.029532187,0.030764267,-0.006012903,0.08,0.0,0.0,0.0,-1.0
53388000,53388000,0.023706513,0.024629753,-0.0057278685,0.08,0.0,0.0,0.0,-1.0
53492000,53492000,0.013090032,0.032781947,-0.0046198023,0.08,0.0,0.0,0.0,-1.0
53592000,53592000,0.020960275,0.029322295,-0.004500294,0.08,0.0,0.0,0.0,-1.0
53688000,53688000,0.01002848,0.022575613,-0.005003756,0.08,0.0,0.0,0.0,-1.0
53792000,53792000,0.017866148,0.03849286,-0.0048229136,0.08,0.0,0.0,0.0,-1.0
53888000,53888000,0.008438528,0.027350398,-0.0047339723,0.08,0.0,0.0,0.0,-1.0
53988000,53988000,0.028616883,0.02257073,-0.006293869,0.08,0.0,0.0,0.0,-1.0
54088000,54088000,0.02334672,0.027092908,-0.006261205,0.08,0.0,0.0,0.0,-1.0
54188000,54188000,0.019255806,0.03780224,-0.0069778846,0.08,0.0,0.0,0.0,-1.0
54288000,54288000,0.02613073,0.03327773,-0.0049148537,0.08,0.0,0.0,0.0,-1.0
54388000,54388000,0.03130208,0.023674743,-0.004989025,0.08,0.0,0.0,0.0,-1.0
54488000,54488000,0.017642258,0.024804842,-0.008310108,0.08,0.0,0.0,0.0,-1.0
54588000,54588000,0.014392722,0.030475922,-0.007819617,0.08,0.0,0.0,0.0,-1.0
54688000,54688000,0.011292993,0.029412696,-0.00659435,0.08,0.0,0.0,0.0,-1.0
54788000,54788000,0.014648614,0.018860035,-0.0077654268,0.08,0.0,0.0,0.0,-1.0
54888000,54888000,0.025534434,0.039167423,-0.0048856298,0.08,0.0,0.0,0.0,-1.0
54988000,54988000,0.018893465,0.039959967,-0.0060501606,0.08,0.0,0.0,0.0,-1.0
55092000,55092000,0.023280194,0.03631516,-0.006191825,0.08,0.0,0.0,0.0,-1.0
55188000,55188000,0.022025036,0.035642713,-0.006029331,0.08,0.0,0.0,0.0,-1.0
55288000,55288000,0.012130789,0.019314889,-0.008637558,0.08,0.0,0.0,0.0,-1.0
55388000,55388000,0.017776418,0.03371031,-0.0072664367,0.08,0.0,0.0,0.0,-1.0
55488000,55488000,0.008191575,0.035901524,-0.007866186,0.08,0.0,0.0,0.0,-1.0
55588000,55588000,0.029609185,0.03898183,-0.004886183,0.08,0.0,0.0,0.0,-1.0
55688000,55688000,0.01750835,0.028702762,-0.0076635084,0.08,0.0,0.0,0.0,-1.0
55788000,55788000,0.019882947,0.034968086,-0.007607055,0.08,0.0,0.0,0.0,-1.0
55888000,55888000,0.019521631,0.032173093,-0.005986563,0.08,0.0,0.0,0.0,-1.0
55988000,55988000,0.018479118,0.025754426,-0.0065605203,0.08,0.0,0.0,0.0,-1.0
56088000,56088000,0.01572463,0.035688292,-0.0056651584,0.08,0.0,0.0,0.0,-1.0
56192000,56192000,0.016252162,0.037582807,-0.0071196514,0.08,0.0,0.0,0.0,-1.0
56288000,56288000,0.024231492,0.036434554,-0.006162194,0.08,0.0,0.0,0.0,-1.0
56388000,56388000,0.03121218,0.037077125,-0.005971016,0.08,0.0,0.0,0.0,-1.0
56492000,56492000,0.014325215,0.028657578,-0.007172761,0.08,0.0,0.0,0.0,-1.0
56588000,56588000,0.013948481,0.024407793,-0.006209519,0.08,0.0,0.0,0.0,-1.0
56688000,56688000,0.028349431,0.033535987,-0.007238117,0.08,0.0,0.0,0.0,-1.0
56792000,56792000,0.017191885,0.029536538,-0.0059066354,0.08,0.0,0.0,0.0,-1.0
56888000,56888000,0.01670317,0.038864996,-0.0059556956,0.08,0.0,0.0,0.0,-1.0
56988000,56988000,0.024058469,0.030383091,-0.007620407,0.08,0.0,0.0,0.0,-1.0
57088000,57088000,0.026551789,0.039367408,-0.008686387,0.08,0.0,0.0,0.0,-1.0
57188000,57188000,0.023057375,0.04307718,-0.00867946,0.08,0.0,0.0,0.0,-1.0
57288000,57288000,0.02388774,0.028952207,-0.006124029,0.08,0.0,0.0,0.0,-1.0
57388000,57388000,0.020556513,0.02311454,-0.0075218924,0.08,0.0,0.0,0.0,-1.0
57488000,57488000,0.026576228,0.036483996,-0.0085058985,0.08,0.0,0.0,0.0,-1.0
57592000,57592000,0.02293937,0.030581407,-0.007864243,0.08,0.0,0.0,0.0,-1.0
57692000,57692000,0.028485464,0.030744687,-0.0075101354,0.08,0.0,0.0,0.0,-1.0
57792000,57792000,0.013586648,0.041113593,-0.007422705,0.08,0.0,0.0,0.0,-1.0
57892000,57892000,0.027463155,0.044218484,-0.00812746,0.08,0.0,0.0,0.0,-1.0
57992000,57992000,0.029640662,0.03640762,-0.008161924,0.08,0.0,0.0,0.0,-1.0
58092000,58092000,0.013535055,0.03456575,-0.006649957,0.08,0.0,0.0,0.0,-1.0
58188000,58188000,0.030616432,0.033511948,-0.0074333334,0.08,0.0,0.0,0.0,-1.0
58288000,58288000,0.024044786,0.034214035,-0.007362521,0.08,0.0,0.0,0.0,-1.0
58388000,58388000,0.027084371,0.028711867,-0.007286524,0.08,0.0,0.0,0.0,-1.0
58492000,58492000,0.014446371,0.03674212,-0.007634359,0.08,0.0,0.0,0.0,-1.0
58588000,58588000,0.026025524,0.0461259,-0.006305544,0.08,0.0,0.0,0.0,-1.0
58692000,58692000,0.02726306,0.032664627,-0.008765783,0.08,0.0,0.0,0.0,-1.0
58788000,58788000,0.018854823,0.021321625,-0.0093728285,0.08,0.0,0.0,0.0,-1.0
58888000,58888000,0.030024821,0.038878374,-0.009269351,0.08,0.0,0.0,0.0,-1.0
58992000,58992000,0.019470304,0.029870521,-0.00862272,0.08,0.0,0.0,0.0,-1.0
59088000,59088000,0.019667082,0.03378567,-0.0083373105,0.08,0.0,0.0,0.0,-1.0
59188000,59188000,0.01829584,0.03310127,-0.0089121405,0.08,0.0,0.0,0.0,-1.0
59288000,59288000,0.017152013,0.036808766,-0.009124913,0.08,0.0,0.0,0.0,-1.0
59392000,59392000,0.03408044,0.025515988,-0.007413206,0.08,0.0,0.0,0.0,-1.0
59488000,59488000,0.0262756,0.029851139,-0.0085658515,0.08,0.0,0.0,0.0,-1.0
59592000,59592000,0.023073401,0.027335994,-0.00866104,0.08,0.0,0.0,0.0,-1.0
59692000,59692000,0.025833506,0.04756958,-0.00909761,0.08,0.0,0.0,0.0,-1.0
59792000,59792000,0.0141078755,0.036049098,-0.0070936824,0.08,0.0,0.0,0.0,-1.0
59892000,59892000,0.02793177,0.034309432,-0.0095338365,0.08,0.0,0.0,0.0,-1.0
59988000,59988000,0.026973557,0.026061652,-0.008890799,0.08,0.0,0.0,0.0,-1.0
60088000,60088000,0.02796472,0.034149993,-0.0077234083,0.08,0.0,0.0,0.0,-1.0
60188000,60188000,0.008451611,0.023839533,-0.006118912,0.08,0.0,0.0,0.0,-1.0
60288000,60288000,0.033486683,0.044455055,-0.0077235596,0.08,0.0,0.0,0.0,-1.0
60392000,60392000,0.024433952,0.037591908,-0.007536386,0.08,0.0,0.0,0.0,-1.0
60488000,60488000,0.018890454,0.032329176,-0.0077552907,0.08,0.0,0.0,0.0,-1.0
60592000,60592000,0.027795548,0.045201864,-0.0075392127,0.08,0.0,0.0,0.0,-1.0
60688000,60688000,0.026901778,0.0452213,-0.009383789,0.08,0.0,0.0,0.0,-1.0
60792000,60792000,0.01977701,0.035781987,-0.008102733,0.08,0.0,0.0,0.0,-1.0
60888000,60888000,0.014142554,0.034970872,-0.009389116,0.08,0.0,0.0,0.0,-1.0
60988000,60988000,0.018965954,0.031943083,-0.008353729,0.08,0.0,0.0,0.0,-1.0
61092000,61092000,0.02985888,0.034180928,-0.0070526274,0.08,0.0,0.0,0.0,-1.0
61188000,61188000,0.029587526,0.04407028,-0.007980238,0.08,0.0,0.0,0.0,-1.0
61288000,61288000,0.03153062,0.039187085,-0.008919146,0.08,0.0,0.0,0.0,-1.0
61388000,61388000,0.023662781,0.04214718,-0.009865177,0.08,0.0,0.0,0.0,-1.0
61492000,61492000,0.033104405,0.02969648,-0.01040169,0.08,0.0,0.0,0.0,-1.0
61588000,61588000,0.029497907,0.020897843,-0.009196094,0.08,0.0,0.0,0.0,-1.0
61688000,61688000,0.02564717,0.048766803,-0.007914056,0.08,0.0,0.0,0.0,-1.0
61792000,61792000,0.025384959,0.023452275,-0.011229622,0.08,0.0,0.0,0.0,-1.0
61888000,61888000,0.03130608,0.029933408,-0.010848931,0.08,0.0,0.0,0.0,-1.0
61992000,61992000,0.034109075,0.025032148,-0.0068840133,0.08,0.0,0.0,0.0,-1.0
62088000,62088000,0.025928568,0.03262001,-0.008327242,0.08,0.0,0.0,0.0,-1.0
62188000,62188000,0.01716629,0.027264923,-0.010136052,0.08,0.0,0.0,0.0,-1.0
62288000,62288000,0.025270363,0.044588946,-0.009299642,0.08,0.0,0.0,0.0,-1.0
62388000,62388000,0.02261249,0.027245246,-0.008186226,0.08,0.0,0.0,0.0,-1.0
62488000,62488000,0.02001802,0.0281782,-0.0077994564,0.08,0.0,0.0,0.0,-1.0
62592000,62592000,0.032055058,0.03402395,-0.006835419,0.08,0.0,0.0,0.0,-1.0
62688000,62688000,0.027553955,0.03269425,-0.011450171,0.08,0.0,0.0,0.0,-1.0
62788000,62788000,0.025249645,0.038155783,-0.009524509,0.08,0.0,0.0,0.0,-1.0
62888000,62888000,0.019474056,0.037746474,-0.0074522095,0.08,0.0,0.0,0.0,-1.0
62988000,62988000,0.026221486,0.032152083,-0.007966843,0.08,0.0,0.0,0.0,-1.0
63088000,63088000,0.025334118,0.032462526,-0.010159047,0.08,0.0,0.0,0.0,-1.0
63192000,63192000,0.023245696,0.04104678,-0.0095360195,0.08,0.0,0.0,0.0,-1.0
63288000,63288000,0.028173659,0.027605262,-0.0070113204,0.08,0.0,0.0,0.0,-1.0
63388000,63388000,0.022616195,0.038272634,-0.008030849,0.08,0.0,0.0,0.0,-1.0
63488000,63488000,0.023160834,0.019023873,-0.009780304,0.08,0.0,0.0,0.0,-1.0
63588000,63588000,0.018270917,0.03704558,-0.006407416,0.08,0.0,0.0,0.0,-1.0
63692000,63692000,0.017420154,0.02644793,-0.007636094,0.08,0.0,0.0,0.0,-1.0
63788000,63788000,0.034818385,0.043329168,-0.009268336,0.08,0.0,0.0,0.0,-1.0
63888000,63888000,0.030777557,0.019945614,-0.007017219,0.08,0.0,0.0,0.0,-1.0
63988000,63988000,0.027986648,0.027503354,-0.0076260506,0.08,0.0,0.0,0.0,-1.0
64088000,64088000,0.03018651,0.03722505,-0.008200902,0.08,0.0,0.0,0.0,-1.0
64192000,64192000,0.023864841,0.032345604,-0.0082646385,0.08,0.0,0.0,0.0,-1.0
64288000,64288000,0.014703842,0.031795442,-0.006804933,0.08,0.0,0.0,0.0,-1.0
64392000,64392000,0.029741405,0.028279155,-0.00786924,0.08,0.0,0.0,0.0,-1.0
64491999,64491999,0.027135763,0.03482864,-0.008003034,0.08,0.0,0.0,0.0,-1.0
64600000,64600000,0.027823444,0.045434892,-0.007887866,0.08,0.0,0.0,0.0,-1.0
64699999,64699999,0.029947413,0.03137779,-0.009455068,0.08,0.0,0.0,0.0,-1.0
64800000,64800000,0.036822837,0.03363774,-0.00903646,0.08,0.0,0.0,0.0,-1.0
64900000,64900000,0.030715283,0.016887296,-0.009234826,0.08,0.0,0.0,0.0,-1.0
65003999,65003999,0.020746307,0.034811232,-0.008814576,0.08,0.0,0.0,0.0,-1.0
65107999,65107999,0.01381487,0.031873297,-0.008480387,0.08,0.0,0.0,0.0,-1.0
65211999,65211999,0.004316002,0.02434003,-0.008043129,0.08,0.0,0.0,0.0,-1.0
65315999,65315999,0.015825164,0.020764533,-0.007980721,0.08,0.0,0.0,0.0,-1.0
65420000,65420000,0.024165967,0.035574798,-0.008020528,0.08,0.0,0.0,0.0,-1.0
65515999,65515999,0.0127194235,0.032268953,-0.0070425603,0.08,0.0,0.0,0.0,-1.0
65624000,65624000,0.014412474,0.034957156,-0.006832361,0.08,0.0,0.0,0.0,-1.0
65723999,65723999,0.019195193,0.03684007,-0.010177471,0.08,0.0,0.0,0.0,-1.0
65827999,65827999,0.025688637,0.036795724,-0.005852324,0.08,0.0,0.0,0.0,-1.0
65928000,65928000,0.029316371,0.043274403,-0.008879449,0.08,0.0,0.0,0.0,-1.0
66032000,66032000,0.023155801,0.03295047,-0.006415853,0.08,0.0,0.0,0.0,-1.0
66136000,66136000,0.033616625,0.029322704,-0.0075855623,0.08,0.0,0.0,0.0,-1.0
66235999,66235999,0.019253759,0.02512452,-0.007748045,0.08,0.0,0.0,0.0,-1.0
66339999,66339999,0.024986384,0.039697774,-0.0087237805,0.08,0.0,0.0,0.0,-1.0
66443999,66443999,0.035124343,0.028498912,-0.0076403865,0.08,0.0,0.0,0.0,-1.0
66544000,66544000,0.010994331,0.026412413,-0.005939634,0.08,0.0,0.0,0.0,-1.0
66648000,66648000,0.014686867,0.033649877,-0.008811693,0.08,0.0,0.0,0.0,-1.0
66747999,66747999,0.024154559,0.042487055,-0.0083765015,0.08,0.0,0.0,0.0,-1.0
66856000,66856000,0.024190284,0.039373286,-0.01007019,0.08,0.0,0.0,0.0,-1.0
66960000,66960000,0.01957753,0.03639974,-0.009570701,0.08,0.0,0.0,0.0,-1.0
67059999,67059999,0.016309721,0.027467392,-0.008290816,0.08,0.0,0.0,0.0,-1.0
67164000,67164000,0.02651927,0.035909235,-0.008943676,0.08,0.0,0.0,0.0,-1.0
67260000,67260000,0.028453456,0.035175137,-0.00826183,0.08,0.0,0.0,0.0,-1.0
67360000,67360000,0.014034158,0.03487419,-0.007716221,0.08,0.0,0.0,0.0,-1.0
67460000,67460000,0.030197669,0.037496626,-0.010353597,0.08,0.0,0.0,0.0,-1.0
67560000,67560000,0.030512251,0.024306009,-0.009453091,0.08,0.0,0.0,0.0,-1.0
67660000,67660000,0.027921341,0.030116417,-0.009097244,0.08,0.0,0.0,0.0,-1.0
67760000,67760000,0.015666952,0.025504824,-0.0068753064,0.08,0.0,0.0,0.0,-1.0
67860000,67860000,0.018824315,0.03719464,-0.007336466,0.08,0.0,0.0,0.0,-1.0
67960000,67960000,0.030213518,0.032289833,-0.008416343,0.08,0.0,0.0,0.0,-1.0
68060000,68060000,0.01737336,0.03291494,-0.010616921,0.08,0.0,0.0,0.0,-1.0
68164000,68164000,0.014267557,0.0257252,-0.008277467,0.08,0.0,0.0,0.0,-1.0
68260000,68260000,0.022969643,0.027239582,-0.0075547406,0.08,0.0,0.0,0.0,-1.0
68360000,68360000,0.008377845,0.024944792,-0.009846731,0.08,0.0,0.0,0.0,-1.0
68460000,68460000,0.021912517,0.032202948,-0.008789943,0.08,0.0,0.0,0.0,-1.0
68560000,68560000,0.015567709,0.03190071,-0.007655515,0.08,0.0,0.0,0.0,-1.0
68660000,68660000,0.025408056,0.042994346,-0.0062576937,0.08,0.0,0.0,0.0,-1.0
68760000,68760000,0.027185109,0.0329296,-0.0075157597,0.08,0.0,0.0,0.0,-1.0
68864000,68864000,0.024562338,0.023951024,-0.009711951,0.08,0.0,0.0,0.0,-1.0
68964000,68964000,0.027713686,0.02538684,-0.008350842,0.08,0.0,0.0,0.0,-1.0
69064000,69064000,0.01063716,0.024809422,-0.0088614235,0.08,0.0,0.0,0.0,-1.0
69160000,69160000,0.012609575,0.040608235,-0.0095287515,0.08,0.0,0.0,0.0,-1.0
69260000,69260000,0.02686496,0.030518625,-0.010413672,0.08,0.0,0.0,0.0,-1.0
69360000,69360000,0.01784291,0.029552968,-0.007964487,0.08,0.0,0.0,0.0,-1.0
69464000,69464000,0.011592974,0.02690276,-0.006439817,0.08,0.0,0.0,0.0,-1.0
69560000,69560000,0.029881831,0.036243096,-0.0086688865,0.08,0.0,0.0,0.0,-1.0
69660000,69660000,0.024581777,0.043656446,-0.008229809,0.08,0.0,0.0,0.0,-1.0
69760000,69760000,0.020037547,0.035067856,-0.009844192,0.08,0.0,0.0,0.0,-1.0
69860000,69860000,0.0103966575,0.02527648,-0.0060994434,0.08,0.0,0.0,0.0,-1.0
69960000,69960000,0.019067815,0.03384361,-0.011137431,0.08,0.0,0.0,0.0,-1.0
70060000,70060000,0.019420337,0.021783564,-0.010244817,0.08,0.0,0.0,0.0,-1.0
70164000,70164000,0.02340771,0.025461128,-0.008042034,0.08,0.0,0.0,0.0,-1.0
70264000,70264000,0.021304332,0.037923854,-0.008474732,0.08,0.0,0.0,0.0,-1.0
70364000,70364000,0.024130434,0.030559903,-0.008925307,0.08,0.0,0.0,0.0,-1.0
70464000,70464000,0.03191753,0.034367703,-0.007478982,0.08,0.0,0.0,0.0,-1.0
70560000,70560000,0.03150185,0.015120389,-0.010843051,0.08,0.0,0.0,0.0,-1.0
70660000,70660000,0.025902718,0.040736873,-0.010183904,0.08,0.0,0.0,0.0,-1.0
70764000,70764000,0.024660997,0.028478032,-0.007869507,0.08,0.0,0.0,0.0,-1.0
70860000,70860000,0.012715226,0.03567665,-0.008969125,0.08,0.0,0.0,0.0,-1.0
70960000,70960000,0.026531037,0.04448933,-0.008304801,0.08,0.0,0.0,0.0,-1.0
71060000,71060000,0.02230414,0.025171718,-0.009178847,0.08,0.0,0.0,0.0,-1.0
71160000,71160000,0.024685893,0.01235871,-0.009984947,0.08,0.0,0.0,0.0,-1.0
71260000,71260000,0.025524309,0.03329449,-0.008801914,0.08,0.0,0.0,0.0,-1.0
71360000,71360000,0.015657991,0.016120678,-0.0098251775,0.08,0.0,0.0,0.0,-1.0
71460000,71460000,0.025520485,0.046409335,-0.010348061,0.08,0.0,0.0,0.0,-1.0
71564000,71564000,0.014775927,0.02145411,-0.010537133,0.08,0.0,0.0,0.0,-1.0
71660000,71660000,0.014816631,0.031601656,-0.008851866,0.08,0.0,0.0,0.0,-1.0
71760000,71760000,0.024485305,0.020127129,-0.00842486,0.08,0.0,0.0,0.0,-1.0
71864000,71864000,0.014276654,0.027732404,-0.009730692,0.08,0.0,0.0,0.0,-1.0
71960000,71960000,0.026630221,0.033112526,-0.010681259,0.08,0.0,0.0,0.0,-1.0
72064000,72064000,0.01620315,0.02264886,-0.009829353,0.08,0.0,0.0,0.0,-1.0
72160000,72160000,0.016428726,0.02405546,-0.00940424,0.08,0.0,0.0,0.0,-1.0
72264000,72264000,0.015426312,0.030135458,-0.009575792,0.08,0.0,0.0,0.0,-1.0
72360000,72360000,0.009024812,0.033021607,-0.00929201,0.08,0.0,0.0,0.0,-1.0
72460000,72460000,0.013920867,0.03656462,-0.010497994,0.08,0.0,0.0,0.0,-1.0
72560000,72560000,0.024331668,0.037197486,-0.0068512633,0.08,0.0,0.0,0.0,-1.0
72660000,72660000,0.017924724,0.028358556,-0.009366177,0.08,0.0,0.0,0.0,-1.0
72760000,72760000,0.02791356,0.032251757,-0.010278155,0.08,0.0,0.0,0.0,-1.0
72860000,72860000,0.0014909068,0.024332127,-0.008511473,0.08,0.0,0.0,0.0,-1.0
72964000,72964000,0.016142337,0.015254908,-0.007868151,0.08,0.0,0.0,0.0,-1.0
73060000,73060000,0.020799842,0.037449237,-0.007901177,0.08,0.0,0.0,0.0,-1.0
73160000,73160000,0.0210937,0.026956715,-0.007932648,0.08,0.0,0.0,0.0,-1.0
73260000,73260000,0.016461683,0.02702478,-0.010345973,0.08,0.0,0.0,0.0,-1.0
73360000,73360000,0.013760768,0.036634628,-0.008623346,0.08,0.0,0.0,0.0,-1.0
73464000,73464000,0.020210141,0.024328135,-0.0077732685,0.08,0.0,0.0,0.0,-1.0
73564000,73564000,0.015247739,0.028218744,-0.0066136434,0.08,0.0,0.0,0.0,-1.0
73660000,73660000,0.016196249,0.03471029,-0.010581236,0.08,0.0,0.0,0.0,-1.0
73760000,73760000,0.027174905,0.045191303,-0.010202645,0.08,0.0,0.0,0.0,-1.0
73860000,73860000,0.010878442,0.022608364,-0.009650606,0.08,0.0,0.0,0.0,-1.0
73960000,73960000,0.012937419,0.030954879,-0.008988119,0.08,0.0,0.0,0.0,-1.0
74060000,74060000,0.026996598,0.030961616,-0.01006944,0.08,0.0,0.0,0.0,-1.0
74164000,74164000,0.013684547,0.04019254,-0.009376656,0.08,0.0,0.0,0.0,-1.0
74260000,74260000,0.018673344,0.033761386,-0.0107705,0.08,0.0,0.0,0.0,-1.0
74360000,74360000,0.01058243,0.027297178,-0.0097805215,0.08,0.0,0.0,0.0,-1.0
74460000,74460000,0.015185713,0.0293473,-0.010193848,0.08,0.0,0.0,0.0,-1.0
74560000,74560000,0.024536846,0.022507451,-0.009432792,0.08,0.0,0.0,0.0,-1.0
74664000,74664000,0.019737342,0.023906037,-0.010279392,0.08,0.0,0.0,0.0,-1.0
74760000,74760000,0.022590695,0.027925305,-0.010393377,0.08,0.0,0.0,0.0,-1.0
74860000,74860000,0.018213084,0.024694458,-0.007955825,0.08,0.0,0.0,0.0,-1.0
74964000,74964000,0.010301437,0.024324656,-0.00920505,0.08,0.0,0.0,0.0,-1.0
75060000,75060000,0.0051934933,0.010903886,-0.009262139,0.08,0.0,0.0,0.0,-1.0
75160000,75160000,0.022005364,0.037133716,-0.005406347,0.08,0.0,0.0,0.0,-1.0
75260000,75260000,0.015484256,0.028773885,-0.010205418,0.08,0.0,0.0,0.0,-1.0
75360000,75360000,0.004416175,0.038062386,-0.008504725,0.08,0.0,0.0,0.0,-1.0
75460000,75460000,0.020337798,0.03474634,-0.009935829,0.08,0.0,0.0,0.0,-1.0
75560000,75560000,0.017330924,0.02369264,-0.008547338,0.08,0.0,0.0,0.0,-1.0
75664000,75664000,0.008904479,0.040934637,-0.009896676,0.08,0.0,0.0,0.0,-1.0
75760000,75760000,0.026319532,0.027586684,-0.010280337,0.08,0.0,0.0,0.0,-1.0
75860000,75860000,0.020936094,0.036151763,-0.008670967,0.08,0.0,0.0,0.0,-1.0
75964000,75964000,0.0065782834,0.025679734,-0.007822687,0.08,0.0,0.0,0.0,-1.0
76064000,76064000,0.017798781,0.033041317,-0.0073945606,0.08,0.0,0.0,0.0,-1.0
76164000,76164000,0.018717758,0.028119387,-0.009054648,0.08,0.0,0.0,0.0,-1.0
76260000,76260000,0.026389193,0.031647712,-0.011195286,0.08,0.0,0.0,0.0,-1.0
76360000,76360000,0.020926105,0.029238716,-0.008758428,0.08,0.0,0.0,0.0,-1.0
76464000,76464000,0.0200587,0.035442576,-0.00901019,0.08,0.0,0.0,0.0,-1.0
76560000,76560000,0.019351969,0.038611162,-0.008763696,0.08,0.0,0.0,0.0,-1.0
76660000,76660000,0.010220546,0.025917584,-0.008817244,0.08,0.0,0.0,0.0,-1.0
76764000,76764000,0.015980061,0.025623411,-0.009824736,0.08,0.0,0.0,0.0,-1.0
76864000,76864000,0.032323148,0.023900919,-0.0094983345,0.08,0.0,0.0,0.0,-1.0
76960000,76960000,0.009341068,0.038120367,-0.010453432,0.08,0.0,0.0,0.0,-1.0
77060000,77060000,0.01746414,0.031946868,-0.010241093,0.08,0.0,0.0,0.0,-1.0
77164000,77164000,0.024092304,0.03110767,-0.007863419,0.08,0.0,0.0,0.0,-1.0
77264000,77264000,0.011924822,0.02579025,-0.009828413,0.08,0.0,0.0,0.0,-1.0
77360000,77360000,0.011479776,0.032534525,-0.008256916,0.08,0.0,0.0,0.0,-1.0
77464000,77464000,0.01544945,0.03130745,-0.008010948,0.08,0.0,0.0,0.0,-1.0
77560000,77560000,0.012131108,0.027338617,-0.008994157,0.08,0.0,0.0,0.0,-1.0
77660000,77660000,0.0151531575,0.032674216,-0.008280176,0.08,0.0,0.0,0.0,-1.0
77764000,77764000,0.012386268,0.0303807,-0.008753361,0.08,0.0,0.0,0.0,-1.0
77860000,77860000,0.0035643429,0.015741363,-0.009817839,0.08,0.0,0.0,0.0,-1.0
77960000,77960000,0.01992405,0.034602042,-0.008257507,0.08,0.0,0.0,0.0,-1.0
78064000,78064000,0.020808717,0.03482088,-0.0101520615,0.08,0.0,0.0,0.0,-1.0
78160000,78160000,0.025444439,0.030650644,-0.010054141,0.08,0.0,0.0,0.0,-1.0
78260000,78260000,0.020291308,0.035582732,-0.008980758,0.08,0.0,0.0,0.0,-1.0
78360000,78360000,0.024186123,0.027881222,-0.008782762,0.08,0.0,0.0,0.0,-1.0
78460000,78460000,0.026012573,0.021330385,-0.01046424,0.08,0.0,0.0,0.0,-1.0
78564000,78564000,0.026444308,0.026649175,-0.010375083,0.08,0.0,0.0,0.0,-1.0
78660000,78660000,0.016446356,0.043723993,-0.009417447,0.08,0.0,0.0,0.0,-1.0
78760000,78760000,0.016477821,0.025505502,-0.010128508,0.08,0.0,0.0,0.0,-1.0
78864000,78864000,0.0036329273,0.027328651,-0.0104557825,0.08,0.0,0.0,0.0,-1.0
78964000,78964000,0.012935078,0.018068751,-0.009993212,0.08,0.0,0.0,0.0,-1.0
79064000,79064000,0.011577956,0.03759199,-0.0093618715,0.08,0.0,0.0,0.0,-1.0
79160000,79160000,0.00863483,0.03650617,-0.009513152,0.08,0.0,0.0,0.0,-1.0
79260000,79260000,0.029895257,0.042326342,-0.011424279,0.08,0.0,0.0,0.0,-1.0
79360000,79360000,0.019572873,0.027209345,-0.011363606,0.08,0.0,0.0,0.0,-1.0
79464000,79464000,0.018286787,0.027801031,-0.010850946,0.08,0.0,0.0,0.0,-1.0
79564000,79564000,0.018468754,0.023909599,-0.008397875,0.08,0.0,0.0,0.0,-1.0
79660000,79660000,0.015143621,0.024039041,-0.009166695,0.08,0.0,0.0,0.0,-1.0
79760000,79760000,0.03199458,0.03525352,-0.011055425,0.08,0.0,0.0,0.0,-1.0
79864000,79864000,0.016315708,0.043737188,-0.00782725,0.08,0.0,0.0,0.0,-1.0
79960000,79960000,0.01936886,0.023023035,-0.01019321,0.08,0.0,0.0,0.0,-1.0
