timestamp,magnetometer_ga[0],magnetometer_ga[1],magnetometer_ga[2]
2016000,0.20250988,-0.08129005,0.42881578
2024000,0.19835013,-0.083369434,0.43055546
2036000,0.19835013,-0.083369434,0.43055546
2044000,0.19835015,-0.08336943,0.43055546
2056000,0.19835015,-0.08336943,0.43055543
2064000,0.19835016,-0.08336944,0.43055543
2076000,0.19727908,-0.07894029,0.43128556
2084000,0.1972791,-0.07894027,0.43128556
2096000,0.1972791,-0.07894027,0.43128556
2104000,0.19727911,-0.078940265,0.43128556
2116000,0.19727911,-0.078940265,0.43128553
2124000,0.19727911,-0.07894028,0.43128553
2136000,0.1994365,-0.083789565,0.42947474
2144000,0.1994365,-0.08378955,0.42947474
2156000,0.19943652,-0.08378955,0.42947474
2164000,0.19943652,-0.08378954,0.42947474
2176000,0.19943652,-0.08378954,0.42947474
2184000,0.19858652,-0.08331695,0.42654717
2196000,0.19858654,-0.08331695,0.42654717
2204000,0.19858654,-0.083316945,0.42654717
2216000,0.19858654,-0.083316945,0.42654717
2224000,0.19858655,-0.08331693,0.42654717
2236000,0.19829607,-0.084338576,0.42913634
2244000,0.19829607,-0.08433859,0.42913634
2256000,0.19829607,-0.08433859,0.42913634
2264000,0.19829609,-0.08433858,0.4291363
2276000,0.19829609,-0.08433858,0.4291363
2284000,0.20168905,-0.07954118,0.428808
2296000,0.20168905,-0.07954118,0.428808
2304000,0.20168906,-0.07954119,0.428808
2316000,0.20168906,-0.07954119,0.428808
2324000,0.20168906,-0.079541184,0.428808
2336000,0.2013253,-0.083963536,0.42843276
2344000,0.2013253,-0.08396353,0.42843276
2356000,0.20132531,-0.08396352,0.42843276
2364000,0.20132531,-0.08396354,0.42843276
2376000,0.20132533,-0.083963536,0.42843276
2384000,0.20132533,-0.08396353,0.42843276
2396000,0.20060962,-0.081381835,0.43062192
2404000,0.20060962,-0.08138185,0.43062192
2416000,0.20060964,-0.08138185,0.43062192
2424000,0.20060964,-0.081381835,0.43062192
2436000,0.20060965,-0.081381835,0.43062192
2444000,0.20234105,-0.08218732,0.43365452
2456000,0.20234106,-0.08218732,0.43365452
2464000,0.20234106,-0.08218733,0.43365452
2476000,0.20234108,-0.08218733,0.43365452
2484000,0.20234108,-0.082187325,0.43365452
2496000,0.20494132,-0.07995326,0.42416072
2504000,0.20494132,-0.079953246,0.42416072
2516000,0.20494133,-0.079953246,0.42416072
2524000,0.20494133,-0.07995326,0.42416072
2536000,0.20494135,-0.07995326,0.42416072
2544000,0.200373,-0.07948014,0.43202195
2556000,0.20037301,-0.079480134,0.43202195
2564000,0.20037301,-0.07948013,0.43202195
2576000,0.20037302,-0.07948013,0.43202195
2584000,0.20037302,-0.07948014,0.43202195
2596000,0.20421328,-0.081331894,0.42615995
2604000,0.20421328,-0.08133189,0.42615995
2616000,0.20421328,-0.08133189,0.42615995
2624000,0.20421329,-0.08133187,0.42615995
2636000,0.20421329,-0.08133187,0.42615995
2644000,0.2042133,-0.08133189,0.42615995
2656000,0.1980258,-0.080750704,0.4296179
2664000,0.19802581,-0.0807507,0.4296179
2676000,0.19802581,-0.0807507,0.4296179
2684000,0.19802581,-0.08075071,0.42961788
2696000,0.19802582,-0.08075071,0.42961788
2704000,0.1988006,-0.08211317,0.42607695
2716000,0.19880061,-0.08211316,0.42607692
2724000,0.19880061,-0.082113154,0.42607692
2736000,0.19880062,-0.082113154,0.42607692
2744000,0.19880062,-0.08211317,0.42607692
2756000,0.20023571,-0.08175664,0.42596418
2764000,0.20023571,-0.08175663,0.42596418
2776000,0.20023571,-0.08175662,0.42596415
2784000,0.20023572,-0.081756614,0.42596415
2796000,0.20023572,-0.081756614,0.42596415
2804000,0.20023574,-0.08175663,0.42596415
2816000,0.2008566,-0.08129645,0.42991364
2824000,0.2008566,-0.081296444,0.42991364
2836000,0.2008566,-0.08129644,0.42991364
2844000,0.20085661,-0.08129643,0.42991364
2856000,0.20164736,-0.081607014,0.4296162
2864000,0.20164736,-0.08160703,0.4296162
2876000,0.20164737,-0.08160703,0.4296162
2884000,0.20164737,-0.081607014,0.42961618
2896000,0.20164739,-0.081607014,0.42961618
2904000,0.20164739,-0.08160701,0.42961618
2916000,0.19960046,-0.079782024,0.43097878
2924000,0.19960047,-0.07978205,0.43097878
2936000,0.19960047,-0.07978204,0.43097878
2944000,0.19960049,-0.07978203,0.43097878
2956000,0.19960049,-0.07978203,0.43097878
2964000,0.19829558,-0.0820303,0.43177015
2976000,0.1982956,-0.08203032,0.43177015
2984000,0.1982956,-0.08203031,0.43177015
2996000,0.19829561,-0.082030304,0.43177015
3004000,0.19829561,-0.0820303,0.43177015
3016000,0.19398904,-0.07995243,0.4269615
3024000,0.19398904,-0.07995245,0.4269615
3036000,0.19398905,-0.07995245,0.4269615
3044000,0.19398905,-0.07995244,0.4269615
3056000,0.19398907,-0.07995243,0.4269615
3064000,0.20254321,-0.081822924,0.4312919
3076000,0.20254323,-0.081822924,0.4312919
3084000,0.20254323,-0.08182294,0.4312919
3096000,0.20254324,-0.08182294,0.4312919
3104000,0.20254324,-0.081822924,0.4312919
3116000,0.20081976,-0.07938746,0.42855713
3124000,0.20081978,-0.079387456,0.42855713
3136000,0.20081978,-0.079387456,0.42855713
3144000,0.20081979,-0.07938747,0.42855713
3156000,0.20081979,-0.07938747,0.42855713
3164000,0.20081979,-0.07938746,0.42855713
3176000,0.20236099,-0.08198661,0.42949918
3184000,0.20236099,-0.0819866,0.42949918
3196000,0.202361,-0.0819866,0.42949918
3204000,0.202361,-0.08198661,0.42949918
3216000,0.202361,-0.08198661,0.42949918
3224000,0.20203912,-0.08246893,0.4303637
3236000,0.20203914,-0.08246892,0.4303637
3244000,0.20203914,-0.08246891,0.4303637
3256000,0.20203914,-0.08246891,0.43036368
3264000,0.20203915,-0.08246893,0.43036368
3276000,0.1991442,-0.07937613,0.42894495
3284000,0.1991442,-0.079376124,0.42894495
3296000,0.19914421,-0.079376124,0.42894495
3304000,0.19914421,-0.07937614,0.42894495
3316000,0.19914423,-0.07937614,0.42894495
3324000,0.19914423,-0.079376124,0.42894495
3336000,0.20205662,-0.08483531,0.43344155
3344000,0.20205663,-0.0848353,0.43344155
3356000,0.20205663,-0.0848353,0.43344155
3364000,0.20205663,-0.08483531,0.43344155
3376000,0.19985634,-0.08388189,0.4301801
3384000,0.19985634,-0.083881885,0.4301801
3396000,0.19985634,-0.083881885,0.4301801
3404000,0.19985636,-0.08388187,0.4301801
3416000,0.19985636,-0.08388187,0.4301801
3424000,0.19985637,-0.083881885,0.4301801
3436000,0.20291995,-0.08184069,0.42851365
3444000,0.20291995,-0.08184067,0.42851365
3456000,0.20291996,-0.08184067,0.42851365
3464000,0.20291996,-0.081840664,0.42851365
3476000,0.20291997,-0.081840664,0.42851365
3484000,0.19762784,-0.07908779,0.42854604
3496000,0.19762786,-0.07908779,0.42854604
3504000,0.19762786,-0.07908777,0.42854604
3516000,0.19762787,-0.07908777,0.42854604
3524000,0.19762787,-0.079087764,0.42854604
3536000,0.203601,-0.07915319,0.42959177
3544000,0.203601,-0.0791532,0.42959177
3556000,0.20360102,-0.0791532,0.42959177
3564000,0.20360102,-0.079153195,0.42959177
3576000,0.20360102,-0.07915319,0.42959175
3584000,0.20020236,-0.07965917,0.4324152
3596000,0.20020236,-0.079659194,0.4324152
3604000,0.20020238,-0.07965919,0.4324152
3616000,0.20020238,-0.07965919,0.4324152
3624000,0.20020239,-0.07965917,0.4324152
3636000,0.1993616,-0.08254586,0.42923722
3644000,0.1993616,-0.082545884,0.42923722
3656000,0.19936162,-0.08254588,0.42923722
3664000,0.19936162,-0.08254587,0.42923722
3676000,0.19936164,-0.08254587,0.4292372
3684000,0.19936164,-0.08254588,0.4292372
3696000,0.1997637,-0.08013668,0.42736965
3704000,0.1997637,-0.080136694,0.42736965
3716000,0.19976372,-0.080136694,0.42736965
3724000,0.19976372,-0.08013668,0.42736965
3736000,0.19976372,-0.08013668,0.42736965
3744000,0.20162055,-0.07896434,0.43001017
3756000,0.20162056,-0.07896434,0.43001017
3764000,0.20162056,-0.07896435,0.43001017
3776000,0.20162058,-0.07896435,0.43001014
3784000,0.20162058,-0.078964345,0.43001014
3796000,0.20037274,-0.078272246,0.42873323
3804000,0.20037276,-0.07827224,0.42873323
3816000,0.20037276,-0.07827224,0.4287332
3824000,0.20037276,-0.07827225,0.4287332
3836000,0.20037277,-0.07827225,0.4287332
3844000,0.20022845,-0.08333173,0.43086904
3856000,0.20022847,-0.08333172,0.43086904
3864000,0.20022847,-0.08333171,0.43086904
3876000,0.20022848,-0.08333171,0.43086904
3884000,0.20022848,-0.08333173,0.43086904
3896000,0.20233046,-0.07948111,0.4297496
3904000,0.20233046,-0.0794811,0.42974958
3916000,0.20233047,-0.0794811,0.42974958
3924000,0.20233047,-0.07948112,0.42974958
3936000,0.20233048,-0.07948112,0.42974958
3944000,0.20233048,-0.0794811,0.42974958
3956000,0.20133038,-0.082222745,0.43148783
3964000,0.20133038,-0.08222274,0.43148783
3976000,0.2013304,-0.08222273,0.43148783
3984000,0.2013304,-0.08222275,0.4314878
3996000,0.20133041,-0.082222745,0.4314878
4004000,0.20061766,-0.078554586,0.42884365
4015999,0.20061766,-0.078554586,0.42884365
4028000,0.20061767,-0.07855458,0.42884365
4036000,0.20061767,-0.07855457,0.42884365
4044000,0.20061769,-0.078554586,0.42884365
4055999,0.1984713,-0.08421658,0.429947
4068000,0.19847131,-0.08421658,0.429947
4076000,0.19847131,-0.084216565,0.429947
4084000,0.19847132,-0.08421656,0.429947
4095999,0.19847132,-0.08421656,0.429947
4108000,0.19933864,-0.08037641,0.43162286
4116000,0.19933864,-0.080376424,0.43162286
4124000,0.19933866,-0.08037642,0.43162286
4135999,0.19933866,-0.08037641,0.43162286
4148000,0.19933867,-0.08037641,0.43162286
4156000,0.20103274,-0.07859546,0.42738026
4164000,0.20103276,-0.07859548,0.42738026
4175999,0.20103276,-0.078595474,0.42738026
4188000,0.20103277,-0.078595474,0.42738026
4196000,0.20103277,-0.07859547,0.42738026
4204000,0.20103277,-0.07859548,0.42738023
4216000,0.19971891,-0.08087862,0.4267352
4224000,0.19971891,-0.08087861,0.4267352
4236000,0.19971892,-0.08087861,0.4267352
4244000,0.19971892,-0.0808786,0.4267352
4256000,0.19971894,-0.08087859,0.4267352
4264000,0.19859242,-0.07915031,0.4310816
4276000,0.19859244,-0.07915031,0.4310816
4284000,0.19859244,-0.0791503,0.4310816
4296000,0.19859245,-0.0791503,0.43108156
4304000,0.19859245,-0.07915029,0.43108156
4316000,0.20260312,-0.08214496,0.42733192
4324000,0.20260313,-0.082144976,0.42733192
4336000,0.20260313,-0.082144976,0.42733192
4344000,0.20260315,-0.08214497,0.42733192
4356000,0.20260315,-0.08214496,0.4273319
4364000,0.20159262,-0.082483515,0.42843398
4376000,0.20159264,-0.082483515,0.42843398
4384000,0.20159264,-0.08248353,0.42843398
4396000,0.20159265,-0.08248353,0.42843398
4404000,0.20159265,-0.082483515,0.42843398
4416000,0.19713137,-0.08542194,0.43223798
4424000,0.19713137,-0.08542193,0.43223798
4436000,0.19713138,-0.08542193,0.43223798
4444000,0.19713138,-0.08542194,0.43223798
4456000,0.1971314,-0.08542194,0.43223795
4464000,0.1971314,-0.085421935,0.43223795
4476000,0.19895181,-0.07808623,0.42913547
4484000,0.19895183,-0.07808622,0.42913547
4496000,0.19895183,-0.07808621,0.42913547
4504000,0.19895184,-0.078086235,0.42913547
4516000,0.19895184,-0.07808623,0.42913547
4524000,0.19842874,-0.08162038,0.42963946
4536000,0.19842875,-0.08162038,0.42963946
4544000,0.19842875,-0.081620395,0.42963943
4556000,0.19842875,-0.081620395,0.42963943
4564000,0.19842876,-0.08162038,0.42963943
4576000,0.20120448,-0.0811158,0.43080896
4584000,0.20120448,-0.08111579,0.43080896
4596000,0.2012045,-0.08111579,0.43080893
4604000,0.2012045,-0.081115805,0.43080893
4616000,0.20120451,-0.081115805,0.43080893
4624000,0.2005826,-0.083106875,0.42556217
4636000,0.2005826,-0.083106875,0.42556217
4644000,0.2005826,-0.08310686,0.42556217
4656000,0.20058261,-0.08310686,0.42556217
4664000,0.20058261,-0.083106875,0.42556217
4676000,0.2026173,-0.08307013,0.42714587
4684000,0.2026173,-0.08307012,0.42714587
4696000,0.20261732,-0.08307012,0.42714587
4704000,0.20261732,-0.08307011,0.42714587
4716000,0.20261733,-0.08307011,0.42714587
4724000,0.20261733,-0.08307012,0.42714587
4736000,0.20203482,-0.08375762,0.4260158
4744000,0.20203482,-0.08375761,0.4260158
4756000,0.20203483,-0.0837576,0.4260158
4764000,0.20203483,-0.083757594,0.4260158
4776000,0.20203485,-0.083757594,0.4260158
4784000,0.19981372,-0.08305,0.42958823
4796000,0.19981374,-0.08305,0.42958823
4804000,0.19981374,-0.08304998,0.42958823
4816000,0.19981375,-0.08304998,0.42958823
4824000,0.19981375,-0.08305,0.4295882
4836000,0.19930646,-0.08065843,0.42940405
4844000,0.19930646,-0.08065842,0.42940405
4856000,0.19930647,-0.08065842,0.42940405
4864000,0.19930647,-0.080658406,0.42940405
4876000,0.19930649,-0.080658406,0.42940405
4884000,0.20078719,-0.079407334,0.4301857
4896000,0.20078719,-0.079407334,0.4301857
4904000,0.2007872,-0.07940733,0.4301857
4916000,0.2007872,-0.07940733,0.4301857
4924000,0.20078722,-0.07940731,0.4301857
4936000,0.19994828,-0.07832799,0.42774275
4944000,0.19994828,-0.078328006,0.42774275
4956000,0.1999483,-0.078328006,0.42774275
4964000,0.1999483,-0.078328,0.42774275
4976000,0.19994831,-0.07832799,0.42774275
4984000,0.19994831,-0.078328006,0.42774275
4996000,0.20026287,-0.083226316,0.4310337
5004000,0.20026289,-0.08322633,0.43103367
5016000,0.20026289,-0.08322633,0.43103367
5024000,0.20026289,-0.08322632,0.43103367
5036000,0.2002629,-0.083226316,0.43103367
5044000,0.20063621,-0.08095465,0.42731214
5056000,0.20063621,-0.08095464,0.42731214
5064000,0.20063622,-0.08095466,0.42731214
5076000,0.20063622,-0.080954656,0.42731214
5084000,0.20063622,-0.08095465,0.42731214
5096000,0.20177998,-0.080507,0.42939016
5104000,0.20177998,-0.080506995,0.42939016
5116000,0.20177998,-0.080506995,0.42939016
5124000,0.20177999,-0.08050701,0.42939016
5136000,0.20177999,-0.08050701,0.42939016
5144000,0.20299856,-0.08019274,0.42720008
5156000,0.20299856,-0.08019274,0.42720008
5164000,0.20299858,-0.08019275,0.42720008
5176000,0.20299858,-0.080192745,0.42720008
5184000,0.2029986,-0.08019274,0.42720008
5196000,0.19760676,-0.08278139,0.42685163
5204000,0.19760676,-0.08278138,0.42685163
5216000,0.19760676,-0.08278138,0.42685163
5224000,0.19760677,-0.0827814,0.42685163
5236000,0.19760677,-0.0827814,0.42685163
5244000,0.19760679,-0.08278138,0.42685163
5256000,0.19975358,-0.082703784,0.42957693
5264000,0.1997536,-0.08270378,0.42957693
5276000,0.1997536,-0.08270378,0.42957693
5284000,0.1997536,-0.08270379,0.42957693
5296000,0.19975361,-0.08270379,0.4295769
5304000,0.20013607,-0.082671136,0.43149513
5316000,0.20013608,-0.082671136,0.4314951
5324000,0.20013608,-0.08267113,0.4314951
5336000,0.2001361,-0.08267112,0.4314951
5344000,0.2001361,-0.08267114,0.4314951
5356000,0.20053709,-0.08282406,0.42868116
5364000,0.20053709,-0.082824044,0.42868116
5376000,0.2005371,-0.082824044,0.42868114
5384000,0.2005371,-0.08282404,0.42868114
5396000,0.20053712,-0.08282404,0.42868114
5404000,0.20053712,-0.08282405,0.42868114
5416000,0.19862205,-0.08010506,0.42991126
5424000,0.19862206,-0.08010505,0.42991126
5436000,0.19862206,-0.080105044,0.42991126
5444000,0.19862206,-0.08010506,0.42991123
5456000,0.2015733,-0.07987173,0.42786464
5464000,0.2015733,-0.07987172,0.42786464
5476000,0.20157331,-0.07987172,0.42786464
5484000,0.20157331,-0.07987171,0.42786464
5496000,0.20157333,-0.07987171,0.42786464
5504000,0.20157333,-0.07987172,0.42786464
5516000,0.20237704,-0.080588385,0.42792028
5524000,0.20237705,-0.08058837,0.42792028
5536000,0.20237705,-0.08058837,0.42792028
5544000,0.20237707,-0.08058836,0.42792028
5556000,0.20237707,-0.08058836,0.42792028
5564000,0.19765969,-0.07914935,0.4297834
5576000,0.1976597,-0.07914934,0.4297834
5584000,0.1976597,-0.079149336,0.42978337
5596000,0.19765972,-0.079149336,0.42978337
5604000,0.19765972,-0.07914933,0.42978337
5616000,0.20369367,-0.080494255,0.42741203
5624000,0.20369367,-0.08049428,0.42741203
5636000,0.20369369,-0.08049427,0.42741203
5644000,0.20369369,-0.08049426,0.42741203
5656000,0.2036937,-0.08049426,0.427412
5664000,0.20197992,-0.07966023,0.4265533
5676000,0.20197994,-0.07966023,0.4265533
5684000,0.20197994,-0.079660244,0.4265533
5696000,0.20197995,-0.079660244,0.4265533
5704000,0.20197995,-0.07966024,0.4265533
5716000,0.20197996,-0.07966023,0.4265533
5724000,0.20163932,-0.08110175,0.4285211
5736000,0.20163932,-0.08110175,0.4285211
5744000,0.20163932,-0.08110177,0.4285211
5756000,0.20163934,-0.08110177,0.4285211
5764000,0.20163934,-0.08110175,0.4285211
5776000,0.19819084,-0.081699714,0.4292265
5784000,0.19819084,-0.08169973,0.4292265
5796000,0.19819085,-0.08169973,0.4292265
5804000,0.19819085,-0.08169972,0.4292265
5816000,0.19819087,-0.08169972,0.4292265
5824000,0.19994651,-0.08130682,0.42970115
5836000,0.19994651,-0.081306815,0.42970115
5844000,0.19994651,-0.08130684,0.42970115
5856000,0.19994652,-0.08130683,0.42970115
5864000,0.19994652,-0.08130682,0.42970115
5876000,0.19963029,-0.08323137,0.42812815
5884000,0.19963029,-0.08323136,0.42812815
5896000,0.1996303,-0.08323135,0.42812815
5904000,0.1996303,-0.083231375,0.42812812
5916000,0.1996303,-0.08323137,0.42812812
5924000,0.20380117,-0.077445716,0.42616925
5936000,0.20380118,-0.07744571,0.42616925
5944000,0.20380118,-0.0774457,0.42616925
5956000,0.20380118,-0.0774457,0.42616922
5964000,0.2038012,-0.077445716,0.42616922
5976000,0.20144896,-0.08270376,0.43084422
5984000,0.20144896,-0.082703754,0.43084422
5996000,0.20144898,-0.082703754,0.43084422
6004000,0.20144898,-0.08270375,0.43084422
6016000,0.20144899,-0.08270374,0.43084422
6024000,0.20144899,-0.08270376,0.43084422
6036000,0.19923249,-0.08174289,0.42883036
6044000,0.19923249,-0.08174288,0.42883036
6056000,0.1992325,-0.08174288,0.42883033
6064000,0.1992325,-0.0817429,0.42883033
6076000,0.1992325,-0.0817429,0.42883033
6084000,0.1999537,-0.081125945,0.4293446
6096000,0.19995372,-0.081125945,0.4293446
6104000,0.19995372,-0.08112594,0.4293446
6116000,0.19995373,-0.08112594,0.4293446
6124000,0.19995373,-0.08112595,0.4293446
6136000,0.2031456,-0.0795266,0.42475465
6144000,0.20314561,-0.07952659,0.42475465
6156000,0.20314561,-0.07952659,0.42475465
6164000,0.20314562,-0.07952658,0.42475465
6176000,0.20314562,-0.07952658,0.42475465
6184000,0.20119001,-0.08361175,0.42846105
6196000,0.20119001,-0.08361175,0.42846105
6204000,0.20119001,-0.083611734,0.42846105
6216000,0.20119002,-0.083611734,0.42846105
6224000,0.20119002,-0.08361173,0.42846105
6236000,0.20223211,-0.08054473,0.4278748
6244000,0.20223211,-0.08054475,0.42787477
6256000,0.20223212,-0.08054475,0.42787477
6264000,0.20223212,-0.08054474,0.42787477
6276000,0.20223212,-0.08054474,0.42787477
6284000,0.20223214,-0.080544725,0.42787477
6296000,0.20333293,-0.08233992,0.43274212
6304000,0.20333293,-0.082339935,0.43274212
6316000,0.20333295,-0.082339935,0.43274212
6324000,0.20333295,-0.08233993,0.43274212
6336000,0.20333296,-0.08233993,0.43274212
6344000,0.2001015,-0.08231791,0.42804807
6356000,0.2001015,-0.08231793,0.42804807
6364000,0.20010151,-0.082317926,0.42804807
6376000,0.20010151,-0.082317926,0.42804807
6384000,0.20010151,-0.08231791,0.42804807
6396000,0.20150897,-0.08305928,0.4285597
6404000,0.20150898,-0.0830593,0.4285597
6416000,0.20150898,-0.083059296,0.4285597
6424000,0.201509,-0.08305929,0.4285597
6436000,0.201509,-0.08305929,0.4285597
6444000,0.20150901,-0.08305927,0.4285597
6456000,0.20095491,-0.07875561,0.42719203
6464000,0.20095491,-0.078755625,0.42719203
6476000,0.20095493,-0.078755625,0.42719203
6484000,0.20095493,-0.07875562,0.42719203
6496000,0.20095494,-0.07875561,0.42719203
6504000,0.20000951,-0.08036467,0.43209538
6516000,0.20000952,-0.08036466,0.43209538
6524000,0.20000952,-0.08036468,0.43209538
6536000,0.20000954,-0.080364674,0.43209538
6544000,0.20000954,-0.08036467,0.43209538
6556000,0.20104095,-0.0802764,0.4300499
6564000,0.20104095,-0.080276385,0.4300499
6576000,0.20104095,-0.080276385,0.4300499
6584000,0.20104097,-0.0802764,0.4300499
6596000,0.20104097,-0.0802764,0.4300499
6604000,0.20009956,-0.082912154,0.42849997
6616000,0.20009956,-0.082912154,0.42849997
6624000,0.20009957,-0.08291214,0.42849997
6636000,0.20009957,-0.08291214,0.42849997
6644000,0.20009959,-0.082912154,0.42849997
6656000,0.1998464,-0.07908246,0.4287175
6664000,0.19984642,-0.07908245,0.4287175
6676000,0.19984642,-0.079082444,0.4287175
6684000,0.19984643,-0.07908247,0.4287175
6696000,0.19984643,-0.07908246,0.4287175
6704000,0.19985487,-0.08193176,0.43304768
6716000,0.19985487,-0.081931755,0.43304768
6724000,0.19985488,-0.08193175,0.43304768
6736000,0.19985488,-0.08193175,0.43304768
6744000,0.19985488,-0.08193176,0.43304765
6756000,0.20036341,-0.08003177,0.42998385
6764000,0.20036341,-0.08003176,0.42998385
6776000,0.20036343,-0.08003175,0.42998385
6784000,0.20036343,-0.080031745,0.42998385
6796000,0.20036344,-0.080031745,0.42998385
6804000,0.20036344,-0.08003176,0.42998385
6816000,0.19889235,-0.07923891,0.42833948
6824000,0.19889237,-0.0792389,0.42833948
6836000,0.19889237,-0.0792389,0.42833948
6844000,0.19889238,-0.07923889,0.42833948
6856000,0.19889238,-0.079238884,0.42833948
6864000,0.1994879,-0.08274074,0.42987412
6876000,0.19948791,-0.08274073,0.42987412
6884000,0.19948791,-0.082740724,0.42987412
6896000,0.19948792,-0.082740724,0.42987412
6904000,0.19948792,-0.08274072,0.42987412
6916000,0.19762821,-0.08180545,0.4291171
6924000,0.19762821,-0.081805475,0.4291171
6936000,0.19762823,-0.08180547,0.4291171
6944000,0.19762823,-0.08180546,0.4291171
6956000,0.19762824,-0.08180546,0.4291171
6964000,0.2016546,-0.080806464,0.42902893
6976000,0.2016546,-0.08080649,0.42902893
6984000,0.20165461,-0.08080648,0.42902893
6996000,0.20165461,-0.08080647,0.42902893
7004000,0.20165463,-0.080806464,0.42902893
7016000,0.20165463,-0.080806464,0.4290289
7024000,0.20434651,-0.079842314,0.42798567
7036000,0.20434652,-0.079842314,0.42798567
7044000,0.20434652,-0.0798423,0.42798567
7056000,0.20434654,-0.0798423,0.42798567
7064000,0.20434654,-0.07984229,0.42798567
7076000,0.20225364,-0.0828938,0.42845368
7084000,0.20225364,-0.08289382,0.42845368
7096000,0.20225364,-0.08289382,0.42845368
7104000,0.20225365,-0.08289381,0.42845368
7116000,0.20225365,-0.08289381,0.42845368
7124000,0.20072275,-0.080465645,0.43181583
7136000,0.20072275,-0.080465645,0.4318158
7144000,0.20072275,-0.08046566,0.4318158
7156000,0.20072277,-0.08046566,0.4318158
7164000,0.20072277,-0.08046565,0.4318158
7176000,0.20030272,-0.080822274,0.43005517
7184000,0.20030272,-0.08082227,0.43005517
7196000,0.20030273,-0.08082227,0.43005517
7204000,0.20030273,-0.08082228,0.43005517
7216000,0.20030275,-0.08082228,0.43005517
7224000,0.20030275,-0.080822274,0.43005517
7236000,0.20177953,-0.08292444,0.42743176
7244000,0.20177953,-0.082924426,0.42743176
7256000,0.20177954,-0.082924426,0.42743176
7264000,0.20177954,-0.08292445,0.42743176
7276000,0.19922234,-0.08393852,0.427249
7284000,0.19922236,-0.08393851,0.427249
7296000,0.19922236,-0.08393851,0.427249
7304000,0.19922237,-0.083938524,0.427249
7316000,0.19922237,-0.083938524,0.42724898
7324000,0.19922237,-0.08393851,0.42724898
7336000,0.20081423,-0.08218215,0.430378
7344000,0.20081423,-0.08218214,0.430378
7356000,0.20081425,-0.08218214,0.430378
7364000,0.20081425,-0.082182154,0.430378
7376000,0.20081426,-0.082182154,0.430378
7384000,0.19945571,-0.08327041,0.43067238
7396000,0.19945572,-0.08327041,0.43067238
7404000,0.19945572,-0.0832704,0.43067238
7416000,0.19945574,-0.08327039,0.43067238
7424000,0.19945574,-0.083270416,0.43067238
7436000,0.1994029,-0.080436386,0.42844874
7444000,0.19940291,-0.08043637,0.4284487
7456000,0.19940291,-0.08043637,0.4284487
7464000,0.19940293,-0.080436364,0.4284487
7476000,0.19940293,-0.080436364,0.4284487
7484000,0.19940293,-0.08043638,0.4284487
7496000,0.201414,-0.08010557,0.42845425
7504000,0.201414,-0.080105565,0.42845425
7516000,0.20141402,-0.080105565,0.42845422
7524000,0.20141402,-0.08010555,0.42845422
7536000,0.20141403,-0.08010555,0.42845422
7544000,0.200231,-0.08269651,0.4273918
7556000,0.200231,-0.08269651,0.42739177
7564000,0.200231,-0.0826965,0.42739177
7576000,0.20023102,-0.0826965,0.42739177
7584000,0.20023102,-0.08269651,0.42739177
7596000,0.20162457,-0.0797577,0.42798913
7604000,0.20162459,-0.07975769,0.42798913
7616000,0.20162459,-0.07975768,0.42798913
7624000,0.2016246,-0.079757676,0.42798913
7636000,0.2016246,-0.079757676,0.42798913
7644000,0.19995353,-0.08065679,0.4283452
7656000,0.19995354,-0.08065679,0.4283452
7664000,0.19995354,-0.08065678,0.4283452
7676000,0.19995354,-0.08065678,0.42834517
7684000,0.19995356,-0.08065677,0.42834517
7696000,0.20113738,-0.08070596,0.42749366
7704000,0.20113738,-0.08070598,0.42749366
7716000,0.2011374,-0.08070598,0.42749366
7724000,0.2011374,-0.08070596,0.42749366
7736000,0.20113741,-0.08070596,0.42749366
7744000,0.20113741,-0.080705956,0.42749366
7756000,0.20101519,-0.083993204,0.4296449
7764000,0.20101519,-0.08399322,0.42964488
7776000,0.2010152,-0.08399322,0.42964488
7784000,0.2010152,-0.08399321,0.42964488
7796000,0.20101522,-0.08399321,0.42964488
7804000,0.20188913,-0.082458645,0.42684573
7816000,0.20188914,-0.082458645,0.42684573
7824000,0.20188914,-0.08245866,0.42684573
7836000,0.20188916,-0.08245866,0.4268457
7844000,0.20188916,-0.08245865,0.4268457
7856000,0.20147754,-0.08279721,0.43051544
7864000,0.20147756,-0.0827972,0.43051544
7876000,0.20147756,-0.08279719,0.43051544
7884000,0.20147757,-0.082797214,0.43051544
7896000,0.20147757,-0.08279721,0.43051544
7904000,0.20046015,-0.07906234,0.43146154
7916000,0.20046017,-0.07906234,0.43146154
7924000,0.20046017,-0.07906236,0.43146154
7936000,0.20046018,-0.07906235,0.43146154
7944000,0.20046018,-0.07906234,0.43146154
7956000,0.19923398,-0.084193245,0.43003276
7964000,0.19923398,-0.08419324,0.43003276
7976000,0.19923398,-0.08419324,0.43003273
7984000,0.199234,-0.08419325,0.43003273
7996000,0.199234,-0.08419325,0.43003273
8008000,0.20229465,-0.08268728,0.428727
8016000,0.20229465,-0.08268727,0.428727
8024000,0.20229466,-0.08268726,0.428727
8035999,0.20229466,-0.08268726,0.428727
8044000,0.20229468,-0.08268727,0.428727
8056000,0.20263934,-0.08364894,0.4276983
8064000,0.20263934,-0.083648935,0.4276983
8076000,0.20263936,-0.083648935,0.4276983
8088000,0.20263936,-0.083648935,0.42769828
8096000,0.20263937,-0.08364892,0.42769828
8104000,0.20263937,-0.08364894,0.42769828
8115999,0.20251806,-0.08249731,0.42746222
8124000,0.20251806,-0.082497306,0.42746222
8136000,0.20251806,-0.0824973,0.42746222
8144000,0.20251808,-0.08249729,0.42746222
8156000,0.20251808,-0.08249729,0.4274622
8168000,0.19763775,-0.08086727,0.42967406
8176000,0.19763777,-0.08086728,0.42967406
8184000,0.19763777,-0.080867276,0.42967406
8195999,0.19763777,-0.08086727,0.42967406
8204000,0.19763778,-0.08086729,0.42967406
8216000,0.201018,-0.07919059,0.43171126
8224000,0.201018,-0.07919058,0.43171126
8236000,0.20101802,-0.07919058,0.43171126
8248000,0.20101802,-0.07919058,0.43171126
8256000,0.20101804,-0.07919057,0.43171126
8264000,0.20192276,-0.08475879,0.4308796
8275999,0.20192277,-0.08475879,0.4308796
8284000,0.20192277,-0.08475877,0.4308796
8296000,0.20192279,-0.08475877,0.43087956
8304000,0.20192279,-0.084758766,0.43087956
8316000,0.2019228,-0.084758766,0.43087956
8328000,0.1993191,-0.08080742,0.4309484
8336000,0.1993191,-0.08080743,0.43094838
8344000,0.1993191,-0.080807425,0.43094838
8355999,0.19931911,-0.08080742,0.43094838
8364000,0.19931911,-0.08080741,0.43094838
8376000,0.19984928,-0.08073836,0.4284596
8384000,0.19984928,-0.08073837,0.4284596
8396000,0.1998493,-0.08073837,0.4284596
8404000,0.1998493,-0.080738366,0.4284596
8416000,0.19984931,-0.08073836,0.42845958
8424000,0.20126139,-0.08376488,0.4283136
8436000,0.2012614,-0.08376488,0.4283136
8444000,0.2012614,-0.083764896,0.42831358
8456000,0.20126142,-0.083764896,0.42831358
8464000,0.20126142,-0.08376489,0.42831358
8476000,0.19971605,-0.08079652,0.43189287
8484000,0.19971606,-0.08079651,0.43189287
8496000,0.19971606,-0.08079651,0.43189287
8504000,0.19971608,-0.080796525,0.43189284
8516000,0.19971608,-0.080796525,0.43189284
8524000,0.19845574,-0.082140125,0.42993683
8536000,0.19845574,-0.082140125,0.42993683
8544000,0.19845575,-0.08214014,0.42993683
8556000,0.19845575,-0.08214014,0.42993683
8564000,0.19845577,-0.08214013,0.42993683
8576000,0.19845577,-0.08214013,0.42993683
8584000,0.20061569,-0.07712972,0.4308261
8596000,0.20061569,-0.077129714,0.43082607
8604000,0.2006157,-0.07712974,0.43082607
8616000,0.2006157,-0.07712973,0.43082607
8624000,0.20061572,-0.07712972,0.43082607
8636000,0.19877575,-0.08153981,0.43076685
8644000,0.19877575,-0.0815398,0.43076685
8656000,0.19877577,-0.0815398,0.43076685
8664000,0.19877577,-0.08153982,0.43076685
8676000,0.19877578,-0.08153982,0.43076685
8684000,0.19945565,-0.08186467,0.42858356
8696000,0.19945566,-0.08186467,0.42858356
8704000,0.19945566,-0.081864655,0.42858356
8716000,0.19945568,-0.081864655,0.42858353
8724000,0.19945568,-0.08186467,0.42858353
8736000,0.2020802,-0.07965133,0.42757818
8744000,0.2020802,-0.079651326,0.42757818
8756000,0.20208022,-0.079651326,0.42757818
8764000,0.20208022,-0.07965131,0.42757818
8776000,0.20208022,-0.07965131,0.42757818
8784000,0.20273562,-0.08016783,0.42882136
8796000,0.20273562,-0.08016783,0.42882136
8804000,0.20273563,-0.08016782,0.42882136
8816000,0.20273563,-0.080167815,0.42882136
8824000,0.20273563,-0.08016784,0.42882136
8836000,0.20273565,-0.08016783,0.42882136
8844000,0.20088848,-0.08190261,0.43244255
8856000,0.2008885,-0.08190261,0.43244255
8864000,0.2008885,-0.08190259,0.43244255
8876000,0.20088851,-0.08190259,0.43244252
8884000,0.20088851,-0.08190261,0.43244252
8896000,0.20094544,-0.081612185,0.4277486
8904000,0.20094545,-0.08161218,0.4277486
8916000,0.20094545,-0.08161217,0.4277486
8924000,0.20094545,-0.08161216,0.4277486
8936000,0.20094547,-0.08161216,0.4277486
8944000,0.2015293,-0.08114363,0.4313801
8956000,0.20152931,-0.08114363,0.4313801
8964000,0.20152931,-0.081143625,0.4313801
8976000,0.20152932,-0.08114361,0.4313801
8984000,0.20152932,-0.08114361,0.43138006
8996000,0.20019308,-0.0824327,0.4279677
9004000,0.20019308,-0.08243272,0.42796767
9016000,0.20019309,-0.08243272,0.42796767
9024000,0.20019309,-0.0824327,0.42796767
9036000,0.2001931,-0.0824327,0.42796767
9044000,0.20518064,-0.08252611,0.43081313
9056000,0.20518064,-0.08252611,0.4308131
9064000,0.20518066,-0.082526125,0.4308131
9076000,0.20518066,-0.082526125,0.4308131
9084000,0.20518067,-0.08252612,0.4308131
9096000,0.20101434,-0.08300111,0.43243703
9104000,0.20101434,-0.08300109,0.43243703
9116000,0.20101435,-0.08300109,0.43243703
9124000,0.20101435,-0.08300111,0.43243703
9136000,0.20101437,-0.08300111,0.43243703
9144000,0.20101437,-0.0830011,0.43243703
9156000,0.20016906,-0.08054847,0.4285054
9164000,0.20016906,-0.08054849,0.4285054
9176000,0.20016907,-0.08054849,0.4285054
9184000,0.20016907,-0.08054847,0.4285054
9196000,0.20016909,-0.08054847,0.42850536
9204000,0.19976977,-0.07946785,0.43146262
9216000,0.19976978,-0.07946785,0.43146262
9224000,0.19976978,-0.07946786,0.43146262
9236000,0.1997698,-0.07946786,0.43146262
9244000,0.1997698,-0.079467855,0.43146262
9256000,0.19984855,-0.081081666,0.4306617
9264000,0.19984855,-0.08108165,0.4306617
9276000,0.19984856,-0.08108165,0.4306617
9284000,0.19984856,-0.081081666,0.4306617
9296000,0.19984858,-0.081081666,0.4306617
9304000,0.1999116,-0.0831542,0.43103436
9316000,0.19991161,-0.0831542,0.43103436
9324000,0.19991161,-0.08315419,0.43103436
9336000,0.19991162,-0.08315419,0.43103436
9344000,0.19991162,-0.0831542,0.43103436
9356000,0.20148815,-0.081106864,0.42985806
9364000,0.20148815,-0.08110686,0.42985806
9376000,0.20148817,-0.08110686,0.42985806
9384000,0.20148817,-0.08110684,0.42985806
9396000,0.20148818,-0.08110684,0.42985806
9404000,0.20148818,-0.08110686,0.42985806
9416000,0.20278119,-0.08270683,0.4314258
9424000,0.20278119,-0.082706824,0.4314258
9436000,0.2027812,-0.082706824,0.4314258
9444000,0.2027812,-0.08270684,0.43142578
9456000,0.20278122,-0.08270684,0.43142578
9464000,0.19902085,-0.082057334,0.43008402
9476000,0.19902086,-0.082057334,0.43008402
9484000,0.19902086,-0.08205733,0.43008402
9496000,0.19902088,-0.08205733,0.43008402
9504000,0.19902088,-0.08205734,0.43008402
9516000,0.19902088,-0.082057334,0.43008402
9524000,0.19765557,-0.080211565,0.42859292
9536000,0.19765557,-0.080211565,0.42859292
9544000,0.19765557,-0.08021156,0.42859292
9556000,0.19765559,-0.08021155,0.42859292
9564000,0.19765559,-0.08021157,0.42859292
9576000,0.19784054,-0.07961526,0.4318434
9584000,0.19784054,-0.07961525,0.4318434
9596000,0.19784056,-0.07961525,0.4318434
9604000,0.19784056,-0.07961524,0.4318434
9616000,0.19784057,-0.079615235,0.4318434
9624000,0.19994062,-0.08104743,0.42841387
9636000,0.19994064,-0.08104743,0.42841387
9644000,0.19994064,-0.081047416,0.42841387
9656000,0.19994064,-0.081047416,0.42841387
9664000,0.19994065,-0.08104741,0.42841387
9676000,0.19951065,-0.08023804,0.42973554
9684000,0.19951065,-0.08023805,0.42973554
9696000,0.19951066,-0.08023805,0.42973554
9704000,0.19951066,-0.08023804,0.4297355
9716000,0.19951068,-0.08023804,0.4297355
9724000,0.19977367,-0.07989549,0.430677
9736000,0.19977367,-0.07989549,0.430677
9744000,0.19977368,-0.079895504,0.430677
9756000,0.19977368,-0.079895504,0.430677
9764000,0.1997737,-0.07989549,0.430677
9776000,0.19999987,-0.079693094,0.4307088
9784000,0.19999987,-0.07969311,0.4307088
9796000,0.19999987,-0.07969311,0.43070877
9804000,0.19999988,-0.079693094,0.43070877
9816000,0.19999988,-0.079693094,0.43070877
9824000,0.20222305,-0.08231488,0.42712122
9836000,0.20222306,-0.08231488,0.42712122
9844000,0.20222306,-0.08231489,0.42712122
9856000,0.20222306,-0.08231489,0.42712122
9864000,0.20222308,-0.082314886,0.42712122
9876000,0.20155981,-0.08284708,0.42897704
9884000,0.20155981,-0.08284707,0.42897704
9896000,0.20155981,-0.08284707,0.42897704
9904000,0.20155983,-0.08284709,0.42897704
9916000,0.20155983,-0.08284709,0.42897704
9924000,0.20155984,-0.08284707,0.42897704
9936000,0.19712798,-0.078658976,0.42592743
9944000,0.197128,-0.07865896,0.42592743
9956000,0.197128,-0.07865896,0.42592743
9964000,0.19712801,-0.078658976,0.42592743
9976000,0.19712801,-0.078658976,0.42592743
9984000,0.19824758,-0.08075836,0.4293135
9996000,0.1982476,-0.08075836,0.4293135
10004000,0.1982476,-0.080758356,0.4293135
10016000,0.19824761,-0.08075835,0.4293135
10024000,0.19824761,-0.08075837,0.4293135
10036000,0.19867724,-0.08190172,0.4287001
10044000,0.19867726,-0.081901714,0.4287001
10056000,0.19867726,-0.08190171,0.4287001
10064000,0.19867726,-0.08190172,0.42870006
10076000,0.19867727,-0.08190172,0.42870006
10084000,0.2034399,-0.082266815,0.43187824
10096000,0.20343992,-0.082266815,0.43187824
10104000,0.20343992,-0.0822668,0.43187824
10116000,0.20343992,-0.0822668,0.43187824
10124000,0.20343994,-0.082266815,0.43187824
10136000,0.19947888,-0.078840934,0.42679015
10144000,0.1994789,-0.07884092,0.42679015
10156000,0.1994789,-0.07884092,0.42679012
10164000,0.1994789,-0.07884091,0.42679012
10176000,0.19947891,-0.07884091,0.42679012
10184000,0.19947891,-0.07884093,0.42679012
10196000,0.20361991,-0.08143918,0.42707792
10204000,0.20361991,-0.081439175,0.42707792
10216000,0.20361991,-0.08143917,0.42707792
10224000,0.20361993,-0.08143916,0.42707792
10236000,0.20361993,-0.08143916,0.42707792
10244000,0.20207173,-0.07917204,0.42846343
10256000,0.20207174,-0.07917204,0.42846343
10264000,0.20207174,-0.07917203,0.42846343
10276000,0.20207176,-0.07917202,0.42846343
10284000,0.20207176,-0.079172015,0.42846343
10296000,0.1994889,-0.07826415,0.43277168
10304000,0.1994889,-0.07826417,0.43277168
10316000,0.19948891,-0.07826416,0.43277168
10324000,0.19948891,-0.078264154,0.43277168
10336000,0.19948892,-0.078264154,0.43277168
10344000,0.19948892,-0.07826415,0.43277168
10356000,0.19919243,-0.079348356,0.43112248
10364000,0.19919243,-0.07934834,0.43112248
10376000,0.19919245,-0.07934834,0.43112245
10384000,0.19919245,-0.07934833,0.43112245
10396000,0.19919246,-0.079348326,0.43112245
10404000,0.20269892,-0.08165506,0.4285293
10416000,0.20269893,-0.08165506,0.4285293
10424000,0.20269893,-0.081655055,0.4285293
10436000,0.20269893,-0.081655055,0.4285293
10444000,0.20269895,-0.08165504,0.4285293
10456000,0.1985726,-0.077655934,0.4290102
10464000,0.1985726,-0.077655956,0.4290102
10476000,0.19857262,-0.07765595,0.4290102
10484000,0.19857262,-0.07765594,0.4290102
10496000,0.19857262,-0.07765594,0.4290102
10504000,0.20024784,-0.0790528,0.42922547
10516000,0.20024784,-0.0790528,0.42922544
10524000,0.20024785,-0.07905281,0.42922544
10536000,0.20024785,-0.07905281,0.42922544
10544000,0.20024785,-0.0790528,0.42922544
10556000,0.2021135,-0.0814018,0.4266152
10564000,0.2021135,-0.08140179,0.4266152
10576000,0.2021135,-0.08140179,0.4266152
10584000,0.20211351,-0.0814018,0.42661518
10596000,0.20211351,-0.0814018,0.42661518
10604000,0.20211352,-0.081401795,0.42661518
10616000,0.20114325,-0.0831643,0.43259248
10624000,0.20114326,-0.08316429,0.43259248
10636000,0.20114326,-0.08316429,0.43259248
10644000,0.20114326,-0.083164304,0.43259248
10656000,0.20158318,-0.08067955,0.43007043
10664000,0.20158319,-0.08067954,0.43007043
10676000,0.20158319,-0.08067954,0.43007043
10684000,0.2015832,-0.08067956,0.43007043
10696000,0.2015832,-0.08067955,0.4300704
10704000,0.20158322,-0.08067954,0.4300704
10716000,0.1953672,-0.07914198,0.4291122
10724000,0.1953672,-0.07914197,0.4291122
10736000,0.1953672,-0.07914197,0.4291122
10744000,0.19536722,-0.07914198,0.4291122
10756000,0.19536722,-0.07914198,0.4291122
10764000,0.20422344,-0.07961717,0.42811522
10776000,0.20422344,-0.07961717,0.42811522
10784000,0.20422344,-0.079617165,0.42811522
10796000,0.20422345,-0.079617165,0.42811522
10804000,0.20422345,-0.07961718,0.42811522
10816000,0.1986085,-0.083584465,0.42686692
10824000,0.19860852,-0.08358446,0.42686692
10836000,0.19860852,-0.08358446,0.42686692
10844000,0.19860852,-0.08358445,0.42686692
10856000,0.19860853,-0.08358444,0.42686692
10864000,0.19892268,-0.08196924,0.42838502
10876000,0.1989227,-0.08196923,0.42838502
10884000,0.1989227,-0.081969224,0.42838502
10896000,0.19892271,-0.081969224,0.42838502
10904000,0.19892271,-0.08196922,0.42838502
10916000,0.2019174,-0.08126537,0.4291591
10924000,0.2019174,-0.08126539,0.4291591
10936000,0.20191741,-0.08126538,0.4291591
10944000,0.20191741,-0.081265375,0.4291591
10956000,0.20191742,-0.081265375,0.4291591
10964000,0.20191742,-0.08126537,0.4291591
10976000,0.20165505,-0.081806086,0.4305468
10984000,0.20165505,-0.08180608,0.4305468
10996000,0.20165506,-0.08180607,0.4305468
11004000,0.20165506,-0.08180606,0.4305468
11016000,0.20165507,-0.08180606,0.4305468
11024000,0.1968695,-0.082087845,0.4302604
11036000,0.1968695,-0.08208784,0.4302604
11044000,0.19686952,-0.08208783,0.43026036
11056000,0.19686952,-0.08208783,0.43026036
11064000,0.19686954,-0.082087815,0.43026036
11076000,0.20155759,-0.08269373,0.43053904
11084000,0.20155759,-0.08269375,0.43053904
11096000,0.2015576,-0.08269375,0.43053904
11104000,0.2015576,-0.08269373,0.430539
11116000,0.20155762,-0.08269373,0.430539
11124000,0.20155762,-0.082693726,0.430539
11136000,0.20305914,-0.07964394,0.43104577
11144000,0.20305914,-0.07964396,0.43104577
11156000,0.20305915,-0.07964396,0.43104574
11164000,0.20305915,-0.07964395,0.43104574
11176000,0.19820857,-0.08121647,0.42757785
11184000,0.19820859,-0.08121646,0.42757785
11196000,0.19820859,-0.08121646,0.42757785
11204000,0.1982086,-0.08121648,0.42757785
11216000,0.1982086,-0.08121648,0.42757785
11224000,0.19820862,-0.08121646,0.42757785
11236000,0.19965476,-0.082205,0.43269816
11244000,0.19965477,-0.08220498,0.43269816
11256000,0.19965477,-0.08220498,0.43269816
11264000,0.19965479,-0.082205,0.43269813
11276000,0.19965479,-0.082205,0.43269813
11284000,0.19949093,-0.082806855,0.42804244
11296000,0.19949095,-0.08280685,0.42804244
11304000,0.19949095,-0.08280686,0.42804244
11316000,0.19949096,-0.08280686,0.42804244
11324000,0.19949096,-0.082806855,0.42804244
11336000,0.20076858,-0.082864486,0.42946377
11344000,0.20076858,-0.08286448,0.42946377
11356000,0.20076859,-0.08286448,0.42946377
11364000,0.20076859,-0.08286449,0.42946377
11376000,0.2007686,-0.08286449,0.42946377
11384000,0.2007686,-0.08286448,0.42946377
11396000,0.2002226,-0.083368696,0.4294458
11404000,0.2002226,-0.08336868,0.4294458
11416000,0.20022261,-0.08336868,0.4294458
11424000,0.20022261,-0.083368696,0.4294458
11436000,0.20022261,-0.083368696,0.4294458
11444000,0.20008592,-0.08404479,0.42766756
11456000,0.20008594,-0.08404479,0.42766756
11464000,0.20008594,-0.084044784,0.42766756
11476000,0.20008594,-0.084044784,0.42766756
11484000,0.20008595,-0.0840448,0.42766756
11496000,0.20161507,-0.081810154,0.42649668
11504000,0.20161507,-0.08181015,0.42649668
11516000,0.20161508,-0.08181014,0.42649665
11524000,0.20161508,-0.08181013,0.42649665
11536000,0.2016151,-0.08181013,0.42649665
11544000,0.20196025,-0.0790877,0.43034053
11556000,0.20196025,-0.0790877,0.43034053
11564000,0.20196027,-0.07908768,0.43034053
11576000,0.20196027,-0.07908768,0.43034053
11584000,0.20196028,-0.079087675,0.43034053
11596000,0.2014785,-0.082593605,0.43149567
11604000,0.20147851,-0.0825936,0.43149567
11616000,0.20147851,-0.0825936,0.43149567
11624000,0.20147853,-0.08259358,0.43149567
11636000,0.20147853,-0.08259358,0.43149567
11644000,0.20231846,-0.07950433,0.43026534
11656000,0.20231847,-0.07950433,0.43026534
11664000,0.20231847,-0.079504326,0.43026534
11676000,0.20231849,-0.07950432,0.43026534
11684000,0.20231849,-0.07950431,0.43026534
11696000,0.19993033,-0.08511077,0.42878628
11704000,0.19993033,-0.08511079,0.42878628
11716000,0.19993034,-0.08511078,0.42878628
11724000,0.19993034,-0.085110776,0.42878628
11736000,0.19993035,-0.085110776,0.42878628
11744000,0.19993035,-0.08511076,0.42878628
11756000,0.20032851,-0.080035895,0.42952883
11764000,0.20032851,-0.08003591,0.42952883
11776000,0.20032853,-0.08003591,0.42952883
11784000,0.20032853,-0.080035895,0.42952883
11796000,0.20032854,-0.080035895,0.42952883
11804000,0.20135325,-0.08124635,0.43009683
11816000,0.20135327,-0.081246346,0.43009683
11824000,0.20135327,-0.08124637,0.43009683
11836000,0.20135328,-0.08124636,0.43009683
11844000,0.20135328,-0.08124635,0.43009683
11856000,0.20037505,-0.07878121,0.4296151
11864000,0.20037505,-0.078781195,0.4296151
11876000,0.20037507,-0.078781195,0.42961508
11884000,0.20037507,-0.07878121,0.42961508
11896000,0.20037508,-0.07878121,0.42961508
11904000,0.20037508,-0.0787812,0.42961508
11916000,0.20136093,-0.081987575,0.42857185
11924000,0.20136093,-0.08198759,0.42857185
11936000,0.20136094,-0.08198759,0.42857185
11944000,0.20136094,-0.08198758,0.42857185
11956000,0.20136096,-0.08198758,0.42857182
11964000,0.19989322,-0.081615694,0.42734295
11976000,0.19989324,-0.081615694,0.42734295
11984000,0.19989324,-0.08161571,0.42734295
11996000,0.19989324,-0.08161571,0.42734295
12004000,0.19989325,-0.081615694,0.42734295
12016000,0.19919223,-0.08189198,0.4253317
12024000,0.19919223,-0.08189196,0.4253317
12036000,0.19919224,-0.08189196,0.4253317
12044000,0.19919224,-0.08189198,0.4253317
12056000,0.19919226,-0.08189198,0.4253317
12064000,0.2001914,-0.080027826,0.426383
12076000,0.20019141,-0.080027826,0.426383
12084000,0.20019141,-0.08002782,0.426383
12096000,0.20019142,-0.08002781,0.426383
12104000,0.20019142,-0.08002783,0.42638296
12116000,0.20038715,-0.07910213,0.43055648
12124000,0.20038715,-0.07910212,0.43055648
12136000,0.20038716,-0.07910212,0.43055648
12144000,0.20038716,-0.079102114,0.43055648
12156000,0.20038718,-0.07910211,0.43055648
12164000,0.20220087,-0.078646325,0.4270766
12176000,0.20220087,-0.078646325,0.4270766
12184000,0.20220087,-0.07864631,0.4270766
12196000,0.20220089,-0.07864631,0.4270766
12204000,0.20220089,-0.078646325,0.42707658
12216000,0.19593492,-0.08102413,0.4289702
12224000,0.19593492,-0.081024125,0.4289702
12236000,0.19593494,-0.081024125,0.4289702
12244000,0.19593494,-0.08102411,0.4289702
12256000,0.19593495,-0.08102411,0.4289702
12264000,0.19593495,-0.081024125,0.4289702
12276000,0.20334625,-0.082203485,0.4301435
12284000,0.20334625,-0.08220348,0.4301435
12296000,0.20334627,-0.08220348,0.43014348
12304000,0.20334627,-0.08220346,0.43014348
12316000,0.20334628,-0.08220346,0.43014348
12324000,0.20125559,-0.08313519,0.42805025
12336000,0.2012556,-0.08313519,0.42805025
12344000,0.2012556,-0.08313518,0.42805025
12356000,0.20125562,-0.08313518,0.42805022
12364000,0.20125562,-0.083135165,0.42805022
12376000,0.20061332,-0.084482506,0.4319395
12384000,0.20061332,-0.08448252,0.43193948
12396000,0.20061333,-0.08448252,0.43193948
12404000,0.20061333,-0.08448251,0.43193948
12416000,0.20061335,-0.08448251,0.43193948
12424000,0.20061335,-0.0844825,0.43193948
12436000,0.20081486,-0.083007276,0.43143538
12444000,0.20081487,-0.08300729,0.43143535
12456000,0.20081487,-0.08300729,0.43143535
12464000,0.20081489,-0.083007276,0.43143535
12476000,0.2007346,-0.07936356,0.43111742
12484000,0.20073462,-0.079363555,0.43111742
12496000,0.20073462,-0.07936357,0.4311174
12504000,0.20073463,-0.07936357,0.4311174
12516000,0.20073463,-0.07936357,0.4311174
12524000,0.20073463,-0.079363555,0.4311174
12536000,0.19843921,-0.08261983,0.42979807
12544000,0.19843921,-0.082619846,0.42979807
12556000,0.19843923,-0.08261984,0.42979807
12564000,0.19843923,-0.08261983,0.42979807
12576000,0.19843924,-0.08261983,0.42979807
12584000,0.19977894,-0.08069045,0.43041378
12596000,0.19977896,-0.08069045,0.43041378
12604000,0.19977896,-0.080690466,0.43041378
12616000,0.19977896,-0.080690466,0.43041378
12624000,0.19977897,-0.08069046,0.43041378
12636000,0.19974689,-0.0819794,0.4278093
12644000,0.1997469,-0.0819794,0.4278093
12656000,0.1997469,-0.081979394,0.4278093
12664000,0.19974692,-0.08197942,0.4278093
12676000,0.19974692,-0.08197941,0.4278093
12684000,0.20232147,-0.07913002,0.42836502
12696000,0.20232147,-0.07913002,0.42836502
12704000,0.20232148,-0.079130016,0.42836502
12716000,0.20232148,-0.079130016,0.42836502
12724000,0.2023215,-0.07913003,0.42836502
12736000,0.20020404,-0.08283787,0.42827624
12744000,0.20020406,-0.082837865,0.42827624
12756000,0.20020406,-0.08283786,0.42827624
12764000,0.20020407,-0.08283785,0.42827624
12776000,0.20020407,-0.08283785,0.42827624
12784000,0.20020407,-0.082837865,0.42827624
12796000,0.19877128,-0.080173194,0.42989525
12804000,0.1987713,-0.08017318,0.42989525
12816000,0.1987713,-0.08017318,0.42989525
12824000,0.19877131,-0.080173194,0.42989525
12836000,0.19877131,-0.080173194,0.42989525
12844000,0.20004994,-0.08127528,0.43110624
12856000,0.20004995,-0.08127528,0.43110624
12864000,0.20004995,-0.08127527,0.4311062
12876000,0.20004995,-0.08127526,0.4311062
12884000,0.20004997,-0.081275284,0.4311062
12896000,0.20047005,-0.08338118,0.4286459
12904000,0.20047005,-0.083381176,0.42864588
12916000,0.20047006,-0.083381176,0.42864588
12924000,0.20047006,-0.08338117,0.42864588
12936000,0.20047008,-0.08338116,0.42864588
12944000,0.19887532,-0.07756646,0.42811522
12956000,0.19887534,-0.07756646,0.42811522
12964000,0.19887534,-0.07756645,0.42811522
12976000,0.19887534,-0.07756645,0.42811522
12984000,0.19887535,-0.07756644,0.42811522
12996000,0.19887535,-0.07756644,0.42811522
13004000,0.20178343,-0.08026743,0.42904186
13016000,0.20178343,-0.08026742,0.42904186
13024000,0.20178345,-0.080267414,0.42904186
13036000,0.20178345,-0.080267414,0.42904186
13044000,0.20178345,-0.08026741,0.42904186
13056000,0.19830726,-0.0780844,0.42714912
13064000,0.19830726,-0.07808442,0.42714912
13076000,0.19830728,-0.07808442,0.4271491
13084000,0.19830728,-0.07808441,0.4271491
13096000,0.19830729,-0.0780844,0.4271491
13104000,0.19992213,-0.07934042,0.4265143
13116000,0.19992213,-0.07934041,0.4265143
13124000,0.19992213,-0.079340436,0.4265143
13136000,0.19992214,-0.07934043,0.4265143
13144000,0.19992214,-0.07934042,0.4265143
13156000,0.19890277,-0.08306292,0.43038416
13164000,0.19890279,-0.08306293,0.43038416
13176000,0.19890279,-0.08306293,0.43038416
13184000,0.1989028,-0.083062924,0.43038416
13196000,0.1989028,-0.08306292,0.43038416
13204000,0.1989028,-0.08306291,0.43038416
13216000,0.20037808,-0.080435224,0.42604527
13224000,0.20037808,-0.08043524,0.42604527
13236000,0.20037808,-0.08043524,0.42604524
13244000,0.20037809,-0.080435224,0.42604524
13256000,0.20037809,-0.080435224,0.42604524
13264000,0.1991834,-0.08164514,0.43192208
13276000,0.1991834,-0.08164513,0.43192208
13284000,0.1991834,-0.08164515,0.43192208
13296000,0.19918342,-0.081645146,0.43192208
13304000,0.19918342,-0.08164514,0.43192208
13316000,0.20330384,-0.083173074,0.429102
13324000,0.20330386,-0.08317307,0.429102
13336000,0.20330386,-0.08317307,0.429102
13344000,0.20330387,-0.08317308,0.429102
13356000,0.20330387,-0.08317308,0.42910197
13364000,0.1983325,-0.08084026,0.4279702
13376000,0.1983325,-0.08084026,0.4279702
13384000,0.19833252,-0.080840245,0.4279702
13396000,0.19833252,-0.080840245,0.4279702
13404000,0.19833253,-0.08084026,0.4279702
13416000,0.20177095,-0.08510113,0.42695457
13424000,0.20177096,-0.08510111,0.42695457
13436000,0.20177096,-0.08510111,0.42695457
13444000,0.20177098,-0.08510113,0.42695457
13456000,0.20177098,-0.08510113,0.42695457
13464000,0.20177098,-0.08510112,0.42695454
13476000,0.20092793,-0.08001047,0.42973635
13484000,0.20092794,-0.08001046,0.42973635
13496000,0.20092794,-0.08001045,0.42973635
13504000,0.20092796,-0.08001047,0.42973635
13516000,0.20092796,-0.08001047,0.42973635
13524000,0.19926834,-0.0835093,0.43120852
13536000,0.19926836,-0.0835093,0.4312085
13544000,0.19926836,-0.08350929,0.4312085
13556000,0.19926837,-0.08350929,0.4312085
13564000,0.19926837,-0.0835093,0.4312085
13576000,0.20174734,-0.08203887,0.42951745
13584000,0.20174736,-0.082038864,0.42951745
13596000,0.20174736,-0.082038864,0.42951745
13604000,0.20174737,-0.08203885,0.42951745
13624000,0.20162007,-0.08252984,0.42854157
13636000,0.20162007,-0.08252984,0.42854157
13644000,0.20162009,-0.08252983,0.42854157
13656000,0.20162009,-0.08252983,0.42854157
13664000,0.2016201,-0.08252982,0.42854157
13676000,0.19898552,-0.081383444,0.42789936
13684000,0.19898553,-0.08138346,0.42789936
13696000,0.19898553,-0.08138346,0.42789933
13704000,0.19898555,-0.08138345,0.42789933
13716000,0.19898555,-0.081383444,0.42789933
13724000,0.19898555,-0.08138344,0.42789933
13736000,0.20171662,-0.081779666,0.42878374
13744000,0.20171662,-0.08177968,0.42878374
13756000,0.20171663,-0.08177968,0.42878374
13764000,0.20171663,-0.08177967,0.42878374
13776000,0.2006946,-0.083532274,0.42726648
13784000,0.20069462,-0.08353229,0.42726648
13796000,0.20069462,-0.08353229,0.42726648
13804000,0.20069464,-0.08353228,0.42726648
13816000,0.20069464,-0.083532274,0.42726648
13824000,0.20069465,-0.08353227,0.42726648
13836000,0.19962499,-0.08099644,0.43025512
13844000,0.19962499,-0.080996454,0.43025512
13856000,0.199625,-0.080996454,0.4302551
13864000,0.199625,-0.08099645,0.4302551
13876000,0.19962502,-0.08099644,0.4302551
13884000,0.20077088,-0.08416553,0.42838526
13896000,0.20077088,-0.08416552,0.42838526
13904000,0.2007709,-0.08416554,0.42838523
13916000,0.2007709,-0.084165536,0.42838523
13924000,0.20077091,-0.08416553,0.42838523
13936000,0.20077091,-0.08416552,0.42838523
13944000,0.19916356,-0.080856055,0.4294437
13956000,0.19916357,-0.080856055,0.4294437
13964000,0.19916357,-0.08085607,0.4294437
13976000,0.19916359,-0.08085607,0.42944366
13984000,0.20052919,-0.078935094,0.4278914
13996000,0.2005292,-0.07893509,0.4278914
14004000,0.2005292,-0.07893509,0.4278914
14016000,0.20052922,-0.07893509,0.4278914
14024000,0.20052922,-0.0789351,0.4278914
14036000,0.20232873,-0.08073322,0.4286475
14044000,0.20232873,-0.0807332,0.4286475
14056000,0.20232874,-0.0807332,0.4286475
14064000,0.20232874,-0.08073322,0.4286475
14076000,0.20232876,-0.08073322,0.42864746
14084000,0.20232876,-0.08073321,0.42864746
14096000,0.20018615,-0.081985734,0.43160415
14104000,0.20018616,-0.08198573,0.43160415
14116000,0.20018616,-0.08198573,0.43160415
14124000,0.20018616,-0.08198574,0.43160415
14136000,0.20018618,-0.081985734,0.43160415
14144000,0.20160125,-0.07968777,0.42745325
14156000,0.20160125,-0.07968776,0.42745325
14164000,0.20160127,-0.07968775,0.42745325
14176000,0.20160127,-0.07968775,0.42745322
14184000,0.20160128,-0.07968777,0.42745322
14196000,0.2015549,-0.08140997,0.42899892
14204000,0.20155491,-0.08140996,0.42899892
14216000,0.20155491,-0.08140996,0.42899892
14224000,0.20155492,-0.081409946,0.42899892
14236000,0.20155492,-0.081409946,0.42899892
14244000,0.20155494,-0.08140996,0.4289989
14256000,0.19728015,-0.07863359,0.4278166
14264000,0.19728015,-0.078633584,0.4278166
14276000,0.19728017,-0.078633584,0.4278166
14284000,0.19728017,-0.07863358,0.4278166
14296000,0.19728018,-0.07863357,0.4278166
14304000,0.200142,-0.079318516,0.4316921
14316000,0.20014201,-0.079318516,0.4316921
14324000,0.20014201,-0.07931851,0.4316921
14336000,0.20014203,-0.07931851,0.43169206
14344000,0.20014203,-0.07931849,0.43169206
14356000,0.20176561,-0.080932654,0.4262695
14364000,0.20176561,-0.08093267,0.4262695
14376000,0.20176561,-0.08093267,0.4262695
14384000,0.20176563,-0.08093266,0.4262695
14396000,0.20176563,-0.080932654,0.4262695
14404000,0.20203406,-0.07898952,0.42826334
14416000,0.20203406,-0.07898952,0.42826334
14424000,0.20203406,-0.078989506,0.42826334
14436000,0.20203407,-0.078989506,0.42826334
14444000,0.20203407,-0.0789895,0.42826334
14456000,0.19896851,-0.082603194,0.4300352
14464000,0.19896851,-0.082603216,0.4300352
14476000,0.19896853,-0.08260321,0.4300352
14484000,0.19896853,-0.0826032,0.4300352
14496000,0.19896854,-0.0826032,0.4300352
14504000,0.19896854,-0.082603194,0.4300352
14516000,0.20054692,-0.08179101,0.42844358
14524000,0.20054694,-0.08179103,0.42844358
14536000,0.20054694,-0.08179103,0.42844358
14544000,0.20054694,-0.08179101,0.42844358
14556000,0.202918,-0.083064996,0.42948434
14564000,0.20291801,-0.08306499,0.42948434
14576000,0.20291801,-0.08306498,0.42948434
14584000,0.20291801,-0.083065,0.4294843
14596000,0.20291802,-0.083064996,0.4294843
14604000,0.20291802,-0.08306499,0.4294843
14616000,0.19796996,-0.08097052,0.42993104
14624000,0.19796997,-0.08097051,0.42993104
14636000,0.19796997,-0.08097051,0.42993104
14644000,0.19796997,-0.080970526,0.42993104
14656000,0.19796999,-0.080970526,0.42993104
14664000,0.19942164,-0.08358249,0.42495778
14676000,0.19942166,-0.08358248,0.42495778
14684000,0.19942166,-0.0835825,0.42495775
14696000,0.19942166,-0.0835825,0.42495775
14704000,0.19942167,-0.08358249,0.42495775
14716000,0.201505,-0.080685146,0.42700142
14724000,0.201505,-0.08068514,0.42700142
14736000,0.20150502,-0.08068514,0.42700142
14744000,0.20150502,-0.08068515,0.42700142
14756000,0.20150502,-0.08068515,0.42700142
14764000,0.20150504,-0.08068514,0.42700142
14776000,0.20056202,-0.08199905,0.42981145
14784000,0.20056202,-0.08199903,0.42981145
14796000,0.20056203,-0.08199903,0.42981145
14804000,0.20056203,-0.08199905,0.42981145
14816000,0.2010483,-0.08320746,0.4311708
14824000,0.2010483,-0.08320744,0.4311708
14836000,0.2010483,-0.08320744,0.4311708
14844000,0.20104831,-0.083207436,0.4311708
14856000,0.20104831,-0.083207436,0.4311708
14864000,0.20104833,-0.08320745,0.43117076
14876000,0.2014605,-0.082007766,0.42904228
14884000,0.2014605,-0.08200776,0.42904228
14896000,0.20146051,-0.08200776,0.42904228
14904000,0.20146051,-0.08200774,0.42904228
14916000,0.20146053,-0.08200774,0.42904228
14924000,0.20080078,-0.08001152,0.4326167
14936000,0.20080079,-0.08001152,0.4326167
14944000,0.20080079,-0.08001151,0.4326167
14956000,0.20080079,-0.08001151,0.4326167
14964000,0.2008008,-0.080011494,0.4326167
14976000,0.20106846,-0.08227816,0.4299993
14984000,0.20106846,-0.082278155,0.4299993
14996000,0.20106848,-0.082278155,0.4299993
15004000,0.20106848,-0.08227814,0.4299993
15016000,0.20106849,-0.08227814,0.4299993
15024000,0.20106849,-0.082278155,0.4299993
15036000,0.19851603,-0.08115619,0.428475
15044000,0.19851604,-0.08115617,0.428475
15056000,0.19851604,-0.08115617,0.428475
15064000,0.19851606,-0.081156164,0.428475
15076000,0.19991721,-0.08163294,0.43060014
15084000,0.19991723,-0.08163296,0.43060014
15096000,0.19991723,-0.08163296,0.43060014
15104000,0.19991724,-0.08163294,0.43060014
15116000,0.19991724,-0.08163294,0.43060014
15124000,0.19991726,-0.081632935,0.43060014
15136000,0.1985611,-0.07839328,0.428454
15144000,0.1985611,-0.0783933,0.42845398
15156000,0.19856112,-0.078393295,0.42845398
15164000,0.19856112,-0.07839329,0.42845398
15176000,0.19856113,-0.07839329,0.42845398
15184000,0.2021265,-0.079028495,0.43059754
15196000,0.2021265,-0.079028495,0.43059754
15204000,0.20212652,-0.07902851,0.43059754
15216000,0.20212652,-0.07902851,0.43059754
15224000,0.20212653,-0.0790285,0.43059754
15236000,0.20271076,-0.0819992,0.43322048
15244000,0.20271078,-0.08199919,0.43322048
15256000,0.20271078,-0.08199919,0.43322048
15264000,0.20271079,-0.081999205,0.43322045
15276000,0.20271079,-0.081999205,0.43322045
15284000,0.19811489,-0.08231976,0.43100286
15296000,0.19811489,-0.082319774,0.43100286
15304000,0.19811489,-0.08231977,0.43100286
15316000,0.1981149,-0.08231977,0.43100283
15324000,0.1981149,-0.08231976,0.43100283
15336000,0.19894867,-0.085371286,0.42659777
15344000,0.19894867,-0.08537127,0.42659777
15356000,0.19894868,-0.08537127,0.42659777
15364000,0.19894868,-0.085371286,0.42659777
15376000,0.1989487,-0.085371286,0.42659777
15384000,0.1989487,-0.08537128,0.42659777
15396000,0.20057964,-0.085835405,0.42836878
15404000,0.20057966,-0.0858354,0.42836878
15416000,0.20057966,-0.08583539,0.42836878
15424000,0.20057966,-0.08583541,0.42836878
15436000,0.20057967,-0.085835405,0.42836878
15444000,0.20129354,-0.082813464,0.42729762
15456000,0.20129354,-0.082813464,0.42729762
15464000,0.20129356,-0.08281346,0.42729762
15476000,0.20129356,-0.08281346,0.42729762
15484000,0.20129357,-0.08281347,0.4272976
15496000,0.19847716,-0.081563726,0.42994618
15504000,0.19847716,-0.08156372,0.42994618
15516000,0.19847718,-0.08156372,0.42994618
15524000,0.19847718,-0.0815637,0.42994618
15536000,0.19847718,-0.0815637,0.42994618
15544000,0.20240481,-0.081888966,0.42914978
15556000,0.20240481,-0.081888966,0.42914978
15564000,0.20240483,-0.08188896,0.42914978
15576000,0.20240483,-0.08188896,0.42914978
15584000,0.20240484,-0.081888944,0.42914978
15596000,0.20196177,-0.081014,0.42957684
15604000,0.20196179,-0.081013985,0.42957684
15616000,0.20196179,-0.081013985,0.42957684
15624000,0.20196179,-0.08101398,0.42957684
15636000,0.2019618,-0.08101397,0.42957684
15644000,0.2019618,-0.08101399,0.42957684
15656000,0.20148245,-0.08129631,0.43056855
15664000,0.20148246,-0.0812963,0.43056855
15676000,0.20148246,-0.0812963,0.43056855
15684000,0.20148247,-0.08129629,0.43056855
15696000,0.20148247,-0.08129629,0.43056855
15704000,0.1992562,-0.08277274,0.4291348
15716000,0.1992562,-0.08277274,0.4291348
15724000,0.19925621,-0.08277273,0.4291348
15736000,0.19925621,-0.082772724,0.4291348
15744000,0.19925623,-0.08277272,0.4291348
15756000,0.20073238,-0.08438619,0.4295482
15764000,0.20073238,-0.08438621,0.4295482
15776000,0.20073238,-0.08438621,0.4295482
15784000,0.2007324,-0.08438619,0.4295482
15796000,0.2007324,-0.08438619,0.42954817
15804000,0.20073241,-0.084386185,0.42954817
15816000,0.20078951,-0.0838259,0.42827943
15824000,0.20078953,-0.083825916,0.42827943
15836000,0.20078953,-0.083825916,0.42827943
15844000,0.20078953,-0.0838259,0.42827943
15856000,0.20284094,-0.082007356,0.42913654
15864000,0.20284094,-0.08200735,0.42913654
15876000,0.20284094,-0.08200735,0.42913654
15884000,0.20284095,-0.08200736,0.42913654
15896000,0.20284095,-0.08200736,0.42913654
15904000,0.20284097,-0.082007356,0.42913654
15916000,0.20168908,-0.08087206,0.42757922
15924000,0.20168908,-0.08087208,0.42757922
15936000,0.2016891,-0.080872074,0.42757922
15944000,0.2016891,-0.08087207,0.42757922
15956000,0.20168911,-0.08087207,0.42757922
15964000,0.19951443,-0.08268633,0.43126673
15976000,0.19951445,-0.08268633,0.43126673
15984000,0.19951445,-0.08268634,0.43126673
15996000,0.19951446,-0.08268634,0.43126673
16004000,0.19951446,-0.082686335,0.43126673
16016000,0.20418543,-0.081009716,0.4309788
16028000,0.20418543,-0.081009716,0.4309788
16036000,0.20418543,-0.08100971,0.4309788
16048000,0.20418544,-0.0810097,0.4309788
16055999,0.20418544,-0.08100972,0.4309788
16064000,0.2000155,-0.07980969,0.42727685
16075999,0.2000155,-0.07980969,0.42727685
16084000,0.20001552,-0.07980968,0.42727685
16096000,0.20001552,-0.07980967,0.42727685
16104000,0.20001553,-0.079809695,0.42727682
16116000,0.20001553,-0.07980969,0.42727682
16124000,0.20526995,-0.08267612,0.43004075
16136000,0.20526995,-0.08267611,0.43004072
16144000,0.20526996,-0.082676105,0.43004072
16156000,0.20526996,-0.082676105,0.43004072
16164000,0.20526998,-0.08267612,0.43004072
16176000,0.20273773,-0.07914744,0.42924625
16188000,0.20273775,-0.07914744,0.42924625
16196000,0.20273775,-0.079147436,0.42924625
16208000,0.20273776,-0.07914743,0.42924625
16215999,0.20273776,-0.07914745,0.42924625
16224000,0.20328219,-0.08312023,0.42977917
