timestamp,rollspeed,pitchspeed,yawspeed,rollspeed_integ,pitchspeed_integ,yawspeed_integ,additional_integ1
1920000,0.0056260396,-0.01227113,-0.0021807726,0.0,0.0,0.0,0.0
1956000,-0.0026400979,-0.0044930778,-0.0022175524,0.0,0.0,0.0,0.0
1988000,-0.0033620335,-0.0029080645,0.0049007153,0.0,0.0,0.0,0.0
2020000,-0.001465277,-0.0067692776,0.000600583,0.0,0.0,0.0,0.0
2048000,0.0016985912,-0.013853544,0.006162829,0.0,0.0,0.0,0.0
2084000,-0.006627231,-0.011485664,-0.0005874978,0.0,0.0,0.0,0.0
2112000,-0.010576325,-0.015295616,0.0016198053,0.0,0.0,0.0,0.0
2144000,0.0007455931,-0.011637851,0.0090896515,0.0,0.0,0.0,0.0
2180000,-0.0022931737,-0.006523889,-0.0066679567,0.0,0.0,0.0,0.0
2208000,-0.0118988175,-0.007915422,-0.008473134,0.0,0.0,0.0,0.0
2240000,0.0010678219,0.00032501676,0.0034719708,0.0,0.0,0.0,0.0
2276000,-0.007819949,-0.005799664,0.0030488342,0.0,0.0,0.0,0.0
2304000,0.00062531896,-0.0077746003,-0.0016110188,0.0,0.0,0.0,0.0
2336000,0.0012075112,-0.012496731,0.003447758,0.0,0.0,0.0,0.0
2368000,-0.0063858693,-0.006861315,-0.01502007,0.0,0.0,0.0,0.0
2400000,0.007543126,-0.0018586641,-0.005365025,0.0,0.0,0.0,0.0
2436000,-0.0004567265,-0.0007403467,-0.0013680987,0.0,0.0,0.0,0.0
2464000,-0.0073774797,-0.004475036,-0.0019229648,0.0,0.0,0.0,0.0
2496000,-0.0038022043,0.0009532219,-0.007884126,0.0,0.0,0.0,0.0
2528000,0.0057711336,-0.005283214,-0.0017592525,0.0,0.0,0.0,0.0
2560000,0.0049204957,-0.0117805125,0.004390569,0.0,0.0,0.0,0.0
2592000,0.0033280237,-0.0052259355,0.006960364,0.0,0.0,0.0,0.0
2624000,-0.0071100607,-0.003698609,0.0027662874,0.0,0.0,0.0,0.0
2656000,-0.001806697,-0.009205579,-0.005266269,0.0,0.0,0.0,0.0
2692000,-0.010759342,0.0032806366,0.008025536,0.0,0.0,0.0,0.0
2720000,0.0006531416,0.0033810844,0.009213845,0.0,0.0,0.0,0.0
2756000,-0.004700348,-0.00053940935,-0.0011482859,0.0,0.0,0.0,0.0
2788000,0.006376114,-0.009210883,-0.00200229,0.0,0.0,0.0,0.0
2820000,-0.008974206,-0.0055341437,0.0019722844,0.0,0.0,0.0,0.0
2852000,-0.0050625945,-0.009896294,-0.0076522785,0.0,0.0,0.0,0.0
2880000,-0.0024320872,-0.009953838,0.0082386285,0.0,0.0,0.0,0.0
2912000,-0.0051448043,-0.015446573,0.0020012984,0.0,0.0,0.0,0.0
2944000,0.003569267,-0.0011352843,0.0015438484,0.0,0.0,0.0,0.0
2976000,-0.0076989816,-0.003966752,0.002072249,0.0,0.0,0.0,0.0
3012000,0.0001625493,-0.0030793797,-0.0026330936,0.0,0.0,0.0,0.0
3040000,-0.0035643135,7.814359e-05,-0.0014687903,0.0,0.0,0.0,0.0
3076000,-0.00861104,-0.0048931227,0.0022828728,0.0,0.0,0.0,0.0
3104000,-0.005793808,-0.017437514,0.009729811,0.0,0.0,0.0,0.0
3140000,0.00285488,-0.00863582,-0.00044579405,0.0,0.0,0.0,0.0
3172000,-0.007100688,-0.007241169,0.0026001215,0.0,0.0,0.0,0.0
3200000,-0.00082003867,-0.00019077909,0.0056497427,0.0,0.0,0.0,0.0
3236000,0.0032921138,-0.006264346,-0.0035229642,0.0,0.0,0.0,0.0
3264000,-0.00794804,-0.01122461,-0.00517103,0.0,0.0,0.0,0.0
3296000,-0.0022550987,-0.0053152964,7.997599e-05,0.0,0.0,0.0,0.0
3328000,-0.00088904536,-0.0030742777,0.0035541442,0.0,0.0,0.0,0.0
3360000,-0.00047932492,-0.006429211,-0.0024046735,0.0,0.0,0.0,0.0
3396000,-0.009570256,-0.010108889,-0.0014680473,0.0,0.0,0.0,0.0
3424000,0.0030036713,-0.012133925,-0.003247836,0.0,0.0,0.0,0.0
3456000,0.0005882724,-0.01528919,0.0005702781,0.0,0.0,0.0,0.0
3492000,0.0056432346,-0.0068386463,-0.006861375,0.0,0.0,0.0,0.0
3520000,-9.453656e-06,-0.0010669339,0.0048290826,0.0,0.0,0.0,0.0
3556000,-0.0066926903,-0.009978649,0.0012728279,0.0,0.0,0.0,0.0
3584000,-0.005249989,-0.012962767,-0.0013169005,0.0,0.0,0.0,0.0
3616000,-0.0025283676,-0.0040401504,-0.007591952,0.0,0.0,0.0,0.0
3648000,-0.0044497233,-0.002687159,0.003109373,0.0,0.0,0.0,0.0
3680000,-0.0051139086,-0.0069081797,-0.00090477464,0.0,0.0,0.0,0.0
3716000,-0.0042338907,-0.01463438,0.008231568,0.0,0.0,0.0,0.0
3744000,-0.0070055043,-0.0052081775,-0.008865718,0.0,0.0,0.0,0.0
3776000,-0.0038491304,-0.0038485616,-0.0009903675,0.0,0.0,0.0,0.0
3812000,-0.0074157454,-0.0017415838,-0.0002753628,0.0,0.0,0.0,0.0
3840000,-0.0061472985,0.002754324,-0.007445266,0.0,0.0,0.0,0.0
3872000,-0.010955322,-0.0020696116,0.0030207369,0.0,0.0,0.0,0.0
3904000,-0.0051522576,-0.00802117,0.0020256927,0.0,0.0,0.0,0.0
3936000,-0.0033043006,-0.009020444,0.0037873634,0.0,0.0,0.0,0.0
3968000,0.0067001698,-0.0019898443,0.008226216,0.0,0.0,0.0,0.0
3999999,-0.0004862889,-0.003376271,0.007661648,0.0,0.0,0.0,0.0
4031999,0.0009930051,-0.007929266,-0.0033539168,0.0,0.0,0.0,0.0
4063999,-0.00068663486,-0.007411428,-0.0020480042,0.0,0.0,0.0,0.0
4100000,-0.0068079466,-0.005624122,-0.0028237475,0.0,0.0,0.0,0.0
4127999,-0.00013923738,-0.0048043453,-0.003353132,0.0,0.0,0.0,0.0
4164000,-0.0034425403,-0.0052282605,-0.0020295344,0.0,0.0,0.0,0.0
4196000,-0.0037618203,-0.01019313,-0.005618316,0.0,0.0,0.0,0.0
4224000,0.0015230882,-0.011239103,0.00083839835,0.0,0.0,0.0,0.0
4256000,0.002832951,-0.004615579,-0.0014947813,0.0,0.0,0.0,0.0
4288000,-0.005291261,-0.0068199015,-0.00019822444,0.0,0.0,0.0,0.0
4324000,-0.007214625,-0.001651606,0.0052012824,0.0,0.0,0.0,0.0
4352000,-0.0040393854,-0.007789093,-0.0018765387,0.0,0.0,0.0,0.0
4384000,-0.0026744562,-0.017465299,-0.00405211,0.0,0.0,0.0,0.0
4416000,-0.0076238024,-0.0034243115,0.012235135,0.0,0.0,0.0,0.0
4448000,-0.0048682266,-0.0032502362,0.0014432715,0.0,0.0,0.0,0.0
4480000,0.006937885,-0.0043621603,-0.015708514,0.0,0.0,0.0,0.0
4512000,-0.005295924,-0.0038680593,0.0073224353,0.0,0.0,0.0,0.0
4548000,-0.00027036274,0.006179968,0.0025431656,0.0,0.0,0.0,0.0
4576000,0.0034792041,-0.0058387937,-0.0080821905,0.0,0.0,0.0,0.0
4612000,0.012316106,-0.012910147,-0.012594567,0.0,0.0,0.0,0.0
4644000,0.0043148864,-0.005805134,-0.0060672937,0.0,0.0,0.0,0.0
4672000,0.0036866912,-0.008431151,-0.0005117689,0.0,0.0,0.0,0.0
4708000,0.010738208,-0.010979466,0.0013581513,0.0,0.0,0.0,0.0
4736000,-0.006419312,-0.00078197423,0.0055481754,0.0,0.0,0.0,0.0
4768000,-0.0011820243,0.009414366,0.00041682366,0.0,0.0,0.0,0.0
4800000,0.007445107,0.0063935574,-0.011158448,0.0,0.0,0.0,0.0
4832000,0.0042497423,0.0014340188,-0.008535854,0.0,0.0,0.0,0.0
4868000,0.0045773033,-0.002765494,-0.004213753,0.0,0.0,0.0,0.0
4896000,-0.012511618,-0.0065022875,-0.010422527,0.0,0.0,0.0,0.0
4928000,-0.0049104393,-0.010145488,0.0032407106,0.0,0.0,0.0,0.0
4960000,-0.0049698553,-0.0048287017,0.0073774406,0.0,0.0,0.0,0.0
4992000,-0.005838851,-0.0019609095,-0.010878239,0.0,0.0,0.0,0.0
5024000,0.005911398,-0.0071418993,-0.0009771077,0.0,0.0,0.0,0.0
5056000,0.0018444806,-0.0007790966,-0.001126771,0.0,0.0,0.0,0.0
5092000,-0.008227551,-0.0062631257,-0.001939479,0.0,0.0,0.0,0.0
5120000,-0.0024402356,-0.003961426,0.0050751166,0.0,0.0,0.0,0.0
5152000,-0.005733672,-0.010532085,0.006842146,0.0,0.0,0.0,0.0
5184000,-0.002850012,-0.016084699,-0.004610097,0.0,0.0,0.0,0.0
5216000,0.00015376773,-0.003747377,0.0003076464,0.0,0.0,0.0,0.0
5248000,0.00018480179,-0.0074964194,0.0022986596,0.0,0.0,0.0,0.0
5284000,-0.002792782,0.0008526923,0.002519562,0.0,0.0,0.0,0.0
5312000,-0.004968216,-0.009400733,-0.00056441384,0.0,0.0,0.0,0.0
5344000,0.0049863076,-0.0060009123,0.002381309,0.0,0.0,0.0,0.0
5380000,0.002748825,-0.0085107805,-0.0012701384,0.0,0.0,0.0,0.0
5408000,0.0057044146,-0.00047189638,-0.014195267,0.0,0.0,0.0,0.0
5440000,-0.0037270335,-0.0032836609,-0.0039180336,0.0,0.0,0.0,0.0
5472000,-0.004888038,-0.0006551879,0.008333724,0.0,0.0,0.0,0.0
5508000,0.0031103888,-0.0021935878,9.4011535e-05,0.0,0.0,0.0,0.0
5536000,-0.001130172,-0.0020320015,-0.0037208307,0.0,0.0,0.0,0.0
5568000,-0.004988256,-0.0017781651,-0.0020045321,0.0,0.0,0.0,0.0
5600000,0.0018591604,-0.00080065615,-0.0041642315,0.0,0.0,0.0,0.0
5632000,-0.004940695,-0.0010988386,-0.0039604553,0.0,0.0,0.0,0.0
5664000,-0.0021311138,-0.006028504,0.007653635,0.0,0.0,0.0,0.0
5700000,0.0072377715,-0.0036200872,-0.0069650505,0.0,0.0,0.0,0.0
5728000,0.004081102,-0.0016132323,-0.0020605926,0.0,0.0,0.0,0.0
5764000,-0.004085639,-0.002711448,0.006397703,0.0,0.0,0.0,0.0
5792000,-0.0013040164,0.002543575,0.0077017355,0.0,0.0,0.0,0.0
5824000,-0.0013633003,-0.016296454,0.0029606894,0.0,0.0,0.0,0.0
5860000,-0.0050531714,-0.008468633,0.0014030925,0.0,0.0,0.0,0.0
5892000,0.016323484,-0.0018787507,0.002069442,0.0,0.0,0.0,0.0
5924000,0.01162901,-0.009298879,-0.004592075,0.0,0.0,0.0,0.0
5952000,0.0053592063,-0.004928034,-0.0053935493,0.0,0.0,0.0,0.0
5984000,-0.0017672552,-0.0052821618,-0.012544158,0.0,0.0,0.0,0.0
6020000,0.0008532217,-0.0048592617,-0.00074140803,0.0,0.0,0.0,0.0
6048000,0.0057631386,-0.004506316,-0.0022623194,0.0,0.0,0.0,0.0
6080000,-0.003492804,-0.0010039562,-0.0017393113,0.0,0.0,0.0,0.0
6112000,0.003838181,-0.0016461443,-0.0021845407,0.0,0.0,0.0,0.0
6144000,-0.003841363,0.0021098573,0.003808248,0.0,0.0,0.0,0.0
6176000,0.0044952985,0.0016622504,0.0046719396,0.0,0.0,0.0,0.0
6208000,0.006158372,0.0066354694,0.0032214532,0.0,0.0,0.0,0.0
6244000,0.00057111436,-0.002011338,0.00030673467,0.0,0.0,0.0,0.0
6276000,0.0046465346,0.0030634583,-0.0052409135,0.0,0.0,0.0,0.0
6304000,0.008752283,-0.009338171,-0.0031202117,0.0,0.0,0.0,0.0
6340000,-0.0020204694,0.0032794783,0.0027874957,0.0,0.0,0.0,0.0
6368000,-0.0007721798,0.011005809,0.0055928603,0.0,0.0,0.0,0.0
6400000,0.002259071,0.0065170694,0.0011369785,0.0,0.0,0.0,0.0
6436000,-0.00426297,-0.008381305,-0.008762537,0.0,0.0,0.0,0.0
6464000,0.0016374863,0.004436568,0.006582662,0.0,0.0,0.0,0.0
6496000,-0.00035675196,-0.007344315,-0.0047045965,0.0,0.0,0.0,0.0
6528000,0.0024848764,0.004506154,0.006707022,0.0,0.0,0.0,0.0
6560000,0.001373496,-0.0010224718,0.0103592,0.0,0.0,0.0,0.0
6592000,0.004410083,-0.0039873915,-0.0013648687,0.0,0.0,0.0,0.0
6628000,0.001338106,-0.00741441,0.002676851,0.0,0.0,0.0,0.0
6656000,-0.005318517,0.0057535227,0.010788148,0.0,0.0,0.0,0.0
6688000,-0.0071044867,-0.0047511803,-0.002964719,0.0,0.0,0.0,0.0
6720000,0.00023944146,-0.00038000313,0.0023400364,0.0,0.0,0.0,0.0
6756000,0.00010451861,0.0010396326,-0.0068612765,0.0,0.0,0.0,0.0
6788000,0.001909699,-6.9498084e-05,0.0033071807,0.0,0.0,0.0,0.0
6816000,0.002028456,-0.008134892,0.0008537618,0.0,0.0,0.0,0.0
6848000,-0.008427805,-0.0019330173,0.008337661,0.0,0.0,0.0,0.0
6880000,-0.007532637,-0.0057055037,-0.00041776508,0.0,0.0,0.0,0.0
6912000,-0.0029239375,0.0031511742,-0.0051195277,0.0,0.0,0.0,0.0
6944000,-0.00075520424,-0.003960371,-0.00831833,0.0,0.0,0.0,0.0
6976000,0.0036426526,0.009594236,0.017176328,0.0,0.0,0.0,0.0
7008000,-0.0046988036,-0.007287986,0.001267027,0.0,0.0,0.0,0.0
7040000,0.014017364,0.00089181913,-0.0007622243,0.0,0.0,0.0,0.0
7072000,-0.0005750987,-0.004086517,-0.0031454626,0.0,0.0,0.0,0.0
7104000,0.0032323361,0.003955545,0.0073996074,0.0,0.0,0.0,0.0
7136000,0.0005388332,-0.010014037,0.007545724,0.0,0.0,0.0,0.0
7168000,0.0045798593,-0.0004954594,0.0055223648,0.0,0.0,0.0,0.0
7204000,-0.005923397,-0.005031696,0.0047368356,0.0,0.0,0.0,0.0
7232000,0.0042699096,0.007726564,-0.003438586,0.0,0.0,0.0,0.0
7264000,-0.0017548742,-0.0030081342,-0.0052271676,0.0,0.0,0.0,0.0
7296000,-0.00461259,-0.001569787,0.0003875386,0.0,0.0,0.0,0.0
7328000,0.003572374,0.006700027,-0.0039964407,0.0,0.0,0.0,0.0
7360000,-0.008875635,0.008190424,-0.0023453264,0.0,0.0,0.0,0.0
7392000,-0.0013049212,0.00014310936,0.00318543,0.0,0.0,0.0,0.0
7424000,-0.01137804,-0.008672179,-0.004399472,0.0,0.0,0.0,0.0
7456000,-0.0076243663,-0.004821472,0.007685291,0.0,0.0,0.0,0.0
7488000,-0.0028889044,-0.0037982143,-9.635463e-05,0.0,0.0,0.0,0.0
7520000,0.0036782464,-0.0001458358,0.0062248637,0.0,0.0,0.0,0.0
7556000,-0.0008852717,-0.010310784,-0.001148565,0.0,0.0,0.0,0.0
7588000,0.010924045,0.0064943293,0.004637813,0.0,0.0,0.0,0.0
7616000,-0.0037052408,0.00011897087,0.0068732463,0.0,0.0,0.0,0.0
7648000,0.005291719,0.001385015,-0.006590032,0.0,0.0,0.0,0.0
7680000,-0.001283786,-0.0048648375,-0.0010917415,0.0,0.0,0.0,0.0
7716000,0.0025161337,-0.009487555,-0.0023858936,0.0,0.0,0.0,0.0
7748000,0.0044392943,-0.0031451895,0.004780409,0.0,0.0,0.0,0.0
7780000,0.007047961,-0.00598171,-0.00237981,0.0,0.0,0.0,0.0
7812000,-0.003500186,-0.0014228118,0.0014572863,0.0,0.0,0.0,0.0
7840000,0.00070935994,-0.0004362506,0.0036527752,0.0,0.0,0.0,0.0
7872000,0.00012075575,-0.008542368,0.0028121436,0.0,0.0,0.0,0.0
7908000,-0.0012282685,0.005744681,-0.0073829833,0.0,0.0,0.0,0.0
7940000,-0.0039559253,-0.0032525589,-0.004131181,0.0,0.0,0.0,0.0
7968000,0.0010361269,0.0012951433,-0.0021240956,0.0,0.0,0.0,0.0
8000000,-0.0034344813,0.0017427478,-0.0032277347,0.0,0.0,0.0,0.0
8032000,-0.001695313,0.00062831724,0.0044774646,0.0,0.0,0.0,0.0
8064000,0.008376822,0.010576719,-0.008766601,0.0,0.0,0.0,0.0
8096000,0.0086287325,0.0025997295,0.0056018922,0.0,0.0,0.0,0.0
8128000,0.0027325558,-0.00028260006,-0.00040894956,0.0,0.0,0.0,0.0
8163999,0.0074000726,0.0030276987,-0.0057470393,0.0,0.0,0.0,0.0
8192000,-0.0016954873,-0.008041078,-0.010335203,0.0,0.0,0.0,0.0
8224000,-0.013407076,0.01307567,-0.009629431,0.0,0.0,0.0,0.0
8256000,0.0027643903,0.00926886,0.002407575,0.0,0.0,0.0,0.0
8288000,0.008932448,-0.0024536368,-0.0047199274,0.0,0.0,0.0,0.0
8323999,-0.00451594,-0.0031734859,-0.0057709464,0.0,0.0,0.0,0.0
8355999,0.0103268325,-0.009781974,0.0016465395,0.0,0.0,0.0,0.0
8384000,0.0029282146,0.0023563595,0.009271114,0.0,0.0,0.0,0.0
8416000,0.002828578,-0.007951356,0.0074282736,0.0,0.0,0.0,0.0
8452000,0.00025605562,-0.00057132216,0.0023342664,0.0,0.0,0.0,0.0
8480000,0.004263101,-0.004534105,0.007339993,0.0,0.0,0.0,0.0
8512000,-0.009303269,0.0014203403,0.00034114512,0.0,0.0,0.0,0.0
8544000,-0.0029737593,-0.0020126589,-0.006114625,0.0,0.0,0.0,0.0
8576000,0.0023932667,-0.0017161705,0.0059745926,0.0,0.0,0.0,0.0
8608000,-0.0038079428,-0.0074430304,-0.0021885524,0.0,0.0,0.0,0.0
8644000,0.0005859073,-0.0044225557,0.0031320686,0.0,0.0,0.0,0.0
8672000,-0.003285246,-0.012821954,-0.004773166,0.0,0.0,0.0,0.0
8708000,-0.0027966902,-0.0008039046,0.000918522,0.0,0.0,0.0,0.0
8736000,0.0016491631,-0.0018138322,-0.008019963,0.0,0.0,0.0,0.0
8772000,0.009978021,-0.0070506614,0.00061875785,0.0,0.0,0.0,0.0
8800000,-0.010006603,0.0054453923,-0.00896283,0.0,0.0,0.0,0.0
8836000,0.0034271076,-0.0008299183,-0.008257523,0.0,0.0,0.0,0.0
8864000,-0.0044634663,-0.00530909,0.0054851584,0.0,0.0,0.0,0.0
8900000,-0.0012295553,-0.000395203,-0.004339619,0.0,0.0,0.0,0.0
8928000,-0.002536467,-0.008891653,0.0005828646,0.0,0.0,0.0,0.0
8960000,0.0036403483,-0.010595775,0.0044417344,0.0,0.0,0.0,0.0
8996000,0.002109734,-0.00059123663,0.0048026387,0.0,0.0,0.0,0.0
9024000,0.0016323653,0.0038204128,-0.003576267,0.0,0.0,0.0,0.0
9056000,-0.0060573965,-0.004155513,-0.00034708797,0.0,0.0,0.0,0.0
9088000,0.0016841523,-0.004162314,0.0036082393,0.0,0.0,0.0,0.0
9120000,-0.0035044719,0.005724252,-0.00050336425,0.0,0.0,0.0,0.0
9152000,0.0067623043,-0.003632863,0.004007652,0.0,0.0,0.0,0.0
9184000,0.0019190463,0.005350106,0.010008908,0.0,0.0,0.0,0.0
9216000,0.005475076,0.006613132,0.0054087634,0.0,0.0,0.0,0.0
9252000,-6.6239736e-05,-0.0123342965,-0.014279822,0.0,0.0,0.0,0.0
9280000,0.00464413,0.0027703776,0.0034208582,0.0,0.0,0.0,0.0
9312000,0.004605895,-0.003154512,-0.004008406,0.0,0.0,0.0,0.0
9344000,0.010815944,0.008884723,-0.0012511474,0.0,0.0,0.0,0.0
9376000,0.00350704,-0.00014520809,-0.008848907,0.0,0.0,0.0,0.0
9408000,-6.229454e-05,-0.0008230638,-0.0056594876,0.0,0.0,0.0,0.0
9440000,-0.002424464,0.0057993135,0.010193556,0.0,0.0,0.0,0.0
9472000,-0.01107146,0.0022568954,-0.0016034723,0.0,0.0,0.0,0.0
9504000,0.0045744684,0.0035774107,0.0018648894,0.0,0.0,0.0,0.0
9536000,-0.0024815872,0.00017422531,-0.008099134,0.0,0.0,0.0,0.0
9568000,0.0020611463,0.006438281,-0.004025852,0.0,0.0,0.0,0.0
9600000,0.00048787025,-0.0071524666,0.0036255168,0.0,0.0,0.0,0.0
9632000,-0.007580433,0.0030592147,0.01081918,0.0,0.0,0.0,0.0
9664000,0.0007397318,0.0023640045,0.005508847,0.0,0.0,0.0,0.0
9700000,0.0059044743,0.013063951,0.011658162,0.0,0.0,0.0,0.0
9732000,0.009557982,-0.0014799582,0.009515048,0.0,0.0,0.0,0.0
9760000,-0.004611602,-0.014484302,-0.0013291788,0.0,0.0,0.0,0.0
9792000,0.0018665299,-0.0062778937,-0.0032277645,0.0,0.0,0.0,0.0
9824000,-0.0020311126,0.0039912923,-0.0010041047,0.0,0.0,0.0,0.0
9860000,-0.0041515725,0.0047325953,-0.0042940946,0.0,0.0,0.0,0.0
9888000,0.00047799153,0.002125457,0.010147856,0.0,0.0,0.0,0.0
9924000,0.007689346,-0.0015941719,-0.009158082,0.0,0.0,0.0,0.0
9952000,-0.0008256828,-0.0042447885,-0.0025144971,0.0,0.0,0.0,0.0
9988000,-0.0012469837,0.0035514734,0.00118291,0.0,0.0,0.0,0.0
10020000,0.008331271,-0.0025113649,-0.0067125335,0.0,0.0,0.0,0.0
10048000,-0.003726992,-0.0031790482,-0.0023275537,0.0,0.0,0.0,0.0
10080000,0.0052664783,0.002975276,0.005096862,0.0,0.0,0.0,0.0
10112000,0.011594526,0.0034955782,-0.005956171,0.0,0.0,0.0,0.0
10144000,-0.0013613036,-0.0031423378,0.0003557904,0.0,0.0,0.0,0.0
10176000,0.0035435623,-0.00756323,0.0028898115,0.0,0.0,0.0,0.0
10208000,0.003028886,0.0021698452,-0.0002598477,0.0,0.0,0.0,0.0
10240000,0.0018094946,0.0024084523,3.318116e-05,0.0,0.0,0.0,0.0
10272000,0.0052826693,-0.00815368,-0.00791622,0.0,0.0,0.0,0.0
10308000,-0.003687397,-0.012068432,0.0029509203,0.0,0.0,0.0,0.0
10340000,-0.0060409056,0.0071903397,-0.0039149513,0.0,0.0,0.0,0.0
10372000,0.0034959456,0.0013314663,0.00050618115,0.0,0.0,0.0,0.0
10400000,0.002163154,-0.004129425,0.0062518013,0.0,0.0,0.0,0.0
10436000,-0.0037717135,-0.009131549,-0.0167528,0.0,0.0,0.0,0.0
10468000,0.0069292905,0.0023662983,-0.0077384464,0.0,0.0,0.0,0.0
10496000,-0.0035044975,0.0060659843,-0.0025043825,0.0,0.0,0.0,0.0
10528000,-0.0035963224,0.0074712844,0.0010448004,0.0,0.0,0.0,0.0
10560000,0.006557902,0.0014003604,0.0057983655,0.0,0.0,0.0,0.0
10592000,-0.00022174022,-0.0027664122,-0.00012867223,0.0,0.0,0.0,0.0
10624000,0.0005223675,0.007559166,0.001130302,0.0,0.0,0.0,0.0
10660000,0.00035968504,0.006313355,-0.00020810879,0.0,0.0,0.0,0.0
10692000,0.0034424597,-0.009933322,0.001926189,0.0,0.0,0.0,0.0
10720000,0.0023087068,0.003740663,0.011794494,0.0,0.0,0.0,0.0
10752000,-0.010626915,0.00070316857,-0.008732792,0.0,0.0,0.0,0.0
10784000,-0.0021907426,-0.012412039,-0.002690973,0.0,0.0,0.0,0.0
10816000,-0.004961158,0.009200971,-0.002983148,0.0,0.0,0.0,0.0
10848000,-0.00734612,-0.0058864844,0.00019951173,0.0,0.0,0.0,0.0
10884000,-0.009325123,-3.376091e-05,-0.0025557808,0.0,0.0,0.0,0.0
10912000,-0.0028343364,0.0050440067,-0.014603977,0.0,0.0,0.0,0.0
10944000,0.003417634,0.0034590568,9.648681e-05,0.0,0.0,0.0,0.0
10980000,-0.009260168,0.002757126,0.004273763,0.0,0.0,0.0,0.0
11008000,0.0036376924,0.0015629358,-0.005957391,0.0,0.0,0.0,0.0
11044000,-0.0010388235,-0.0033870516,-0.0013975108,0.0,0.0,0.0,0.0
11072000,0.0034839022,0.008773256,0.010209572,0.0,0.0,0.0,0.0
11104000,0.00019294332,0.014178343,0.005727678,0.0,0.0,0.0,0.0
11136000,0.00019229797,-0.0013769553,0.0040797223,0.0,0.0,0.0,0.0
11168000,-0.0090744635,-0.001504676,-0.006779634,0.0,0.0,0.0,0.0
11200000,0.0010453322,-0.008604182,-0.0062866644,0.0,0.0,0.0,0.0
11236000,0.0012520768,-0.010755607,-0.006449664,0.0,0.0,0.0,0.0
11264000,0.0018332684,-0.00010303594,-0.012437809,0.0,0.0,0.0,0.0
11296000,-8.3843246e-05,-0.0030091302,0.004316323,0.0,0.0,0.0,0.0
11328000,-0.006697896,0.0007512653,-0.00033533914,0.0,0.0,0.0,0.0
11364000,0.004782075,0.0027246224,-0.0038872743,0.0,0.0,0.0,0.0
11392000,-0.0047219144,0.0012935405,0.0009810259,0.0,0.0,0.0,0.0
11428000,-0.00028590602,-0.003962463,0.0077482467,0.0,0.0,0.0,0.0
11456000,-0.0018691282,-0.0025045988,0.0044206367,0.0,0.0,0.0,0.0
11488000,0.004561955,0.005123759,-0.0066881767,0.0,0.0,0.0,0.0
11520000,0.0034772875,0.0004644366,-0.004657588,0.0,0.0,0.0,0.0
11552000,-0.0020944003,-0.0077811335,0.0017327382,0.0,0.0,0.0,0.0
11584000,0.005282458,0.0001685759,-0.0060680234,0.0,0.0,0.0,0.0
11616000,0.0037588752,0.0064896224,-0.00088446937,0.0,0.0,0.0,0.0
11648000,-0.00014566956,-0.003003073,0.00025874694,0.0,0.0,0.0,0.0
11680000,0.0048184493,0.0028066223,0.0059621725,0.0,0.0,0.0,0.0
11712000,-0.0072940197,-0.0060848515,-0.004762216,0.0,0.0,0.0,0.0
11748000,0.00016693329,-0.0005138819,0.004235715,0.0,0.0,0.0,0.0
11776000,0.0019739962,0.0064804233,0.00017067984,0.0,0.0,0.0,0.0
11808000,-0.0020546336,0.003080946,0.0020389117,0.0,0.0,0.0,0.0
11840000,0.0029532486,-0.0012571188,0.001748953,0.0,0.0,0.0,0.0
11872000,0.0039434265,-0.00043356325,0.0085049,0.0,0.0,0.0,0.0
11908000,0.0010856654,0.0069396747,-0.006704895,0.0,0.0,0.0,0.0
11940000,-0.0021719923,-0.0065226145,-0.0015026669,0.0,0.0,0.0,0.0
11968000,0.0049781566,-0.0032046498,0.007568277,0.0,0.0,0.0,0.0
12000000,-0.004778522,0.0048052208,0.00016972925,0.0,0.0,0.0,0.0
12032000,0.000853526,0.0011427919,0.0006553435,0.0,0.0,0.0,0.0
12064000,-0.0065648323,-0.007670138,0.009351685,0.0,0.0,0.0,0.0
12096000,0.0038655675,0.008014632,0.0017767845,0.0,0.0,0.0,0.0
12128000,-0.0030666688,0.0054360307,0.0037898277,0.0,0.0,0.0,0.0
12160000,0.004030495,0.0032385674,0.004565141,0.0,0.0,0.0,0.0
12192000,0.0021032593,-0.0044691986,-0.0020150961,0.0,0.0,0.0,0.0
12228000,-0.0070487787,0.0017606914,-0.0065684826,0.0,0.0,0.0,0.0
12256000,0.00126453,-0.009634861,-0.005631662,0.0,0.0,0.0,0.0
12292000,0.0054399706,0.009049268,9.641159e-05,0.0,0.0,0.0,0.0
12320000,0.0018107139,0.0046985634,0.012880276,0.0,0.0,0.0,0.0
12352000,-0.0045831557,0.0024554273,-0.00052980724,0.0,0.0,0.0,0.0
12384000,-0.003219138,-0.000516756,-0.0027757166,0.0,0.0,0.0,0.0
12420000,0.001955504,0.0026296517,0.0040998734,0.0,0.0,0.0,0.0
12448000,0.000654152,-0.00044902414,0.0028575317,0.0,0.0,0.0,0.0
12480000,0.002352086,0.0056282515,0.0058388757,0.0,0.0,0.0,0.0
12516000,0.005875844,0.0031610231,0.003640675,0.0,0.0,0.0,0.0
12544000,0.0050078137,-0.0040340447,-0.0011708548,0.0,0.0,0.0,0.0
12580000,-0.006400748,-0.00023603486,0.0054905606,0.0,0.0,0.0,0.0
12608000,-0.0026086383,-0.0069524054,-0.0055402718,0.0,0.0,0.0,0.0
12640000,0.0049803806,-0.0034503639,3.9303308e-05,0.0,0.0,0.0,0.0
12672000,0.004740565,-0.0044514327,-0.0010260403,0.0,0.0,0.0,0.0
12708000,0.00060011353,0.002500083,0.0056436956,0.0,0.0,0.0,0.0
12736000,-0.0029663262,0.012338576,-0.0021833098,0.0,0.0,0.0,0.0
12768000,-0.0028524622,-0.005844933,0.0052670473,0.0,0.0,0.0,0.0
12804000,0.005433987,-0.0025803782,-0.0012729361,0.0,0.0,0.0,0.0
12832000,-0.011442447,-0.0065471665,-0.004538975,0.0,0.0,0.0,0.0
12868000,-0.005756893,0.012639789,0.0058605676,0.0,0.0,0.0,0.0
12900000,0.00944044,0.0037259196,-0.0019816982,0.0,0.0,0.0,0.0
12928000,0.0026690944,-0.011996966,0.0035554315,0.0,0.0,0.0,0.0
12960000,4.782714e-05,0.003580788,-0.000730845,0.0,0.0,0.0,0.0
12996000,-0.0039165183,-0.0027598403,0.0033670205,0.0,0.0,0.0,0.0
13028000,-0.002241646,-0.0015247036,-0.0053799516,0.0,0.0,0.0,0.0
13056000,-0.0063389186,0.0005010958,-0.0047593336,0.0,0.0,0.0,0.0
13088000,-0.002650577,0.0033935835,-0.00582838,0.0,0.0,0.0,0.0
13124000,0.0017011676,-0.0026033903,-0.014822793,0.0,0.0,0.0,0.0
13156000,0.003968806,-0.004472608,-0.00011418428,0.0,0.0,0.0,0.0
13188000,-0.00864655,0.0052934512,-0.017716745,0.0,0.0,0.0,0.0
13216000,-0.00638381,-0.004379373,-0.00754676,0.0,0.0,0.0,0.0
13248000,0.00069469976,3.867643e-05,-0.0062154513,0.0,0.0,0.0,0.0
13284000,0.0018970352,-0.00032228883,0.0018251978,0.0,0.0,0.0,0.0
13312000,0.0042393804,-0.005263157,-0.001598566,0.0,0.0,0.0,0.0
13344000,-0.0076827733,0.003796052,-0.004249188,0.0,0.0,0.0,0.0
13376000,0.0019945959,0.006112008,0.0045092823,0.0,0.0,0.0,0.0
13412000,0.0046667284,0.0057169376,-0.004764788,0.0,0.0,0.0,0.0
13444000,0.0011324949,0.0016130283,-0.0024025554,0.0,0.0,0.0,0.0
13472000,0.004185972,-0.0051849843,-6.7999295e-05,0.0,0.0,0.0,0.0
13508000,0.00037626037,-0.00073514367,0.0013275786,0.0,0.0,0.0,0.0
13536000,-0.0008788757,0.0027575505,0.0010998583,0.0,0.0,0.0,0.0
13568000,-0.0040974566,0.0030843853,-0.006727755,0.0,0.0,0.0,0.0
13600000,0.005280784,0.0032028502,0.0014586853,0.0,0.0,0.0,0.0
13636000,0.00040240545,0.0009347517,0.0035910613,0.0,0.0,0.0,0.0
13664000,0.0046579577,0.0032267363,0.0033034529,0.0,0.0,0.0,0.0
13696000,0.008021516,-0.0017866441,-0.0011340262,0.0,0.0,0.0,0.0
13728000,0.0036774348,0.001386507,-0.0009414181,0.0,0.0,0.0,0.0
13760000,0.0005936632,0.00019695144,-0.0035813744,0.0,0.0,0.0,0.0
13792000,0.0009573028,0.014698401,-0.0004579154,0.0,0.0,0.0,0.0
13824000,0.004187721,0.004025303,-0.0047756126,0.0,0.0,0.0,0.0
13860000,0.008037106,-0.0028448147,0.0066339513,0.0,0.0,0.0,0.0
13892000,0.0034142053,-0.012526534,0.0024441765,0.0,0.0,0.0,0.0
13924000,0.0015713682,-0.003408146,0.0034833865,0.0,0.0,0.0,0.0
13956000,0.0025948742,0.00048564002,0.00043430005,0.0,0.0,0.0,0.0
13988000,0.0053922497,-0.008574257,0.0009864075,0.0,0.0,0.0,0.0
14016000,0.0007353341,0.0069687217,-0.002239845,0.0,0.0,0.0,0.0
14052000,-0.004606777,0.011627723,0.004159484,0.0,0.0,0.0,0.0
14080000,-0.00080017094,0.010905974,-0.0017035573,0.0,0.0,0.0,0.0
14116000,-0.0031382083,0.0009285421,-0.0018854294,0.0,0.0,0.0,0.0
14144000,-0.01164647,0.0018912726,-0.0044963043,0.0,0.0,0.0,0.0
14176000,0.0017895063,-0.004144097,-0.0065785274,0.0,0.0,0.0,0.0
14212000,-0.0014098356,-0.013996929,0.0010122868,0.0,0.0,0.0,0.0
14240000,-0.0044659995,-0.0038971542,0.0052953768,0.0,0.0,0.0,0.0
14272000,0.0014490597,0.006981585,-0.0009247184,0.0,0.0,0.0,0.0
14308000,0.0042749257,0.0053316914,-0.0032266108,0.0,0.0,0.0,0.0
14336000,0.0021120072,0.009392597,0.0047697285,0.0,0.0,0.0,0.0
14368000,0.0044292687,0.0009503965,-0.005096461,0.0,0.0,0.0,0.0
14400000,0.0051796134,-0.0009706416,0.0038442714,0.0,0.0,0.0,0.0
14432000,-0.008901092,-0.0044394764,-0.004526527,0.0,0.0,0.0,0.0
14464000,0.0042982725,0.0050221686,0.0021325715,0.0,0.0,0.0,0.0
14496000,0.0045194123,0.007853297,-0.004685135,0.0,0.0,0.0,0.0
14528000,-0.0036650524,0.005341277,0.0018329099,0.0,0.0,0.0,0.0
14560000,-0.002791785,0.007938573,-0.001989535,0.0,0.0,0.0,0.0
14592000,-0.003106484,-0.0042594993,0.009544252,0.0,0.0,0.0,0.0
14628000,0.0030698918,0.0028365008,0.0042193425,0.0,0.0,0.0,0.0
14660000,-0.0067791915,-0.011554593,0.0061151227,0.0,0.0,0.0,0.0
14692000,0.00073505414,-0.004401796,-0.003787733,0.0,0.0,0.0,0.0
14724000,0.0022186907,-0.005478829,0.0011744342,0.0,0.0,0.0,0.0
14756000,0.0035461795,0.010364015,0.0005878777,0.0,0.0,0.0,0.0
14784000,0.004715709,0.003655871,-0.005167562,0.0,0.0,0.0,0.0
14816000,-0.005756735,0.00582079,-0.001985078,0.0,0.0,0.0,0.0
14852000,0.0064919693,-0.016312256,0.0042306646,0.0,0.0,0.0,0.0
14880000,0.0038207776,0.010308008,0.010846489,0.0,0.0,0.0,0.0
14912000,-0.0003087303,-0.005911223,3.5441903e-05,0.0,0.0,0.0,0.0
14948000,-0.0016515711,0.0023222647,-0.009021606,0.0,0.0,0.0,0.0
14976000,-0.0043420596,0.007038277,0.0042804447,0.0,0.0,0.0,0.0
15008000,-0.0017461781,-0.0018960857,-0.011003486,0.0,0.0,0.0,0.0
15040000,-0.0035349245,-0.0024622586,-0.0013352212,0.0,0.0,0.0,0.0
15072000,-0.002241778,0.004096912,-0.0024991513,0.0,0.0,0.0,0.0
15104000,0.002667448,0.009422738,0.000718602,0.0,0.0,0.0,0.0
15136000,0.003475084,-0.0016925009,0.0031281773,0.0,0.0,0.0,0.0
15168000,-0.0057022655,0.0074340543,-0.0031988423,0.0,0.0,0.0,0.0
15200000,0.0012177781,-0.00048955483,0.009079883,0.0,0.0,0.0,0.0
15232000,0.004803234,0.000757379,0.0012835731,0.0,0.0,0.0,0.0
15264000,0.003875248,0.009141013,-0.010148315,0.0,0.0,0.0,0.0
15296000,0.004725601,-0.0011985265,-0.0065083834,0.0,0.0,0.0,0.0
15332000,0.0028838299,0.00561482,-0.00055588805,0.0,0.0,0.0,0.0
15360000,0.0006015697,0.00474111,0.0051796273,0.0,0.0,0.0,0.0
15392000,-0.002450942,-0.003927632,6.2637184e-05,0.0,0.0,0.0,0.0
15424000,0.005154092,0.006703811,-0.0012791636,0.0,0.0,0.0,0.0
15456000,0.0052042906,0.006708895,0.007266864,0.0,0.0,0.0,0.0
15488000,-1.7477665e-05,-0.0044558463,0.00076111784,0.0,0.0,0.0,0.0
15520000,-0.0062762424,0.0024878473,0.0030986548,0.0,0.0,0.0,0.0
15556000,0.008908341,4.2553525e-05,-0.00065930333,0.0,0.0,0.0,0.0
15584000,-0.002530851,-0.0034102765,0.0009697352,0.0,0.0,0.0,0.0
15616000,0.0084439255,0.00609003,0.005203571,0.0,0.0,0.0,0.0
15648000,-0.003043064,-0.00016054558,-0.003518723,0.0,0.0,0.0,0.0
15680000,-0.0032352284,0.0024915722,-0.0054753693,0.0,0.0,0.0,0.0
15712000,0.0002832914,0.00533388,0.00575199,0.0,0.0,0.0,0.0
15744000,0.008140601,0.0045581353,-0.0058913445,0.0,0.0,0.0,0.0
15780000,0.0002647831,-0.0013410514,-0.007921741,0.0,0.0,0.0,0.0
15808000,-0.0022359286,0.0052932,0.0023273467,0.0,0.0,0.0,0.0
15840000,-0.004285079,0.008893032,0.0013665138,0.0,0.0,0.0,0.0
15872000,-0.0042086616,-0.0029033553,-0.0046266327,0.0,0.0,0.0,0.0
15908000,0.00724499,-0.007845631,0.008390259,0.0,0.0,0.0,0.0
15936000,0.009034295,-0.0069563137,-0.011145785,0.0,0.0,0.0,0.0
15968000,-0.008548907,-0.00733638,0.0013076199,0.0,0.0,0.0,0.0
16000000,0.0008273431,-0.00029555196,0.0026394248,0.0,0.0,0.0,0.0
16032000,-0.0018866693,-0.0013393266,-0.003169624,0.0,0.0,0.0,0.0
16064000,0.0016356909,-0.0018216441,-0.0048983768,0.0,0.0,0.0,0.0
16096000,-0.0006676825,-0.00028137024,0.0017908509,0.0,0.0,0.0,0.0
16128000,0.00027259445,-0.0020404342,-0.0035785113,0.0,0.0,0.0,0.0
16160000,0.0030221527,0.0061480696,-0.0014454706,0.0,0.0,0.0,0.0
16192000,-0.005880846,0.00094728125,-0.01050859,0.0,0.0,0.0,0.0
16224000,-0.006064264,-0.0025234078,0.0019482067,0.0,0.0,0.0,0.0
16256000,-0.008191149,0.015481288,0.0042292126,0.0,0.0,0.0,0.0
16288000,0.0004419507,-0.0074544083,-0.0025296542,0.0,0.0,0.0,0.0
16320000,0.0009488555,0.004888433,0.0044767177,0.0,0.0,0.0,0.0
16352000,0.009418601,-0.0028296974,0.00211163,0.0,0.0,0.0,0.0
16384000,0.0034597863,0.002444167,-0.0033938512,0.0,0.0,0.0,0.0
16416000,-0.0073045483,0.001873407,0.0009701969,0.0,0.0,0.0,0.0
16452000,-0.0059553175,-0.0039885337,-0.0032287925,0.0,0.0,0.0,0.0
16484000,0.0040024975,0.005134647,-0.005436163,0.0,0.0,0.0,0.0
16511999,0.00042787526,-0.0053079897,-0.006819871,0.0,0.0,0.0,0.0
16544000,-0.00062933564,-0.0049654553,-0.0025436683,0.0,0.0,0.0,0.0
16580000,-0.0022733412,-0.010990528,0.00026187563,0.0,0.0,0.0,0.0
16607999,-0.0037859762,-0.0068719015,0.0040325993,0.0,0.0,0.0,0.0
16639999,0.0033605425,-0.0086162,-0.0029707,0.0,0.0,0.0,0.0
16671999,-0.009410381,-6.406242e-05,0.004657424,0.0,0.0,0.0,0.0
16703999,-0.0021476238,-0.0017361343,-0.004436108,0.0,0.0,0.0,0.0
16740000,-0.0018964871,-0.0016895235,0.005004315,0.0,0.0,0.0,0.0
16767999,-0.005163772,0.00079177646,-0.0009869097,0.0,0.0,0.0,0.0
16804000,0.000536717,0.0118612535,0.003609756,0.0,0.0,0.0,0.0
16832000,0.0035145432,0.0029459458,-0.0017529416,0.0,0.0,0.0,0.0
16868000,0.003092537,0.00080399914,0.0002444869,0.0,0.0,0.0,0.0
16896000,-0.0030524102,0.004184492,-0.0075016934,0.0,0.0,0.0,0.0
16928000,0.0031128086,0.0029933816,-0.0054675383,0.0,0.0,0.0,0.0
16960000,0.005611038,-0.004421773,-0.008654446,0.0,0.0,0.0,0.0
16992000,0.002679346,-0.0024784254,-0.006859991,0.0,0.0,0.0,0.0
17024000,0.001988533,-0.0015497706,0.008357063,0.0,0.0,0.0,0.0
17060000,-0.0008966364,0.002008521,-0.0006473408,0.0,0.0,0.0,0.0
17088000,0.0055816867,-0.0025930149,0.002990318,0.0,0.0,0.0,0.0
17120000,-0.013568577,0.0020394474,0.0006415884,0.0,0.0,0.0,0.0
17156000,0.0063738907,0.0004050536,-0.0020809923,0.0,0.0,0.0,0.0
17188000,-0.00254582,0.0028027154,-0.00981697,0.0,0.0,0.0,0.0
17216000,0.0027230366,-0.002321938,0.0055935862,0.0,0.0,0.0,0.0
17248000,0.0067506433,-0.0006708526,0.0042257435,0.0,0.0,0.0,0.0
17280000,0.007270866,0.0065558422,0.0042205,0.0,0.0,0.0,0.0
17316000,-0.0046319333,-0.0048080515,-0.0035682442,0.0,0.0,0.0,0.0
17344000,0.014198292,-0.011761744,-0.016040914,0.0,0.0,0.0,0.0
17376000,-0.00797328,-0.0024498347,0.0009923915,0.0,0.0,0.0,0.0
17408000,0.004777888,0.00439329,0.012019253,0.0,0.0,0.0,0.0
17440000,0.005071071,-0.004423848,-0.004151234,0.0,0.0,0.0,0.0
17472000,0.0065556965,-0.009885592,0.0034186332,0.0,0.0,0.0,0.0
17504000,-0.00041759352,-0.0041021476,-0.0068442565,0.0,0.0,0.0,0.0
17536000,-0.0025222232,-0.0015645754,0.0059274863,0.0,0.0,0.0,0.0
17568000,0.0038081456,0.004993303,0.011120246,0.0,0.0,0.0,0.0
17600000,-0.0028907224,0.0055824397,0.005070597,0.0,0.0,0.0,0.0
17632000,-0.0017341776,-0.0046995045,0.00014402687,0.0,0.0,0.0,0.0
17668000,-0.002297728,0.0073483577,-0.0043942756,0.0,0.0,0.0,0.0
17696000,0.0016386991,-0.00083939545,0.01007915,0.0,0.0,0.0,0.0
17728000,-0.0029164283,-0.0034919088,-0.00037071068,0.0,0.0,0.0,0.0
17760000,0.00047133397,0.005762861,-0.0010476012,0.0,0.0,0.0,0.0
17792000,-0.003226099,-0.0013687112,-0.00399754,0.0,0.0,0.0,0.0
17824000,0.008355605,0.006167192,0.0072356104,0.0,0.0,0.0,0.0
17856000,0.0077282195,-0.0022460232,-0.0014995906,0.0,0.0,0.0,0.0
17888000,0.00056263927,-0.004457991,-0.0044938014,0.0,0.0,0.0,0.0
17924000,-0.00048175722,-0.004427164,-0.0010479717,0.0,0.0,0.0,0.0
17952000,-0.003931755,-0.0047412794,0.0069962936,0.0,0.0,0.0,0.0
17988000,-0.006967918,0.00050213095,-0.0007258389,0.0,0.0,0.0,0.0
18016000,0.012155282,-0.0025817342,-0.0050636274,0.0,0.0,0.0,0.0
18048000,-0.0040798374,-0.0012261523,-0.0005002914,0.0,0.0,0.0,0.0
18080000,-0.0005161995,0.00496173,-0.006415791,0.0,0.0,0.0,0.0
18116000,-0.0010111211,-0.0057257325,0.0015106138,0.0,0.0,0.0,0.0
18148000,-0.009881213,0.0028823393,0.0021434196,0.0,0.0,0.0,0.0
18176000,-0.00041733903,0.0021993972,-0.0034365505,0.0,0.0,0.0,0.0
18208000,-0.0037914547,0.0045197774,0.0053027933,0.0,0.0,0.0,0.0
18240000,0.00011324836,-0.0011348138,0.0054629,0.0,0.0,0.0,0.0
18276000,-0.00890578,0.00220398,0.0006633231,0.0,0.0,0.0,0.0
18304000,0.002905868,0.0062177135,-0.0015677909,0.0,0.0,0.0,0.0
18336000,-0.001987651,-0.0015992536,-0.0008111177,0.0,0.0,0.0,0.0
18372000,0.008056718,0.0021173523,-0.0054575275,0.0,0.0,0.0,0.0
18400000,0.0025518732,0.004808948,0.0039848536,0.0,0.0,0.0,0.0
18432000,-0.00022128923,0.0054683606,0.001819896,0.0,0.0,0.0,0.0
18468000,-0.00061384647,-0.0019964501,0.0006071793,0.0,0.0,0.0,0.0
18496000,0.004912089,-0.0021603173,0.0017355699,0.0,0.0,0.0,0.0
18532000,0.0020769967,0.00487794,-0.0009339256,0.0,0.0,0.0,0.0
18560000,-0.00018337532,-0.0076455288,-0.00854392,0.0,0.0,0.0,0.0
18592000,-0.00016960781,0.0070266267,-0.0018955246,0.0,0.0,0.0,0.0
18624000,0.0052498835,0.0015774127,-0.0026616897,0.0,0.0,0.0,0.0
18660000,-0.0026126439,-3.3806544e-05,0.0033181345,0.0,0.0,0.0,0.0
18688000,0.0083764205,0.011309605,-0.008919616,0.0,0.0,0.0,0.0
18720000,-0.007975566,-0.0010954421,0.0050858185,0.0,0.0,0.0,0.0
18752000,-0.0010570696,0.003062683,0.0009935761,0.0,0.0,0.0,0.0
18784000,0.0019522283,-0.0074074017,0.004473829,0.0,0.0,0.0,0.0
18816000,-0.003417403,-0.0046460447,-0.0069293464,0.0,0.0,0.0,0.0
18848000,-0.0076894937,0.0040775035,0.004231091,0.0,0.0,0.0,0.0
18880000,0.0075648776,-0.0015039719,-0.0033384422,0.0,0.0,0.0,0.0
18916000,-0.0056357263,0.0063500535,-0.008426633,0.0,0.0,0.0,0.0
18948000,6.844441e-05,-0.0032243542,-7.854854e-05,0.0,0.0,0.0,0.0
18980000,0.0075496593,-0.0020342157,-0.00020676863,0.0,0.0,0.0,0.0
19008000,-0.0017191207,0.008974704,0.00094880426,0.0,0.0,0.0,0.0
19040000,-0.00020339445,0.002211435,-0.00020861457,0.0,0.0,0.0,0.0
19072000,0.007626575,0.0060904725,-0.006843916,0.0,0.0,0.0,0.0
19108000,0.0076607903,-0.0028431402,0.00040093085,0.0,0.0,0.0,0.0
19140000,0.004916158,0.003274634,-0.012236136,0.0,0.0,0.0,0.0
19168000,-0.002705997,-0.0017189272,-0.0039129416,0.0,0.0,0.0,0.0
19204000,-6.650202e-05,0.0069400882,0.0030819203,0.0,0.0,0.0,0.0
19232000,-0.006233274,0.014242427,-0.007430325,0.0,0.0,0.0,0.0
19264000,0.0094671855,-0.004340833,0.0012047096,0.0,0.0,0.0,0.0
19296000,0.0012399497,-0.0006326148,0.0087916,0.0,0.0,0.0,0.0
19332000,-0.012961166,0.0037665376,0.002012469,0.0,0.0,0.0,0.0
19360000,0.00078278605,-0.0018862924,-0.007681646,0.0,0.0,0.0,0.0
19392000,0.00011691428,-0.0063306843,0.0072902665,0.0,0.0,0.0,0.0
19424000,-0.00024385902,-0.0015524994,0.0035308292,0.0,0.0,0.0,0.0
19460000,-0.0045906883,0.0035623312,0.00028575145,0.0,0.0,0.0,0.0
19492000,-0.00083664374,-0.004345823,-0.009960333,0.0,0.0,0.0,0.0
19524000,0.0065141283,0.0014215028,-0.0035867486,0.0,0.0,0.0,0.0
19552000,-0.012342474,-0.00076528685,0.00548589,0.0,0.0,0.0,0.0
19588000,-0.00041680003,0.007401646,0.0025868756,0.0,0.0,0.0,0.0
19616000,0.008800804,-0.003656392,-0.0011084846,0.0,0.0,0.0,0.0
19648000,-0.0033272048,-0.006430622,-0.00566368,0.0,0.0,0.0,0.0
19684000,0.0033354375,0.0024447343,0.0072529903,0.0,0.0,0.0,0.0
19712000,-0.001115422,-0.0066856644,0.001401,0.0,0.0,0.0,0.0
19744000,-0.014394477,-0.0027390341,0.0005793901,0.0,0.0,0.0,0.0
19776000,0.0003916113,0.008820704,-0.0045043547,0.0,0.0,0.0,0.0
19808000,0.013477063,0.010737521,-0.009450893,0.0,0.0,0.0,0.0
19840000,0.00743849,0.004959575,0.003979426,0.0,0.0,0.0,0.0
19872000,0.0029875152,0.00017416943,-0.0036153472,0.0,0.0,0.0,0.0
19904000,0.0033056568,0.004202759,-0.0028811817,0.0,0.0,0.0,0.0
19936000,0.0033552246,-0.0007559322,-0.0026331122,0.0,0.0,0.0,0.0
19968000,-0.008296108,0.009167936,0.0006756697,0.0,0.0,0.0,0.0
20004000,-0.008755634,-0.0004273383,0.0036710561,0.0,0.0,0.0,0.0
20032000,-0.00025511312,0.0020482321,-0.003345438,0.0,0.0,0.0,0.0
20064000,0.0068818657,-0.0076805954,-0.0030850472,0.0,0.0,0.0,0.0
20096000,-0.0055442858,-0.0008713724,0.004466487,0.0,0.0,0.0,0.0
20132000,-0.001810759,0.0014668512,-0.004175207,0.0,0.0,0.0,0.0
20164000,-0.001721709,-0.0029916777,0.0070870332,0.0,0.0,0.0,0.0
20192000,-0.0018589861,-0.00063606584,-0.006716647,0.0,0.0,0.0,0.0
20224000,-0.008449006,0.0077592777,-0.0033053807,0.0,0.0,0.0,0.0
20256000,0.0020427804,-0.000725735,0.0058742436,0.0,0.0,0.0,0.0
20288000,0.010797712,0.0001732381,-0.004930628,0.0,0.0,0.0,0.0
20320000,0.0021018293,0.0057688705,0.001666598,0.0,0.0,0.0,0.0
20356000,0.0016748818,-0.0065338695,0.0021816313,0.0,0.0,0.0,0.0
20388000,-0.0010175635,0.00012899702,-0.0013027753,0.0,0.0,0.0,0.0
20416000,-0.0029880765,-0.008542282,-0.0023283225,0.0,0.0,0.0,0.0
20448000,0.009930348,-0.0068486393,-0.0038163105,0.0,0.0,0.0,0.0
20480000,0.0022934387,-0.0052336208,-0.0067780535,0.0,0.0,0.0,0.0
20512000,-0.0024468314,-0.001435691,0.0037880312,0.0,0.0,0.0,0.0
20548000,-0.0030706655,-0.0013083084,0.00053235685,0.0,0.0,0.0,0.0
20576000,0.0066989195,-0.0043954365,0.007836368,0.0,0.0,0.0,0.0
20608000,-0.00013574632,0.0073760566,-0.00028423575,0.0,0.0,0.0,0.0
20640000,0.0010651592,-0.0032352633,-0.0041474854,0.0,0.0,0.0,0.0
20672000,-0.0011135285,0.005946319,0.005381667,0.0,0.0,0.0,0.0
20704000,0.0020373794,0.0025773353,0.0041968315,0.0,0.0,0.0,0.0
20740000,-0.0074644038,0.008788878,-0.00766789,0.0,0.0,0.0,0.0
20772000,0.00012020394,0.0027663573,0.004484839,0.0,0.0,0.0,0.0
20800000,-0.0021884586,0.00025566388,0.0033757354,0.0,0.0,0.0,0.0
20832000,0.00914564,-0.0005484056,0.009852511,0.0,0.0,0.0,0.0
20868000,-0.0009283194,0.0015210467,0.00415224,0.0,0.0,0.0,0.0
20900000,0.0030173964,-0.0038759974,-0.0040694047,0.0,0.0,0.0,0.0
20932000,0.0009791143,-0.0029522195,-0.00023951873,0.0,0.0,0.0,0.0
20964000,0.0074711675,0.0033903988,0.0009108637,0.0,0.0,0.0,0.0
20996000,-0.0030280603,0.007201806,-0.004273817,0.0,0.0,0.0,0.0
21028000,-0.0005303497,-0.010174414,0.00017188801,0.0,0.0,0.0,0.0
21060000,0.004984494,0.0054761656,-0.00075329986,0.0,0.0,0.0,0.0
21088000,0.0015083904,-0.005533735,-0.006744811,0.0,0.0,0.0,0.0
21120000,-0.0003842977,0.003018723,0.011847486,0.0,0.0,0.0,0.0
21152000,-0.0004833038,0.006600723,-0.0017149632,0.0,0.0,0.0,0.0
21184000,-0.010713252,-0.0036285566,0.01419196,0.0,0.0,0.0,0.0
21216000,0.0057595037,-0.0017563752,-0.012345468,0.0,0.0,0.0,0.0
21248000,0.003996306,-0.0020288415,-9.096875e-05,0.0,0.0,0.0,0.0
21280000,-0.0047006384,-0.0072442167,0.0020383121,0.0,0.0,0.0,0.0
21312000,-0.0037304685,0.0011144076,0.0023989417,0.0,0.0,0.0,0.0
21348000,0.0067151766,-0.0021611904,0.0002920269,0.0,0.0,0.0,0.0
21376000,0.0049002096,0.0066836122,-0.0050554518,0.0,0.0,0.0,0.0
21412000,-0.005819595,-0.009770987,0.00077634514,0.0,0.0,0.0,0.0
21440000,-0.006147019,-0.0027451967,5.7984493e-05,0.0,0.0,0.0,0.0
21476000,-0.004676728,-0.0051244455,-0.0014831644,0.0,0.0,0.0,0.0
21508000,0.0003198065,-0.0063635926,-8.333253e-05,0.0,0.0,0.0,0.0
21536000,4.825997e-05,-0.0027642203,0.0035885754,0.0,0.0,0.0,0.0
21572000,-0.004074329,-0.00039533805,-0.002785737,0.0,0.0,0.0,0.0
21600000,-0.0009133356,0.007883281,0.0046106833,0.0,0.0,0.0,0.0
21636000,-0.012646025,-0.0033711577,-0.00021625424,0.0,0.0,0.0,0.0
21668000,-0.00513169,0.0020906024,0.0057002045,0.0,0.0,0.0,0.0
21696000,-0.0038283374,0.006310503,-0.0016523749,0.0,0.0,0.0,0.0
21728000,-0.010975893,-0.00010388391,6.759038e-05,0.0,0.0,0.0,0.0
21764000,0.0060809525,-0.0042472626,0.002387238,0.0,0.0,0.0,0.0
21792000,0.005320756,-0.001962251,-0.0037999367,0.0,0.0,0.0,0.0
21828000,-0.0034272461,-0.0037966357,-0.012376177,0.0,0.0,0.0,0.0
21856000,-0.005386937,-0.00053518545,-0.00017085043,0.0,0.0,0.0,0.0
21888000,0.0027063142,0.00019828323,0.002461837,0.0,0.0,0.0,0.0
21920000,0.0010645303,0.0023799418,-0.0002110787,0.0,0.0,0.0,0.0
21952000,0.0029101218,-0.0014155824,-0.008389137,0.0,0.0,0.0,0.0
21988000,-0.0066926866,0.009297862,0.00064516696,0.0,0.0,0.0,0.0
22020000,0.00091662287,-0.0011829771,-0.00022617725,0.0,0.0,0.0,0.0
22048000,-0.0032153805,0.0018922309,0.0020689787,0.0,0.0,0.0,0.0
22080000,-0.0013641813,-0.0029891063,0.00021697918,0.0,0.0,0.0,0.0
22112000,0.004304735,0.006714422,0.004141953,0.0,0.0,0.0,0.0
22144000,9.980402e-05,-0.0048875418,0.0045907376,0.0,0.0,0.0,0.0
22180000,0.0036855282,0.005574634,0.008013578,0.0,0.0,0.0,0.0
22208000,0.0013025432,-0.003804991,-0.0009786509,0.0,0.0,0.0,0.0
22240000,0.0048886333,0.0020792736,-0.0034066148,0.0,0.0,0.0,0.0
22272000,-0.000638386,-0.0028080223,0.0062214653,0.0,0.0,0.0,0.0
22308000,-0.0073143817,-0.0048699467,0.0037575045,0.0,0.0,0.0,0.0
22336000,0.00393934,-0.0039028777,0.00045355738,0.0,0.0,0.0,0.0
22372000,-0.004082584,-0.0089777745,0.007907968,0.0,0.0,0.0,0.0
22400000,-0.003616591,-0.010308133,0.007865309,0.0,0.0,0.0,0.0
22432000,0.012489811,-0.0015672506,-0.00042841388,0.0,0.0,0.0,0.0
22468000,-0.010215046,0.003368405,0.002801847,0.0,0.0,0.0,0.0
22496000,-0.0008449751,0.0052389074,-0.0025793172,0.0,0.0,0.0,0.0
22532000,0.0023298338,-0.005458433,0.005042441,0.0,0.0,0.0,0.0
22560000,0.0032835049,0.01467512,-0.009602579,0.0,0.0,0.0,0.0
22592000,0.005536409,0.0013145092,-0.008324347,0.0,0.0,0.0,0.0
22628000,0.0037012934,0.0062480224,-0.00049800955,0.0,0.0,0.0,0.0
22656000,-0.00033833447,0.0014511785,-0.0026838358,0.0,0.0,0.0,0.0
22688000,-0.0004684243,0.004588307,-0.0021459362,0.0,0.0,0.0,0.0
22720000,0.003529591,0.0037003213,-0.0003110337,0.0,0.0,0.0,0.0
22752000,-0.0024986845,-0.008685812,-6.8736415e-05,0.0,0.0,0.0,0.0
22784000,-0.007846877,-0.0035162298,0.005765784,0.0,0.0,0.0,0.0
22816000,0.0048921616,0.0023744043,-0.000554878,0.0,0.0,0.0,0.0
22848000,-0.0012430624,0.0007944717,0.007358108,0.0,0.0,0.0,0.0
22880000,-0.0069234874,-0.006110959,0.0063582775,0.0,0.0,0.0,0.0
22916000,-0.0056831855,0.0018401458,0.004009295,0.0,0.0,0.0,0.0
22948000,0.0013099696,-0.0075751725,-0.0008921155,0.0,0.0,0.0,0.0
22976000,-0.0059995595,-0.0050999136,0.013011451,0.0,0.0,0.0,0.0
23008000,0.0032289089,-0.003964202,-0.009582909,0.0,0.0,0.0,0.0
23040000,-0.004144979,0.0026561252,0.0007806637,0.0,0.0,0.0,0.0
23072000,-0.0068276552,-0.005628162,0.003755478,0.0,0.0,0.0,0.0
23104000,-0.002792878,0.003870878,0.004979889,0.0,0.0,0.0,0.0
23136000,0.01049885,0.0009884927,0.008950294,0.0,0.0,0.0,0.0
23172000,-0.00055157195,-0.000450226,-0.010058696,0.0,0.0,0.0,0.0
23204000,-0.0059394855,0.0049725054,-0.006958761,0.0,0.0,0.0,0.0
23232000,-0.0022423323,0.011888273,-0.0073495717,0.0,0.0,0.0,0.0
23264000,-0.0029560085,0.013484442,-0.001881052,0.0,0.0,0.0,0.0
23296000,0.001442331,-0.006192375,0.0035899593,0.0,0.0,0.0,0.0
23332000,0.0049261786,-0.0030205846,0.0053622127,0.0,0.0,0.0,0.0
23360000,-0.0032248595,-0.0029136674,-0.0011660678,0.0,0.0,0.0,0.0
23392000,-0.0034150397,0.004708355,9.028403e-05,0.0,0.0,0.0,0.0
23424000,0.0076703946,-0.008169636,0.0015336646,0.0,0.0,0.0,0.0
23456000,-0.0028391625,0.0018979949,0.0030647377,0.0,0.0,0.0,0.0
23488000,0.00495126,0.008302638,-0.008419279,0.0,0.0,0.0,0.0
23520000,0.0014519804,-0.0020623454,-0.002153052,0.0,0.0,0.0,0.0
23556000,0.012130014,0.0015561501,-0.00035915515,0.0,0.0,0.0,0.0
23584000,0.006729684,0.0004973463,0.007928157,0.0,0.0,0.0,0.0
23616000,-0.0036402042,-0.002388449,-0.0014239441,0.0,0.0,0.0,0.0
23652000,0.00042589428,-0.0062634805,0.0023958972,0.0,0.0,0.0,0.0
23680000,-0.0050511844,0.005326343,-0.0030985163,0.0,0.0,0.0,0.0
23716000,-0.00018071523,0.002476891,0.0052137803,0.0,0.0,0.0,0.0
23744000,0.002815343,0.01655608,-0.009083976,0.0,0.0,0.0,0.0
23776000,0.011770883,0.005076565,-0.0011969325,0.0,0.0,0.0,0.0
23808000,0.00021364016,-0.0074841045,0.0030414741,0.0,0.0,0.0,0.0
23840000,0.0007082392,-0.008972833,0.0006579453,0.0,0.0,0.0,0.0
23872000,-0.0021341434,-0.002370039,0.0017004743,0.0,0.0,0.0,0.0
23908000,-0.0004677344,-0.0007549268,-0.009633755,0.0,0.0,0.0,0.0
23936000,-0.006394359,0.0015985174,0.0013039581,0.0,0.0,0.0,0.0
23972000,-0.0042304927,-0.0021886257,-0.0031741047,0.0,0.0,0.0,0.0
24000000,-0.0030997628,0.007045539,0.0015681102,0.0,0.0,0.0,0.0
24032000,-0.005967448,-0.0032248907,-0.0062841834,0.0,0.0,0.0,0.0
24064000,0.0059523485,-0.0028339676,-0.00985118,0.0,0.0,0.0,0.0
24100000,0.0030783503,-0.0012756502,-0.0019132819,0.0,0.0,0.0,0.0
24128000,0.0017170954,-0.004527241,0.0012898756,0.0,0.0,0.0,0.0
24164000,-0.005066751,-0.0003803121,0.00019449482,0.0,0.0,0.0,0.0
24192000,0.010012737,-0.0012917412,0.003853564,0.0,0.0,0.0,0.0
24224000,-0.004183757,0.00036833342,-0.007815165,0.0,0.0,0.0,0.0
24260000,0.0015042683,-6.021466e-05,-0.0014845629,0.0,0.0,0.0,0.0
24288000,-0.009300705,0.004221112,-0.0030596068,0.0,0.0,0.0,0.0
24320000,-0.0005447997,-0.00993913,-0.005625663,0.0,0.0,0.0,0.0
24356000,-0.004767299,0.0032447462,-0.005368388,0.0,0.0,0.0,0.0
24384000,0.0031476454,-0.009129269,-0.002227888,0.0,0.0,0.0,0.0
24416000,0.00027709873,0.0018305182,-0.0056382515,0.0,0.0,0.0,0.0
24448000,-0.00045319437,-0.0064894357,-0.005777325,0.0,0.0,0.0,0.0
24480000,-0.0035310779,0.009952449,-0.004288409,0.0,0.0,0.0,0.0
24512000,-0.0025772476,-0.0029998515,0.0027980714,0.0,0.0,0.0,0.0
24544000,-0.00633879,0.0025904535,-0.0012452377,0.0,0.0,0.0,0.0
24576000,-0.0012995306,-0.0019466635,0.0027843711,0.0,0.0,0.0,0.0
24612000,0.0050441986,0.0007644561,0.0026229378,0.0,0.0,0.0,0.0
24640000,-0.0020462922,-0.000915844,0.00906353,0.0,0.0,0.0,0.0
24672000,-0.0025142133,0.0030483399,-0.0013991578,0.0,0.0,0.0,0.0
24704000,-0.000958947,-0.0102053145,-0.00015625538,0.0,0.0,0.0,0.0
24740000,-0.008728802,0.002149905,0.006364793,0.0,0.0,0.0,0.0
24772000,-0.0010536226,-0.0043158797,0.0022225825,0.0,0.0,0.0,0.0
24800000,-0.003490815,-0.0071903444,0.0017605654,0.0,0.0,0.0,0.0
24832000,0.001277786,-0.0041088196,-0.0033629977,0.0,0.0,0.0,0.0
24864000,-0.005548163,-0.0035457606,-0.009939477,0.0,0.0,0.0,0.0
24896000,0.010340443,0.007604236,-0.0048542344,0.0,0.0,0.0,0.0
24932000,-0.0023852845,0.006774157,-0.005704654,0.0,0.0,0.0,0.0
24960000,-0.00687768,0.003553274,0.0018012717,0.0,0.0,0.0,0.0
24992000,0.010266265,-0.0065776645,0.0007017027,0.0,0.0,0.0,0.0
25024000,-0.0036527333,-0.0025492534,-4.609392e-05,0.0,0.0,0.0,0.0
25056000,-0.005238591,0.0031858503,0.0016155298,0.0,0.0,0.0,0.0
25092000,0.0045579867,-0.008960204,0.0021944994,0.0,0.0,0.0,0.0
25120000,-0.0025682587,-0.0020187348,0.0034886105,0.0,0.0,0.0,0.0
25152000,0.0024997275,-0.00601649,0.012732837,0.0,0.0,0.0,0.0
25184000,0.011091161,0.004472263,0.0014181307,0.0,0.0,0.0,0.0
25220000,-0.00063933793,-0.004193467,-0.007532993,0.0,0.0,0.0,0.0
25248000,-0.0012061795,-0.0063289115,-0.0062069776,0.0,0.0,0.0,0.0
25284000,0.0064161476,0.003176633,-0.0024871032,0.0,0.0,0.0,0.0
25312000,-0.00070632866,0.0040708333,-0.0048864037,0.0,0.0,0.0,0.0
25344000,-0.005136704,-0.0074482956,-0.0008512635,0.0,0.0,0.0,0.0
25380000,0.0015344694,-0.004854662,-0.0003569884,0.0,0.0,0.0,0.0
25408000,-0.00067208335,-0.0023971996,0.0035887647,0.0,0.0,0.0,0.0
25440000,-0.01438708,-0.005366798,0.0008656037,0.0,0.0,0.0,0.0
25472000,-0.012638134,-0.0036104596,0.007959968,0.0,0.0,0.0,0.0
25504000,0.008284164,0.006219313,-0.003282233,0.0,0.0,0.0,0.0
25536000,-0.0045070946,-0.009555016,-0.003032717,0.0,0.0,0.0,0.0
25568000,-0.0032928798,0.0025394268,0.0009897131,0.0,0.0,0.0,0.0
25600000,-0.0045319134,-0.0023423908,-0.0062604644,0.0,0.0,0.0,0.0
25632000,0.004591838,0.00050122105,-0.0060953074,0.0,0.0,0.0,0.0
25668000,0.0049272296,0.005667989,0.00306813,0.0,0.0,0.0,0.0
25696000,-0.0046816776,0.0013073809,-0.0073554944,0.0,0.0,0.0,0.0
25728000,-0.00073987804,-0.0009055645,-0.00046820304,0.0,0.0,0.0,0.0
25760000,0.0019306203,0.0021220217,-0.0014909313,0.0,0.0,0.0,0.0
25796000,-0.0010297972,-0.008918081,0.012147749,0.0,0.0,0.0,0.0
25828000,0.0031258108,-0.003755358,-0.007494431,0.0,0.0,0.0,0.0
25856000,0.0048579695,0.0021031343,0.00031655206,0.0,0.0,0.0,0.0
25888000,-0.008372087,0.0034561579,0.007194652,0.0,0.0,0.0,0.0
25924000,0.002508876,0.0023827134,-0.0024929666,0.0,0.0,0.0,0.0
25952000,-0.0066560125,-0.007140378,-0.0066917446,0.0,0.0,0.0,0.0
25984000,-0.0021925261,0.0053067408,0.0012955463,0.0,0.0,0.0,0.0
26016000,0.0041381633,-0.004361982,0.0038473187,0.0,0.0,0.0,0.0
26048000,-0.008368832,-0.0041652736,0.0044365902,0.0,0.0,0.0,0.0
26080000,0.004516066,-0.0010251589,-0.0029003408,0.0,0.0,0.0,0.0
26112000,-0.011430973,0.005835101,0.0036693225,0.0,0.0,0.0,0.0
26148000,0.010229258,-0.0041749435,-0.001719091,0.0,0.0,0.0,0.0
26176000,0.0022399758,0.008136605,-0.004574144,0.0,0.0,0.0,0.0
26208000,-0.006213236,0.002148546,0.0055738236,0.0,0.0,0.0,0.0
26240000,0.014065165,-0.0019566296,-0.0012113713,0.0,0.0,0.0,0.0
26272000,4.2684842e-05,-0.0012806971,0.002631985,0.0,0.0,0.0,0.0
26308000,0.00465721,0.002599983,0.0033405172,0.0,0.0,0.0,0.0
26336000,-0.0010520095,0.0086059375,0.00023278466,0.0,0.0,0.0,0.0
26368000,0.0021861459,0.0054924916,-0.0004505336,0.0,0.0,0.0,0.0
26400000,-0.0090044,0.001055426,0.002079518,0.0,0.0,0.0,0.0
26432000,0.011893297,0.0019069435,0.0017734871,0.0,0.0,0.0,0.0
26468000,-0.0028650016,-0.005915309,0.0012770082,0.0,0.0,0.0,0.0
26496000,-0.00059671083,-0.0022469289,-0.0045613213,0.0,0.0,0.0,0.0
26528000,0.0012823837,0.0011291751,0.0031540284,0.0,0.0,0.0,0.0
26564000,-0.00044443214,-0.0096241515,0.008930729,0.0,0.0,0.0,0.0
26592000,-0.0026832246,0.0038501075,-0.0017804063,0.0,0.0,0.0,0.0
26624000,-0.011369552,0.0012289179,-0.012993407,0.0,0.0,0.0,0.0
26660000,0.0002380634,0.0058988757,-0.00014134453,0.0,0.0,0.0,0.0
26692000,-0.003158528,-0.0007182178,0.006824692,0.0,0.0,0.0,0.0
26724000,0.003033693,0.0030174116,-0.0009303991,0.0,0.0,0.0,0.0
26752000,0.001403252,0.0072249724,-0.01406236,0.0,0.0,0.0,0.0
26784000,0.0033588274,-0.00081019057,-0.0035875898,0.0,0.0,0.0,0.0
26816000,0.0041838414,-0.001444268,0.008746032,0.0,0.0,0.0,0.0
26852000,-6.74777e-05,0.0048652096,-0.0039380766,0.0,0.0,0.0,0.0
26880000,0.0073259342,0.0014968673,-0.0069924584,0.0,0.0,0.0,0.0
26912000,-0.00053902215,-0.006768984,-0.0042544063,0.0,0.0,0.0,0.0
26948000,0.008092944,-0.0064307954,-0.009241013,0.0,0.0,0.0,0.0
26976000,0.004617334,0.0012398483,-0.0018739696,0.0,0.0,0.0,0.0
27012000,0.005560914,-0.0009524082,0.008164622,0.0,0.0,0.0,0.0
27040000,0.0030239904,0.0012734341,-0.00032870477,0.0,0.0,0.0,0.0
27072000,-0.0062975986,0.0056651346,0.0037172206,0.0,0.0,0.0,0.0
27104000,0.005669665,-0.0006926432,0.008611444,0.0,0.0,0.0,0.0
27136000,0.0066107707,0.0026629125,0.0036856665,0.0,0.0,0.0,0.0
27168000,-0.004488699,-0.013525028,0.009856328,0.0,0.0,0.0,0.0
27200000,0.007637072,0.0077075954,0.0006068498,0.0,0.0,0.0,0.0
27236000,-0.00730303,-0.009360304,-0.0026630876,0.0,0.0,0.0,0.0
27264000,0.00010988803,-0.00077750254,-6.0057668e-05,0.0,0.0,0.0,0.0
27296000,0.00048151845,-0.00541828,-0.0026274947,0.0,0.0,0.0,0.0
27328000,-0.00250561,-0.008006434,0.006523348,0.0,0.0,0.0,0.0
27364000,0.01010479,-0.009936902,0.0005601645,0.0,0.0,0.0,0.0
27396000,0.0011311418,0.0044044172,-0.0023182095,0.0,0.0,0.0,0.0
27424000,-0.0006865732,-0.009993663,0.0073806113,0.0,0.0,0.0,0.0
27460000,-0.0011719024,0.008447428,-0.0016495149,0.0,0.0,0.0,0.0
27488000,0.003206443,-0.005110884,0.0008053405,0.0,0.0,0.0,0.0
27520000,0.00763695,0.002596468,-0.00017306242,0.0,0.0,0.0,0.0
27552000,-0.0024600106,-0.0007343148,-0.0013143556,0.0,0.0,0.0,0.0
27584000,-0.0071610752,0.0041895877,1.21397825e-05,0.0,0.0,0.0,0.0
27616000,-0.0014934436,0.0021483835,-0.007869992,0.0,0.0,0.0,0.0
27648000,-0.014572717,-0.000914556,0.0077153957,0.0,0.0,0.0,0.0
27680000,0.00441177,0.004405531,-0.0045374446,0.0,0.0,0.0,0.0
27712000,-0.00061574683,-0.008804688,-0.0026866458,0.0,0.0,0.0,0.0
27744000,0.0003248104,-0.004110046,0.00202354,0.0,0.0,0.0,0.0
27776000,0.0033101696,-0.00624137,0.0043858914,0.0,0.0,0.0,0.0
27808000,0.0051156767,-0.0036284993,-0.0012410257,0.0,0.0,0.0,0.0
27840000,0.0023505953,0.0064424546,0.00054656365,0.0,0.0,0.0,0.0
27876000,-0.009510314,0.0014818455,-0.00084128225,0.0,0.0,0.0,0.0
27908000,0.00041883648,0.0014164574,-0.00014930114,0.0,0.0,0.0,0.0
27940000,-0.0072218915,-0.0034134546,-0.0036444776,0.0,0.0,0.0,0.0
27968000,0.0009735109,-0.004583247,-0.0031160393,0.0,0.0,0.0,0.0
28000000,-0.00655137,0.0010389462,0.0010231165,0.0,0.0,0.0,0.0
28032000,-0.009538955,-0.0026993947,-0.007651725,0.0,0.0,0.0,0.0
28064000,-0.007040119,0.001228529,0.0074236025,0.0,0.0,0.0,0.0
28096000,-0.008863262,0.0057581714,-0.0026718779,0.0,0.0,0.0,0.0
28132000,-0.003648317,-0.001009454,0.0032803447,0.0,0.0,0.0,0.0
28160000,0.0017888648,3.4461264e-05,-0.00880597,0.0,0.0,0.0,0.0
28192000,0.01443043,-0.015559137,0.0010435021,0.0,0.0,0.0,0.0
28224000,0.007933632,-0.00045648962,0.0015293984,0.0,0.0,0.0,0.0
28260000,-0.0017423058,-0.0045305737,-0.004007197,0.0,0.0,0.0,0.0
28292000,0.014666252,-0.0011212784,0.008201758,0.0,0.0,0.0,0.0
28324000,0.01030995,-0.0011866419,0.004967622,0.0,0.0,0.0,0.0
28352000,-0.0033389046,-0.012604635,-0.00046434905,0.0,0.0,0.0,0.0
28384000,0.00693513,0.003328117,0.00804127,0.0,0.0,0.0,0.0
28416000,-0.0066984445,0.0041608266,0.0038109724,0.0,0.0,0.0,0.0
28452000,-0.004162604,-0.0022173873,0.009786104,0.0,0.0,0.0,0.0
28480000,-0.0005053537,-0.0011539632,-0.014770154,0.0,0.0,0.0,0.0
28512000,-0.0019244304,-0.0018032659,-0.0038025582,0.0,0.0,0.0,0.0
28544000,0.005133521,-0.013634911,-0.0059165373,0.0,0.0,0.0,0.0
28576000,-0.0031157238,-0.003885028,-0.00498047,0.0,0.0,0.0,0.0
28612000,0.001600639,0.0050763385,-0.0060671438,0.0,0.0,0.0,0.0
28640000,0.0024642828,-0.0038742982,-0.0016897406,0.0,0.0,0.0,0.0
28676000,0.0033495023,0.00035691634,-0.0014474936,0.0,0.0,0.0,0.0
28704000,-0.0037564244,-0.005015109,-0.016189514,0.0,0.0,0.0,0.0
28736000,-0.003164514,-0.0019022785,-4.391656e-05,0.0,0.0,0.0,0.0
28768000,0.0057105897,0.0067480044,0.00634754,0.0,0.0,0.0,0.0
28804000,0.00030257215,0.0015594419,-0.0010360271,0.0,0.0,0.0,0.0
28832000,6.8523805e-05,0.002670444,0.0014623161,0.0,0.0,0.0,0.0
28864000,-0.0025328198,0.005562327,-0.00077918626,0.0,0.0,0.0,0.0
28896000,-0.0048113833,0.0051843617,-0.0025803102,0.0,0.0,0.0,0.0
28928000,-0.0015304411,-0.0065037264,-0.013339519,0.0,0.0,0.0,0.0
28964000,-0.0064697037,0.0028712037,-0.0037140017,0.0,0.0,0.0,0.0
28996000,0.0038030709,0.005071984,-0.0035480675,0.0,0.0,0.0,0.0
29028000,0.005154413,0.0024615068,-0.00010577706,0.0,0.0,0.0,0.0
29056000,0.0027950169,-0.008689523,0.0053751357,0.0,0.0,0.0,0.0
29088000,0.0028472503,0.0029092664,-0.009762929,0.0,0.0,0.0,0.0
29120000,0.0040946803,0.00413382,0.0018179284,0.0,0.0,0.0,0.0
29156000,-0.00028620742,-0.004240157,-0.0041143885,0.0,0.0,0.0,0.0
29184000,0.002316027,-0.001599269,0.0016442158,0.0,0.0,0.0,0.0
29220000,-0.0010274575,-0.0027536498,0.004945986,0.0,0.0,0.0,0.0
29248000,-0.009402108,0.0014754655,0.004252723,0.0,0.0,0.0,0.0
29284000,0.005509678,-0.00086385524,0.0034891116,0.0,0.0,0.0,0.0
29312000,-0.0050678267,0.0039173607,-0.0070723826,0.0,0.0,0.0,0.0
29348000,-0.0043989574,-0.007920534,-0.0055974536,0.0,0.0,0.0,0.0
29376000,0.0032051676,0.0013547936,0.0025750443,0.0,0.0,0.0,0.0
29412000,0.0024622772,-0.0037857257,-0.0018384615,0.0,0.0,0.0,0.0
29444000,-0.0005536751,-0.0011048326,0.0067089126,0.0,0.0,0.0,0.0
29472000,-0.0025038826,-0.0029699062,-0.0058430512,0.0,0.0,0.0,0.0
29508000,-0.0021681262,0.001655235,0.005048902,0.0,0.0,0.0,0.0
29536000,0.004003532,-0.0064427927,0.0069013108,0.0,0.0,0.0,0.0
29568000,-0.0026394418,0.0068749455,0.0048580253,0.0,0.0,0.0,0.0
29600000,0.0040419893,0.0006808024,-8.981861e-05,0.0,0.0,0.0,0.0
29632000,0.0076948064,0.00679765,0.002155302,0.0,0.0,0.0,0.0
29664000,0.0045586647,-0.0055881054,6.9352056e-05,0.0,0.0,0.0,0.0
29696000,-0.0012314545,-0.00085216714,0.005550297,0.0,0.0,0.0,0.0
29728000,-0.011770369,-0.008040106,-0.003167218,0.0,0.0,0.0,0.0
29764000,-0.007293934,-0.004478669,0.0033994596,0.0,0.0,0.0,0.0
29792000,0.0012313916,0.013627086,0.0026240495,0.0,0.0,0.0,0.0
29824000,-0.004906891,-0.009744497,-0.009502852,0.0,0.0,0.0,0.0
29860000,-0.0027760738,-0.0012153187,0.0049355016,0.0,0.0,0.0,0.0
29888000,-0.0052009523,-0.0027349237,-0.0034993845,0.0,0.0,0.0,0.0
29920000,0.0015352739,-0.0052267835,0.0016267675,0.0,0.0,0.0,0.0
29952000,0.0019504249,0.0057939677,-0.0069454564,0.0,0.0,0.0,0.0
29988000,-0.0044029024,0.0019430027,0.009130316,0.0,0.0,0.0,0.0
30020000,-0.0029742168,0.0045158425,-0.004613397,0.0,0.0,0.0,0.0
30048000,-0.0007052126,-0.004069713,0.0012708537,0.0,0.0,0.0,0.0
30084000,0.0053490754,-0.0033613169,0.001534038,0.0,0.0,0.0,0.0
30116000,0.005785495,0.012731108,-0.0020825022,0.0,0.0,0.0,0.0
30144000,0.001755134,-0.007489451,0.0016154067,0.0,0.0,0.0,0.0
30176000,0.007622214,-0.005861386,0.00059994473,0.0,0.0,0.0,0.0
30208000,0.0014994382,-0.018073155,0.009643952,0.0,0.0,0.0,0.0
30240000,-0.0013504963,-0.00037429715,0.0047154916,0.0,0.0,0.0,0.0
30272000,0.0060239015,-0.0003863857,-0.0008414048,0.0,0.0,0.0,0.0
30304000,-0.0064933505,0.008008505,0.003727279,0.0,0.0,0.0,0.0
30336000,-0.005887948,-0.0013907361,0.0040198164,0.0,0.0,0.0,0.0
30368000,0.001537489,0.0029957162,-0.007911367,0.0,0.0,0.0,0.0
30404000,-0.005538912,-0.0016553225,-0.008858888,0.0,0.0,0.0,0.0
30432000,-0.003905748,-0.00065825135,-0.00913744,0.0,0.0,0.0,0.0
30468000,0.0040089693,-0.00017270632,0.0008779983,0.0,0.0,0.0,0.0
30496000,0.0034035733,0.008298897,-0.00018124074,0.0,0.0,0.0,0.0
30532000,-0.0062744934,0.0053638997,0.00044930784,0.0,0.0,0.0,0.0
30560000,-0.0023755296,-0.0042245807,0.0038158926,0.0,0.0,0.0,0.0
30592000,-0.005204633,0.0043785195,0.008171251,0.0,0.0,0.0,0.0
30628000,0.0061567603,0.006751167,4.4377062e-05,0.0,0.0,0.0,0.0
30656000,-0.0022567092,-0.007253674,-2.1246451e-05,0.0,0.0,0.0,0.0
30688000,0.00068483513,-0.005446091,-0.0015421603,0.0,0.0,0.0,0.0
30720000,-0.004351441,-0.0012458856,-0.003172667,0.0,0.0,0.0,0.0
30752000,-0.0009417335,-0.0082115345,0.00062423997,0.0,0.0,0.0,0.0
30784000,-0.010712824,-0.006856465,0.0014369099,0.0,0.0,0.0,0.0
30816000,-0.0026569574,0.011338364,0.0092242975,0.0,0.0,0.0,0.0
30848000,-0.0022323895,0.0051295985,-0.008715357,0.0,0.0,0.0,0.0
30880000,-0.010300154,-0.0026209336,0.009948107,0.0,0.0,0.0,0.0
30916000,-0.0042222627,-0.0022825762,0.0062113144,0.0,0.0,0.0,0.0
30944000,-0.0063513685,0.0003071949,0.004047497,0.0,0.0,0.0,0.0
30976000,0.00042311667,0.008793517,-0.0010252446,0.0,0.0,0.0,0.0
31008000,0.004182649,-0.0014029383,-0.0018299205,0.0,0.0,0.0,0.0
31040000,-0.00053641887,0.0024528906,0.004292594,0.0,0.0,0.0,0.0
31076000,0.00013601419,0.0008635996,-0.0014725989,0.0,0.0,0.0,0.0
31104000,-0.0026263879,0.005960571,-0.009146145,0.0,0.0,0.0,0.0
31140000,-0.0066812257,0.0032986794,-0.009163618,0.0,0.0,0.0,0.0
31172000,-0.015589057,0.007145336,0.015280061,0.0,0.0,0.0,0.0
31200000,0.0022799815,-0.0005535763,-4.734879e-05,0.0,0.0,0.0,0.0
31236000,-0.0022927506,0.0067444937,-0.00887976,0.0,0.0,0.0,0.0
31264000,-0.002524473,-0.0003353646,0.0022456495,0.0,0.0,0.0,0.0
31296000,-0.0009287441,-0.00047961064,-0.010073172,0.0,0.0,0.0,0.0
31328000,0.005155233,0.007749205,0.005016159,0.0,0.0,0.0,0.0
31360000,0.0036489698,0.0017724815,-0.0018465074,0.0,0.0,0.0,0.0
31396000,-0.001088371,-0.006411654,-0.0050425786,0.0,0.0,0.0,0.0
31424000,0.0010782104,0.0022858279,0.011682804,0.0,0.0,0.0,0.0
31460000,-0.005169834,0.0036826953,-0.0033449447,0.0,0.0,0.0,0.0
31492000,0.0031986851,0.0020659138,-0.004779393,0.0,0.0,0.0,0.0
31520000,-0.010231851,-0.0064313654,0.008344947,0.0,0.0,0.0,0.0
31556000,-0.0067551085,0.012330286,-0.0034619307,0.0,0.0,0.0,0.0
31588000,0.0041260207,0.0033685013,0.006767143,0.0,0.0,0.0,0.0
31616000,-0.004315112,-0.005687878,0.009220917,0.0,0.0,0.0,0.0
31652000,0.007570956,-0.0035335366,0.014252053,0.0,0.0,0.0,0.0
31680000,-5.2172458e-05,0.0071311397,0.009585377,0.0,0.0,0.0,0.0
