timestamp,roll,pitch,yaw,thrust_body[0],thrust_body[1],thrust_body[2]
3240000,0.13533628,0.16791663,0.0008840561,0.0,0.0,-0.08
3272000,0.1359655,0.16934113,0.0008955002,0.0,0.0,-0.08
3300000,0.13670027,0.17052194,0.00090676546,0.0,0.0,-0.08
3336000,0.13706718,0.17139754,0.0009137392,0.0,0.0,-0.08
3372000,0.13795985,0.17226471,0.00092446804,0.0,0.0,-0.08
3404000,0.13860112,0.17408513,0.0009384155,0.0,0.0,-0.08
3432000,0.1383153,0.17541254,0.00094377995,0.0,0.0,-0.08
3464000,0.1382809,0.17758052,0.00095522404,0.0,0.0,-0.08
3496000,0.13826269,0.17891648,0.0009623766,0.0,0.0,-0.08
3528000,0.13861698,0.18034501,0.00097221136,0.0,0.0,-0.08
3556000,0.13902918,0.18122071,0.000980258,0.0,0.0,-0.08
3596000,0.1397825,0.18262538,0.0009929538,0.0,0.0,-0.08
3628000,0.13999084,0.18369444,0.001000464,0.0,0.0,-0.08
3656000,0.14064407,0.18483813,0.0010111928,0.0,0.0,-0.08
3688000,0.14092602,0.18618993,0.0010208488,0.0,0.0,-0.08
3720000,0.14070335,0.18729644,0.0010253191,0.0,0.0,-0.08
3756000,0.14042109,0.18873799,0.0010308623,0.0,0.0,-0.08
3788000,0.14055201,0.19004649,0.0010390878,0.0,0.0,-0.08
3816000,0.1411256,0.1910927,0.0010492802,0.0,0.0,-0.08
3852000,0.1413725,0.192314,0.0010575056,0.0,0.0,-0.08
3880000,0.14190267,0.19338018,0.0010675192,0.0,0.0,-0.08
3908000,0.14286341,0.19420092,0.0010793209,0.0,0.0,-0.08
3948000,0.14316308,0.19534951,0.0010880828,0.0,0.0,-0.08
3976000,0.14330235,0.19610739,0.0010930896,0.0,0.0,-0.08
4007999,0.14394099,0.19691424,0.0011023879,0.0,0.0,-0.08
4039999,0.14395013,0.19794255,0.0011086464,0.0,0.0,-0.08
4071999,0.14431335,0.19905561,0.0011172295,0.0,0.0,-0.08
4108000,0.14385746,0.200409,0.0011216998,0.0,0.0,-0.08
4135999,0.14359246,0.20136794,0.0011247396,0.0,0.0,-0.08
4167999,0.14340407,0.20250432,0.0011295676,0.0,0.0,-0.08
4200000,0.1444492,0.20308386,0.0011411905,0.0,0.0,-0.08
4236000,0.14452551,0.20452476,0.0011495948,0.0,0.0,-0.08
4268000,0.14495985,0.2051765,0.001157105,0.0,0.0,-0.08
4296000,0.14507769,0.20567822,0.0011605024,0.0,0.0,-0.08
4332000,0.14527994,0.2064437,0.0011669397,0.0,0.0,-0.08
4356000,0.1453983,0.20725268,0.001172483,0.0,0.0,-0.08
4396000,0.14564404,0.20833203,0.0011799932,0.0,0.0,-0.08
4424000,0.14592871,0.20890228,0.001185894,0.0,0.0,-0.08
4456000,0.14591438,0.21024844,0.0011934042,0.0,0.0,-0.08
4492000,0.14640479,0.21062535,0.0011994839,0.0,0.0,-0.08
4520000,0.14681338,0.21090429,0.0012046695,0.0,0.0,-0.08
4552000,0.14681485,0.21073505,0.0012035966,0.0,0.0,-0.08
4584000,0.14675689,0.21111877,0.0012053847,0.0,0.0,-0.08
4616000,0.14547028,0.21195312,0.0011991262,0.0,0.0,-0.08
4648000,0.14497206,0.21186537,0.0011950135,0.0,0.0,-0.08
4680000,0.14439031,0.2122095,0.0011919737,0.0,0.0,-0.08
4712000,0.14425692,0.21277986,0.0011941195,0.0,0.0,-0.08
4744000,0.14429751,0.2128362,0.0011948347,0.0,0.0,-0.08
4776000,0.14414491,0.2127639,0.0011930466,0.0,0.0,-0.08
4812000,0.14419895,0.2127968,0.0011939406,0.0,0.0,-0.08
4840000,0.14360845,0.21252555,0.0011875033,0.0,0.0,-0.08
4872000,0.14372662,0.2122311,0.0011867881,0.0,0.0,-0.08
4904000,0.14339873,0.21271566,0.0011866093,0.0,0.0,-0.08
4940000,0.14347142,0.21245974,0.0011857152,0.0,0.0,-0.08
4968000,0.14358976,0.212569,0.0011873245,0.0,0.0,-0.08
5000000,0.14358303,0.21312657,0.0011901855,0.0,0.0,-0.08
5036000,0.14333332,0.21323664,0.001188755,0.0,0.0,-0.08
5064000,0.14347965,0.2130804,0.0011892915,0.0,0.0,-0.08
5096000,0.14299262,0.21330173,0.0011864305,0.0,0.0,-0.08
5128000,0.1424517,0.21336195,0.0011823177,0.0,0.0,-0.08
5160000,0.14259666,0.21352482,0.0011841059,0.0,0.0,-0.08
5192000,0.14201814,0.21378824,0.0011812449,0.0,0.0,-0.08
5224000,0.14165948,0.21372035,0.0011776686,0.0,0.0,-0.08
5260000,0.14169718,0.21363044,0.001177311,0.0,0.0,-0.08
5288000,0.14189273,0.2137899,0.0011799932,0.0,0.0,-0.08
5320000,0.14193621,0.21332243,0.0011776686,0.0,0.0,-0.08
5352000,0.14111046,0.21298042,0.0011690855,0.0,0.0,-0.08
5388000,0.14091143,0.21259792,0.0011653304,0.0,0.0,-0.08
5420000,0.14095426,0.21263275,0.0011658669,0.0,0.0,-0.08
5452000,0.14124432,0.21229467,0.0011664033,0.0,0.0,-0.08
5480000,0.14155024,0.21176642,0.0011658669,0.0,0.0,-0.08
5516000,0.14142987,0.21084109,0.0011601448,0.0,0.0,-0.08
5544000,0.14144613,0.21090555,0.0011605024,0.0,0.0,-0.08
5576000,0.1414656,0.21063338,0.0011592507,0.0,0.0,-0.08
5608000,0.14163339,0.21037847,0.0011590719,0.0,0.0,-0.08
5640000,0.14121117,0.2107383,0.0011574626,0.0,0.0,-0.08
5676000,0.14045861,0.21103495,0.0011529922,0.0,0.0,-0.08
5704000,0.14004794,0.21040353,0.0011463761,0.0,0.0,-0.08
5740000,0.13989279,0.21006495,0.0011431575,0.0,0.0,-0.08
5768000,0.14077649,0.20981362,0.0011488795,0.0,0.0,-0.08
5800000,0.14053741,0.20943779,0.0011451244,0.0,0.0,-0.08
5832000,0.14026925,0.20967588,0.0011444092,0.0,0.0,-0.08
5864000,0.1399725,0.2089756,0.0011377931,0.0,0.0,-0.08
5896000,0.13996701,0.20915225,0.0011386871,0.0,0.0,-0.08
5928000,0.13944386,0.20839158,0.0011306405,0.0,0.0,-0.08
5964000,0.13940951,0.20799622,0.0011279583,0.0,0.0,-0.08
5992000,0.13892478,0.20767182,0.0011220574,0.0,0.0,-0.08
6024000,0.13862866,0.20779046,0.0011206269,0.0,0.0,-0.08
6060000,0.13764429,0.20779902,0.0011124015,0.0,0.0,-0.08
6088000,0.1371036,0.20750457,0.0011066794,0.0,0.0,-0.08
6120000,0.13713071,0.2076295,0.0011077523,0.0,0.0,-0.08
6152000,0.13694794,0.2070868,0.001103282,0.0,0.0,-0.08
6188000,0.13642669,0.20663488,0.0010966659,0.0,0.0,-0.08
6216000,0.13617064,0.20672765,0.0010948777,0.0,0.0,-0.08
6248000,0.13569272,0.2062503,0.001088798,0.0,0.0,-0.08
6276000,0.13550875,0.20523846,0.0010820031,0.0,0.0,-0.08
6312000,0.13491984,0.20499656,0.0010759234,0.0,0.0,-0.08
6348000,0.1344401,0.20420878,0.001067698,0.0,0.0,-0.08
6380000,0.1330378,0.20350818,0.0010533929,0.0,0.0,-0.08
6408000,0.13281783,0.2027467,0.0010476708,0.0,0.0,-0.08
6440000,0.1322859,0.20266536,0.0010430217,0.0,0.0,-0.08
6472000,0.13142611,0.20189005,0.001032114,0.0,0.0,-0.08
6508000,0.13129559,0.20163363,0.0010299683,0.0,0.0,-0.08
6536000,0.13040322,0.20083809,0.0010185242,0.0,0.0,-0.08
6572000,0.12988807,0.20010617,0.001011014,0.0,0.0,-0.08
6600000,0.12938596,0.199477,0.0010040402,0.0,0.0,-0.08
6628000,0.12921697,0.19891861,0.0009999275,0.0,0.0,-0.08
6664000,0.12862548,0.19804287,0.0009909868,0.0,0.0,-0.08
6696000,0.12815762,0.19766307,0.0009854436,0.0,0.0,-0.08
6728000,0.12824652,0.19771202,0.0009861588,0.0,0.0,-0.08
6760000,0.12805548,0.19714126,0.0009822249,0.0,0.0,-0.08
6796000,0.1277554,0.1961677,0.00097471476,0.0,0.0,-0.08
6824000,0.12707716,0.19591063,0.00096845627,0.0,0.0,-0.08
6856000,0.12719987,0.19502789,0.00096488,0.0,0.0,-0.08
6888000,0.12759008,0.19454375,0.00096559525,0.0,0.0,-0.08
6916000,0.12705825,0.19354244,0.00095665455,0.0,0.0,-0.08
6956000,0.12616903,0.19284654,0.00094664097,0.0,0.0,-0.08
6984000,0.12639438,0.19180477,0.0009430647,0.0,0.0,-0.08
7016000,0.1261001,0.1909322,0.0009364486,0.0,0.0,-0.08
7048000,0.12549454,0.19031423,0.000929296,0.0,0.0,-0.08
7080000,0.12433789,0.18988937,0.000918746,0.0,0.0,-0.08
7112000,0.123758435,0.18836847,0.00090676546,0.0,0.0,-0.08
7144000,0.12323658,0.18808351,0.00090140104,0.0,0.0,-0.08
7176000,0.123835996,0.18781663,0.0009049773,0.0,0.0,-0.08
7212000,0.12378465,0.18733865,0.0009024739,0.0,0.0,-0.08
7240000,0.1236238,0.18703148,0.0008994341,0.0,0.0,-0.08
7272000,0.12304493,0.18715537,0.000895679,0.0,0.0,-0.08
7300000,0.123741455,0.18659809,0.0008981824,0.0,0.0,-0.08
7336000,0.12383245,0.18517518,0.0008917451,0.0,0.0,-0.08
7368000,0.12360032,0.18448047,0.0008869171,0.0,0.0,-0.08
7396000,0.12324494,0.18386185,0.0008815527,0.0,0.0,-0.08
7432000,0.12379418,0.18337047,0.0008829832,0.0,0.0,-0.08
7468000,0.12339089,0.18174097,0.000872612,0.0,0.0,-0.08
7496000,0.12361182,0.1810238,0.0008702874,0.0,0.0,-0.08
7528000,0.12362943,0.180575,0.0008684993,0.0,0.0,-0.08
7560000,0.12342131,0.17957734,0.000862062,0.0,0.0,-0.08
7592000,0.12340973,0.17921683,0.00086045265,0.0,0.0,-0.08
7624000,0.12280473,0.17771786,0.00084882975,0.0,0.0,-0.08
7660000,0.122160584,0.17676134,0.00083988905,0.0,0.0,-0.08
7688000,0.12242149,0.17601581,0.0008382797,0.0,0.0,-0.08
7720000,0.12215345,0.17547166,0.0008338094,0.0,0.0,-0.08
7756000,0.12178054,0.17481428,0.00082826614,0.0,0.0,-0.08
7784000,0.1221997,0.1739464,0.0008266568,0.0,0.0,-0.08
7816000,0.122312106,0.17323896,0.00082433224,0.0,0.0,-0.08
7848000,0.12228231,0.17225805,0.00081950426,0.0,0.0,-0.08
7876000,0.12215166,0.17108424,0.00081306696,0.0,0.0,-0.08
7912000,0.12188,0.17013678,0.00080662966,0.0,0.0,-0.08
7944000,0.122012325,0.16908956,0.0008023381,0.0,0.0,-0.08
7972000,0.12158185,0.16867891,0.00079768896,0.0,0.0,-0.08
8012000,0.12174982,0.16732752,0.00079232454,0.0,0.0,-0.08
8040000,0.12194594,0.166262,0.0007889271,0.0,0.0,-0.08
8072000,0.12204773,0.16518332,0.00078445673,0.0,0.0,-0.08
8104000,0.12238846,0.16473389,0.0007842779,0.0,0.0,-0.08
8136000,0.1218472,0.163439,0.00077444315,0.0,0.0,-0.08
8163999,0.12104899,0.16240396,0.0007646084,0.0,0.0,-0.08
8200000,0.1203295,0.16170579,0.0007569194,0.0,0.0,-0.08
8232000,0.12057444,0.16095999,0.00075495243,0.0,0.0,-0.08
8264000,0.12023324,0.15999582,0.0007483363,0.0,0.0,-0.08
8300000,0.120173134,0.15897152,0.0007429719,0.0,0.0,-0.08
8328000,0.12023552,0.15814798,0.00073957443,0.0,0.0,-0.08
8360000,0.1199046,0.1570493,0.0007324219,0.0,0.0,-0.08
8392000,0.11960575,0.1562466,0.0007266998,0.0,0.0,-0.08
8428000,0.11908539,0.1557736,0.00072169304,0.0,0.0,-0.08
8460000,0.11933462,0.15579727,0.00072312355,0.0,0.0,-0.08
8488000,0.11912261,0.15541023,0.0007200837,0.0,0.0,-0.08
8520000,0.1194448,0.1545412,0.00071811676,0.0,0.0,-0.08
8548000,0.11951396,0.15418659,0.00071668625,0.0,0.0,-0.08
8584000,0.11944098,0.15342973,0.00071293116,0.0,0.0,-0.08
8616000,0.11961128,0.15295905,0.00071167946,0.0,0.0,-0.08
8644000,0.119675756,0.15237653,0.0007095337,0.0,0.0,-0.08
8680000,0.11974957,0.15152125,0.0007057786,0.0,0.0,-0.08
8712000,0.11927126,0.15114342,0.00070130825,0.0,0.0,-0.08
8740000,0.119648226,0.15089819,0.00070238113,0.0,0.0,-0.08
8776000,0.119417846,0.15034764,0.0006984472,0.0,0.0,-0.08
8808000,0.11952284,0.14949146,0.00069504976,0.0,0.0,-0.08
8840000,0.119843714,0.14881338,0.00069361925,0.0,0.0,-0.08
8872000,0.1200469,0.14813326,0.0006916523,0.0,0.0,-0.08
8908000,0.12013894,0.14711928,0.0006875396,0.0,0.0,-0.08
8932000,0.120293036,0.14648637,0.0006855726,0.0,0.0,-0.08
8968000,0.12082489,0.14707433,0.00069111586,0.0,0.0,-0.08
8996000,0.120736495,0.14652473,0.000688076,0.0,0.0,-0.08
9036000,0.12070179,0.14602794,0.00068575144,0.0,0.0,-0.08
9064000,0.12048914,0.14555371,0.00068217516,0.0,0.0,-0.08
9100000,0.119831085,0.14537677,0.000677526,0.0,0.0,-0.08
9128000,0.1201656,0.14498629,0.0006778836,0.0,0.0,-0.08
9160000,0.120343015,0.14505424,0.0006791353,0.0,0.0,-0.08
9192000,0.12058094,0.14511019,0.000680387,0.0,0.0,-0.08
9228000,0.120578125,0.1437255,0.0006739497,0.0,0.0,-0.08
9260000,0.12066874,0.14320427,0.00067198277,0.0,0.0,-0.08
9292000,0.120535985,0.14288336,0.0006700158,0.0,0.0,-0.08
9320000,0.12035847,0.1426132,0.00066769123,0.0,0.0,-0.08
9348000,0.120125525,0.14170045,0.0006619692,0.0,0.0,-0.08
9384000,0.11974819,0.1416924,0.0006598234,0.0,0.0,-0.08
9416000,0.11947375,0.14166933,0.0006583929,0.0,0.0,-0.08
9448000,0.12002369,0.14052357,0.0006558895,0.0,0.0,-0.08
9480000,0.12069538,0.13945991,0.000654459,0.0,0.0,-0.08
9512000,0.120961145,0.13874653,0.0006528497,0.0,0.0,-0.08
9544000,0.12078517,0.13828556,0.00064980984,0.0,0.0,-0.08
9576000,0.12067757,0.1382496,0.00064855814,0.0,0.0,-0.08
9608000,0.12114823,0.13809922,0.0006507039,0.0,0.0,-0.08
9636000,0.1211888,0.13779843,0.0006494522,0.0,0.0,-0.08
9668000,0.12107949,0.13753529,0.00064766407,0.0,0.0,-0.08
9704000,0.12083097,0.13683337,0.0006430149,0.0,0.0,-0.08
9736000,0.12008518,0.13678588,0.00063854456,0.0,0.0,-0.08
9772000,0.120323315,0.1369851,0.00064104795,0.0,0.0,-0.08
9800000,0.12033261,0.13665038,0.00063961744,0.0,0.0,-0.08
9836000,0.12089731,0.13671242,0.0006426573,0.0,0.0,-0.08
9864000,0.120740145,0.13661471,0.0006414056,0.0,0.0,-0.08
9896000,0.12102197,0.13658077,0.0006428361,0.0,0.0,-0.08
9928000,0.12119381,0.1365133,0.00064337254,0.0,0.0,-0.08
9956000,0.12177408,0.13655382,0.0006469488,0.0,0.0,-0.08
9996000,0.12236026,0.13606809,0.00064748526,0.0,0.0,-0.08
10024000,0.12256636,0.13558069,0.00064623356,0.0,0.0,-0.08
10056000,0.12297256,0.13518,0.0006465912,0.0,0.0,-0.08
10088000,0.12243323,0.13487716,0.00064229965,0.0,0.0,-0.08
10124000,0.12290588,0.13373303,0.00063943863,0.0,0.0,-0.08
10152000,0.123351775,0.13314715,0.0006389022,0.0,0.0,-0.08
10184000,0.1238656,0.13327558,0.000641942,0.0,0.0,-0.08
10216000,0.12410979,0.13316816,0.0006428361,0.0,0.0,-0.08
10252000,0.12438159,0.13238096,0.0006403327,0.0,0.0,-0.08
10280000,0.12393546,0.1324589,0.00063854456,0.0,0.0,-0.08
10312000,0.12439828,0.13197792,0.0006389022,0.0,0.0,-0.08
10344000,0.124735475,0.131899,0.00063961744,0.0,0.0,-0.08
10380000,0.12488571,0.13179684,0.0006401539,0.0,0.0,-0.08
10412000,0.12456539,0.13210584,0.0006399751,0.0,0.0,-0.08
10440000,0.12444113,0.13236572,0.0006406903,0.0,0.0,-0.08
10472000,0.124784455,0.13215332,0.0006417632,0.0,0.0,-0.08
10504000,0.12518393,0.13159235,0.0006406903,0.0,0.0,-0.08
10540000,0.124658525,0.13049427,0.0006324649,0.0,0.0,-0.08
10568000,0.124102324,0.13029903,0.0006290674,0.0,0.0,-0.08
10604000,0.12441974,0.12948686,0.000626564,0.0,0.0,-0.08
10632000,0.12435554,0.12931606,0.0006253123,0.0,0.0,-0.08
10660000,0.123965114,0.12955904,0.0006245971,0.0,0.0,-0.08
10696000,0.12403472,0.12968516,0.00062566996,0.0,0.0,-0.08
10724000,0.12445593,0.1294674,0.000626564,0.0,0.0,-0.08
10760000,0.12506644,0.12951344,0.0006301403,0.0,0.0,-0.08
10796000,0.12497249,0.13021442,0.0006330013,0.0,0.0,-0.08
10824000,0.12470825,0.12945105,0.00062817335,0.0,0.0,-0.08
10856000,0.12519774,0.12920764,0.00062924623,0.0,0.0,-0.08
10888000,0.12609476,0.129199,0.0006337166,0.0,0.0,-0.08
10920000,0.12671809,0.12945646,0.00063818693,0.0,0.0,-0.08
10956000,0.12643339,0.12922446,0.0006355047,0.0,0.0,-0.08
10984000,0.1266239,0.12855907,0.00063318014,0.0,0.0,-0.08
11016000,0.126975,0.12808233,0.0006328225,0.0,0.0,-0.08
11048000,0.12711877,0.12780853,0.00063210726,0.0,0.0,-0.08
11080000,0.12727085,0.12688652,0.00062799454,0.0,0.0,-0.08
11116000,0.12753794,0.12565657,0.0006235242,0.0,0.0,-0.08
11148000,0.12798628,0.12533873,0.0006238818,0.0,0.0,-0.08
11176000,0.12787533,0.1253012,0.00062316656,0.0,0.0,-0.08
11212000,0.12795839,0.12585121,0.0006263852,0.0,0.0,-0.08
11244000,0.12803793,0.1261529,0.00062835217,0.0,0.0,-0.08
11272000,0.1285147,0.12617938,0.00063085556,0.0,0.0,-0.08
11308000,0.1285812,0.12615916,0.00063085556,0.0,0.0,-0.08
11340000,0.12883967,0.12692592,0.00063604116,0.0,0.0,-0.08
11368000,0.12877126,0.12668361,0.000634253,0.0,0.0,-0.08
11400000,0.1286784,0.12744519,0.0006378293,0.0,0.0,-0.08
11432000,0.12834841,0.12705988,0.000634253,0.0,0.0,-0.08
11464000,0.12807038,0.12714021,0.00063318014,0.0,0.0,-0.08
11496000,0.12857082,0.12675303,0.0006337166,0.0,0.0,-0.08
11528000,0.12880117,0.12684305,0.0006355047,0.0,0.0,-0.08
11560000,0.12930433,0.12697853,0.00063854456,0.0,0.0,-0.08
11592000,0.12869185,0.12594889,0.00063049793,0.0,0.0,-0.08
11624000,0.12881243,0.12567689,0.00062942505,0.0,0.0,-0.08
11656000,0.12890837,0.12592342,0.0006312132,0.0,0.0,-0.08
11692000,0.1285359,0.12536928,0.00062710047,0.0,0.0,-0.08
11720000,0.12866515,0.12547298,0.00062799454,0.0,0.0,-0.08
11748000,0.12815404,0.12551185,0.00062549114,0.0,0.0,-0.08
11784000,0.12773089,0.12544595,0.0006233454,0.0,0.0,-0.08
11816000,0.12785086,0.12455848,0.00061905384,0.0,0.0,-0.08
11848000,0.12730116,0.12470777,0.0006172657,0.0,0.0,-0.08
11880000,0.12712084,0.12464014,0.00061637163,0.0,0.0,-0.08
11912000,0.12695366,0.124492764,0.0006147623,0.0,0.0,-0.08
11948000,0.12698036,0.12488456,0.0006169081,0.0,0.0,-0.08
11976000,0.12649888,0.12507333,0.00061529875,0.0,0.0,-0.08
12012000,0.1269067,0.12551709,0.0006195903,0.0,0.0,-0.08
12040000,0.12656358,0.12586336,0.0006197691,0.0,0.0,-0.08
12072000,0.12670508,0.12623204,0.0006220937,0.0,0.0,-0.08
12104000,0.12666005,0.12655944,0.0006233454,0.0,0.0,-0.08
12136000,0.12653643,0.1265082,0.0006224513,0.0,0.0,-0.08
12168000,0.12672427,0.12723592,0.00062030554,0.0,0.0,-0.08
12204000,0.12638818,0.12728903,0.0005990267,0.0,0.0,-0.08
12236000,0.12625001,0.12728648,0.0012102127,0.0,0.0,-0.08
12264000,0.12624696,0.12802596,0.001429081,0.0,0.0,-0.08
12296000,0.12681203,0.12849374,0.0014244318,0.0,0.0,-0.08
12328000,0.12739864,0.12780625,0.0014026165,0.0,0.0,-0.08
12364000,0.12780492,0.12752685,0.0017647147,0.0,0.0,-0.08
12392000,0.1280505,0.12775049,0.002093017,0.0,0.0,-0.08
12428000,0.127427,0.1278225,0.0027433634,0.0,0.0,-0.08
12460000,0.12744556,0.12786475,0.0031462312,0.0,0.0,-0.08
12492000,0.12792227,0.12780996,0.003392458,0.0,0.0,-0.08
12520000,0.12795267,0.12842718,0.0036942959,0.0,0.0,-0.08
12552000,0.12840715,0.12796064,0.0037481189,0.0,0.0,-0.08
12584000,0.12829897,0.1283797,0.003867209,0.0,0.0,-0.08
12616000,0.12797032,0.12838292,0.0035898685,0.0,0.0,-0.08
12648000,0.12754337,0.12829037,0.0038280487,0.0,0.0,-0.08
12676000,0.12728049,0.12874842,0.0036799908,0.0,0.0,-0.08
12712000,0.1270718,0.12896961,0.003594339,0.0,0.0,-0.08
12744000,0.12644707,0.12833706,0.0034191012,0.0,0.0,-0.08
12776000,0.12633389,0.12884253,0.003386736,0.0,0.0,-0.08
12808000,0.12642208,0.12831861,0.0034137368,0.0,0.0,-0.08
12840000,0.12703335,0.12867753,0.0032166839,0.0,0.0,-0.08
12876000,0.1273002,0.12789333,0.0029216409,0.0,0.0,-0.08
12908000,0.1267962,0.12792307,0.0030927658,0.0,0.0,-0.08
12936000,0.12646516,0.1283553,0.0028494,0.0,0.0,-0.08
12968000,0.12632883,0.12826507,0.002778411,0.0,0.0,-0.08
13004000,0.12640382,0.12805656,0.002683282,0.0,0.0,-0.08
13032000,0.12660177,0.12800455,0.002689004,0.0,0.0,-0.08
13064000,0.12686147,0.12757665,0.0026260614,0.0,0.0,-0.08
13096000,0.12704411,0.128086,0.0026875734,0.0,0.0,-0.08
13128000,0.12716444,0.12788063,0.0029053688,0.0,0.0,-0.08
13164000,0.12759206,0.12807101,0.0030439496,0.0,0.0,-0.08
13192000,0.12800401,0.1272169,0.0028406382,0.0,0.0,-0.08
13228000,0.12814625,0.12751156,0.0032975078,0.0,0.0,-0.08
13256000,0.12847686,0.1275051,0.0034044385,0.0,0.0,-0.08
13292000,0.12870896,0.12759511,0.0034652352,0.0,0.0,-0.08
13320000,0.12835728,0.12794095,0.003532648,0.0,0.0,-0.08
13348000,0.12881482,0.12820679,0.0035862923,0.0,0.0,-0.08
13384000,0.12842725,0.12829517,0.0035235286,0.0,0.0,-0.08
13416000,0.12785533,0.1281384,0.0035607219,0.0,0.0,-0.08
13448000,0.12744981,0.12840945,0.0038255453,0.0,0.0,-0.08
13480000,0.1269369,0.12857118,0.004086077,0.0,0.0,-0.08
13508000,0.12703565,0.12870938,0.004190862,0.0,0.0,-0.08
13544000,0.1268099,0.12860242,0.003988445,0.0,0.0,-0.08
13580000,0.12726387,0.12873723,0.0043051243,0.0,0.0,-0.08
13612000,0.12781295,0.12830082,0.004449427,0.0,0.0,-0.08
13640000,0.12782618,0.12862195,0.004497707,0.0,0.0,-0.08
13668000,0.12738195,0.12864776,0.00453794,0.0,0.0,-0.08
13704000,0.12793373,0.1285283,0.004555285,0.0,0.0,-0.08
13736000,0.1281474,0.12860453,0.004494667,0.0,0.0,-0.08
13768000,0.12807223,0.128713,0.004186034,0.0,0.0,-0.08
13800000,0.1282461,0.12795705,0.00388062,0.0,0.0,-0.08
13832000,0.12754685,0.12823685,0.0034793615,0.0,0.0,-0.08
13864000,0.128151,0.12823316,0.0033214688,0.0,0.0,-0.08
13896000,0.12817818,0.12781322,0.003108859,0.0,0.0,-0.08
13928000,0.12770477,0.1279803,0.0030786395,0.0,0.0,-0.08
13960000,0.1273996,0.1278878,0.00293684,0.0,0.0,-0.08
13996000,0.12719676,0.12821318,0.0029736757,0.0,0.0,-0.08
14024000,0.12724361,0.12793308,0.0028486848,0.0,0.0,-0.08
14056000,0.12787543,0.12777266,0.0030232072,0.0,0.0,-0.08
14088000,0.12848757,0.12690504,0.0029114485,0.0,0.0,-0.08
14120000,0.12824486,0.12659618,0.0030421615,0.0,0.0,-0.08
14152000,0.12874562,0.12652326,0.0029568672,0.0,0.0,-0.08
14184000,0.12828305,0.12629841,0.0028758645,0.0,0.0,-0.08
14216000,0.12834972,0.12649962,0.002942741,0.0,0.0,-0.08
14248000,0.12882517,0.12636405,0.0031465888,0.0,0.0,-0.08
14284000,0.12871398,0.12580411,0.0033304095,0.0,0.0,-0.08
14312000,0.12844482,0.12616564,0.0033663511,0.0,0.0,-0.08
14344000,0.12834738,0.12550402,0.0032277703,0.0,0.0,-0.08
14372000,0.12839893,0.124973595,0.003353119,0.0,0.0,-0.08
14412000,0.12821342,0.12479697,0.0035111904,0.0,0.0,-0.08
14440000,0.12834682,0.12494187,0.003535509,0.0,0.0,-0.08
14472000,0.12816401,0.12514171,0.0033851266,0.0,0.0,-0.08
14504000,0.12803286,0.12466673,0.0034022927,0.0,0.0,-0.08
14536000,0.1275852,0.12459849,0.0037352443,0.0,0.0,-0.08
14572000,0.12769957,0.12374356,0.0039090514,0.0,0.0,-0.08
14600000,0.12817761,0.124177784,0.0041270256,0.0,0.0,-0.08
14632000,0.1278699,0.12422685,0.004186392,0.0,0.0,-0.08
14664000,0.12738498,0.12435121,0.0044453144,0.0,0.0,-0.08
14696000,0.12785664,0.12516353,0.0047183633,0.0,0.0,-0.08
14732000,0.12728557,0.1251247,0.004894316,0.0,0.0,-0.08
14764000,0.12715444,0.124934725,0.0047940016,0.0,0.0,-0.08
14796000,0.12746254,0.1252471,0.005121231,0.0,0.0,-0.08
14824000,0.1275129,0.12527397,0.0051764846,0.0,0.0,-0.08
14860000,0.12731335,0.12548664,0.0049842596,0.0,0.0,-0.08
14888000,0.12724248,0.12498629,0.0047342777,0.0,0.0,-0.08
14920000,0.12727061,0.12464715,0.0047555566,0.0,0.0,-0.08
14956000,0.12718728,0.12435483,0.0048106313,0.0,0.0,-0.08
14984000,0.12640867,0.12392174,0.0046874285,0.0,0.0,-0.08
15016000,0.12626538,0.123854384,0.0049615502,0.0,0.0,-0.08
15052000,0.1260392,0.124175265,0.0049275756,0.0,0.0,-0.08
15080000,0.12625736,0.123940185,0.0048075914,0.0,0.0,-0.08
15108000,0.126673,0.12356729,0.0049543977,0.0,0.0,-0.08
15144000,0.12586814,0.12363924,0.0048565865,0.0,0.0,-0.08
15176000,0.12576526,0.12359166,0.004736066,0.0,0.0,-0.08
15212000,0.12578562,0.12309821,0.004576564,0.0,0.0,-0.08
15240000,0.12537067,0.12289719,0.0043607354,0.0,0.0,-0.08
15272000,0.12578224,0.122175425,0.0043519735,0.0,0.0,-0.08
15308000,0.12535775,0.12167289,0.004189253,0.0,0.0,-0.08
15340000,0.1250314,0.12128186,0.0040810704,0.0,0.0,-0.08
15368000,0.1252443,0.1209385,0.00422734,0.0,0.0,-0.08
15396000,0.12538265,0.12093332,0.0042387843,0.0,0.0,-0.08
15432000,0.12528718,0.12088777,0.004042983,0.0,0.0,-0.08
15464000,0.12541513,0.120281965,0.0041272044,0.0,0.0,-0.08
15496000,0.1250602,0.12020616,0.004124701,0.0,0.0,-0.08
15528000,0.12511443,0.12012769,0.0039167404,0.0,0.0,-0.08
15564000,0.12482253,0.11972539,0.0038226843,0.0,0.0,-0.08
15592000,0.124634944,0.11983487,0.0038167834,0.0,0.0,-0.08
15624000,0.12451719,0.11968887,0.0036860704,0.0,0.0,-0.08
15656000,0.124808215,0.11919721,0.0035812855,0.0,0.0,-0.08
15688000,0.12546167,0.118937835,0.0032129288,0.0,0.0,-0.08
15716000,0.12577654,0.11859376,0.002776444,0.0,0.0,-0.08
15752000,0.12584497,0.11850996,0.0025504231,0.0,0.0,-0.08
15784000,0.12610713,0.117949754,0.0027199388,0.0,0.0,-0.08
15812000,0.12608923,0.11746028,0.0025949478,0.0,0.0,-0.08
15848000,0.12603453,0.116965845,0.0023483634,0.0,0.0,-0.08
15884000,0.1268014,0.11669825,0.0022886395,0.0,0.0,-0.08
15912000,0.12687832,0.116734385,0.0022725463,0.0,0.0,-0.08
15944000,0.12617427,0.11687679,0.0023943186,0.0,0.0,-0.08
15980000,0.1272082,0.116340056,0.0019335151,0.0,0.0,-0.08
16011999,0.12737554,0.1162276,0.0021323562,0.0,0.0,-0.08
16040000,0.12761259,0.116509244,0.002207458,0.0,0.0,-0.08
16072000,0.12789613,0.11661263,0.0022364259,0.0,0.0,-0.08
16104000,0.12778252,0.116373,0.001875937,0.0,0.0,-0.08
16136000,0.12740676,0.115706384,0.0018058419,0.0,0.0,-0.08
16168000,0.12697394,0.11562203,0.0016930103,0.0,0.0,-0.08
16203999,0.12655577,0.11568302,0.0016915798,0.0,0.0,-0.08
16235999,0.12713486,0.115767926,0.0015560389,0.0,0.0,-0.08
16264000,0.12736312,0.11495693,0.0016095042,0.0,0.0,-0.08
16296000,0.12693553,0.1150029,0.001570344,0.0,0.0,-0.08
16324000,0.12703288,0.115129866,0.0014215708,0.0,0.0,-0.08
16363999,0.12666026,0.11565046,0.0015955567,0.0,0.0,-0.08
16392000,0.12656015,0.11565557,0.0017321706,0.0,0.0,-0.08
16420000,0.12668134,0.11567308,0.0017580986,0.0,0.0,-0.08
16456000,0.12733898,0.116384536,0.0018035173,0.0,0.0,-0.08
16488000,0.12749751,0.11615616,0.0020118356,0.0,0.0,-0.08
16520000,0.12765436,0.11612742,0.0021598935,0.0,0.0,-0.08
16555999,0.12806316,0.11638066,0.0023109913,0.0,0.0,-0.08
16584000,0.12845112,0.11610375,0.0022807717,0.0,0.0,-0.08
16616000,0.12874544,0.1163622,0.0022140741,0.0,0.0,-0.08
16651999,0.12927726,0.11626615,0.0022743344,0.0,0.0,-0.08
16680000,0.12926334,0.11616799,0.0019876957,0.0,0.0,-0.08
16712000,0.1294583,0.11607396,0.0019794703,0.0,0.0,-0.08
16747999,0.12986135,0.116005875,0.0018383861,0.0,0.0,-0.08
16780000,0.13003558,0.115768716,0.0020474195,0.0,0.0,-0.08
16808000,0.13040027,0.115457,0.001990199,0.0,0.0,-0.08
16840000,0.13016777,0.1157335,0.0020851493,0.0,0.0,-0.08
16872000,0.13041946,0.11560017,0.0019174218,0.0,0.0,-0.08
16904000,0.13060099,0.115460604,0.0018255115,0.0,0.0,-0.08
16940000,0.13037902,0.11529947,0.001871109,0.0,0.0,-0.08
16972000,0.12982495,0.115227655,0.0020928383,0.0,0.0,-0.08
17000000,0.13026357,0.115818635,0.002034545,0.0,0.0,-0.08
17032000,0.13029662,0.11606323,0.0020232797,0.0,0.0,-0.08
17064000,0.13058692,0.11547406,0.0023927093,0.0,0.0,-0.08
17096000,0.13115332,0.11526267,0.0021525621,0.0,0.0,-0.08
17132000,0.1318866,0.11558236,0.0022455454,0.0,0.0,-0.08
17164000,0.13187468,0.11535745,0.0023050904,0.0,0.0,-0.08
17192000,0.13181667,0.11550243,0.002189219,0.0,0.0,-0.08
17228000,0.13125743,0.11532493,0.0024177432,0.0,0.0,-0.08
17256000,0.13058876,0.115192264,0.0025836825,0.0,0.0,-0.08
17284000,0.13010177,0.11541222,0.002493918,0.0,0.0,-0.08
17320000,0.12949255,0.11553945,0.0028318763,0.0,0.0,-0.08
17348000,0.12936735,0.115940124,0.0032444,0.0,0.0,-0.08
17384000,0.12937105,0.11575502,0.0033355951,0.0,0.0,-0.08
17416000,0.12885365,0.11529972,0.0032966137,0.0,0.0,-0.08
17452000,0.1287139,0.11521295,0.003421247,0.0,0.0,-0.08
17480000,0.12872641,0.11543152,0.0035505295,0.0,0.0,-0.08
17512000,0.1285994,0.11514479,0.0036438704,0.0,0.0,-0.08
17544000,0.12883203,0.114569016,0.0033649206,0.0,0.0,-0.08
17576000,0.12867968,0.113996685,0.0032851696,0.0,0.0,-0.08
17604000,0.12839495,0.11369972,0.0029057264,0.0,0.0,-0.08
17640000,0.12802272,0.11359507,0.0028261542,0.0,0.0,-0.08
17672000,0.12768626,0.11327297,0.0025961995,0.0,0.0,-0.08
17704000,0.12796874,0.112768516,0.0024118423,0.0,0.0,-0.08
17736000,0.1281776,0.112241104,0.0025439858,0.0,0.0,-0.08
17772000,0.12876904,0.11245148,0.00246495,0.0,0.0,-0.08
17804000,0.12936851,0.11299588,0.0023837686,0.0,0.0,-0.08
17832000,0.12953858,0.112778954,0.0021509528,0.0,0.0,-0.08
17864000,0.12924515,0.112955846,0.0021464825,0.0,0.0,-0.08
17900000,0.12921697,0.11297802,0.0025055408,0.0,0.0,-0.08
17928000,0.1290473,0.11248016,0.0025028586,0.0,0.0,-0.08
17960000,0.12976146,0.11227007,0.0023719668,0.0,0.0,-0.08
17992000,0.12961838,0.11213043,0.0022850633,0.0,0.0,-0.08
18028000,0.12879828,0.11213206,0.0021961927,0.0,0.0,-0.08
18060000,0.1286962,0.11183025,0.0023578405,0.0,0.0,-0.08
18088000,0.12813751,0.11147535,0.002572775,0.0,0.0,-0.08
18120000,0.12835081,0.11153508,0.002684176,0.0,0.0,-0.08
18152000,0.12797344,0.11224136,0.0025026798,0.0,0.0,-0.08
18184000,0.12804702,0.11257099,0.002686143,0.0,0.0,-0.08
18220000,0.128217,0.11212365,0.0028075576,0.0,0.0,-0.08
18248000,0.12855795,0.11221406,0.0026528835,0.0,0.0,-0.08
18276000,0.12884124,0.11217604,0.0026346445,0.0,0.0,-0.08
18312000,0.12871069,0.111727774,0.0026502013,0.0,0.0,-0.08
18344000,0.12923352,0.11138813,0.0027363896,0.0,0.0,-0.08
18380000,0.12904651,0.11121693,0.0028207898,0.0,0.0,-0.08
18408000,0.12931842,0.11099179,0.0029305816,0.0,0.0,-0.08
18440000,0.1294856,0.11102006,0.0026940107,0.0,0.0,-0.08
18476000,0.12964329,0.11046948,0.002713859,0.0,0.0,-0.08
18504000,0.12963496,0.11014762,0.0029025078,0.0,0.0,-0.08
18536000,0.12963396,0.11020701,0.002943635,0.0,0.0,-0.08
18572000,0.13006133,0.11043842,0.0027623177,0.0,0.0,-0.08
18600000,0.1299648,0.11017589,0.0030604005,0.0,0.0,-0.08
18636000,0.12961468,0.110397756,0.0032238364,0.0,0.0,-0.08
18664000,0.13003919,0.11003111,0.003143549,0.0,0.0,-0.08
18700000,0.1300825,0.10980501,0.003665328,0.0,0.0,-0.08
18728000,0.1301846,0.109776795,0.0036229491,0.0,0.0,-0.08
18760000,0.13006566,0.10989795,0.0035090446,0.0,0.0,-0.08
18792000,0.12985885,0.11037944,0.0032336712,0.0,0.0,-0.08
18824000,0.13030206,0.11010542,0.0034013987,0.0,0.0,-0.08
18856000,0.13030589,0.110376894,0.0032048821,0.0,0.0,-0.08
18888000,0.12986544,0.1101204,0.003066659,0.0,0.0,-0.08
18920000,0.13065785,0.10964675,0.0033186078,0.0,0.0,-0.08
18952000,0.13081747,0.10903098,0.0035167336,0.0,0.0,-0.08
18984000,0.13088092,0.108824216,0.0035621524,0.0,0.0,-0.08
19016000,0.13070248,0.10831657,0.0037955046,0.0,0.0,-0.08
19048000,0.1306331,0.10828082,0.0041980147,0.0,0.0,-0.08
19084000,0.1310948,0.10793578,0.004315138,0.0,0.0,-0.08
19112000,0.13061547,0.10801792,0.0045211315,0.0,0.0,-0.08
19140000,0.13027653,0.10844642,0.0044435263,0.0,0.0,-0.08
19180000,0.13019732,0.108527854,0.0045529604,0.0,0.0,-0.08
19212000,0.12984258,0.108877674,0.0043566227,0.0,0.0,-0.08
19240000,0.12989986,0.108232655,0.004422784,0.0,0.0,-0.08
19272000,0.12932247,0.10854329,0.004380226,0.0,0.0,-0.08
19304000,0.12938417,0.108509734,0.004444778,0.0,0.0,-0.08
19340000,0.12977955,0.107997105,0.004640937,0.0,0.0,-0.08
19372000,0.12963843,0.108115666,0.0047585964,0.0,0.0,-0.08
19400000,0.12997678,0.108121604,0.0044367313,0.0,0.0,-0.08
19436000,0.13012004,0.10775171,0.004553497,0.0,0.0,-0.08
19468000,0.13024051,0.108060636,0.0048249364,0.0,0.0,-0.08
19496000,0.13015226,0.10842727,0.0048506856,0.0,0.0,-0.08
19528000,0.13015056,0.107820585,0.004776478,0.0,0.0,-0.08
19560000,0.13019371,0.10793419,0.004696369,0.0,0.0,-0.08
19596000,0.13055529,0.107694514,0.0047643185,0.0,0.0,-0.08
19628000,0.12982714,0.10782111,0.004751265,0.0,0.0,-0.08
19656000,0.12991238,0.108451575,0.0046547055,0.0,0.0,-0.08
19688000,0.12998945,0.10794221,0.0047228336,0.0,0.0,-0.08
19720000,0.12937286,0.10810466,0.004480183,0.0,0.0,-0.08
19756000,0.12997974,0.108301565,0.004569769,0.0,0.0,-0.08
19780000,0.12997666,0.10795294,0.004614651,0.0,0.0,-0.08
19816000,0.1297695,0.107751206,0.004669547,0.0,0.0,-0.08
19848000,0.12878893,0.10710264,0.0045490265,0.0,0.0,-0.08
19880000,0.128596,0.10702901,0.00462234,0.0,0.0,-0.08
19912000,0.12812307,0.10693839,0.0045259595,0.0,0.0,-0.08
19944000,0.12795803,0.10659105,0.0045517087,0.0,0.0,-0.08
19976000,0.12797537,0.10687728,0.004553139,0.0,0.0,-0.08
20008000,0.12721884,0.10639353,0.004635215,0.0,0.0,-0.08
20040000,0.12675607,0.10623177,0.0045161247,0.0,0.0,-0.08
20076000,0.12673043,0.10610459,0.0045161247,0.0,0.0,-0.08
20108000,0.12701726,0.10549101,0.0044319034,0.0,0.0,-0.08
20136000,0.1269664,0.10555474,0.004466951,0.0,0.0,-0.08
20168000,0.12601893,0.10547274,0.004517019,0.0,0.0,-0.08
20204000,0.1268473,0.106145404,0.0046232343,0.0,0.0,-0.08
20232000,0.12711294,0.106248185,0.0045951605,0.0,0.0,-0.08
20264000,0.12698081,0.106321365,0.004489839,0.0,0.0,-0.08
20300000,0.1262381,0.10623635,0.004300475,0.0,0.0,-0.08
20328000,0.12595525,0.10607381,0.004170835,0.0,0.0,-0.08
20360000,0.12643665,0.106259,0.0042348504,0.0,0.0,-0.08
20392000,0.12679978,0.10621211,0.0041318536,0.0,0.0,-0.08
20424000,0.12682267,0.1065316,0.004223585,0.0,0.0,-0.08
20456000,0.12637372,0.10714418,0.0042816997,0.0,0.0,-0.08
20488000,0.12615135,0.1075064,0.0042412877,0.0,0.0,-0.08
20524000,0.12610763,0.107244164,0.0044165254,0.0,0.0,-0.08
20556000,0.12612617,0.10721077,0.0043780804,0.0,0.0,-0.08
20584000,0.12574956,0.10733129,0.004435122,0.0,0.0,-0.08
20620000,0.12578079,0.106334075,0.004468024,0.0,0.0,-0.08
20652000,0.12612553,0.10609493,0.004813671,0.0,0.0,-0.08
20680000,0.12669377,0.10575515,0.004720509,0.0,0.0,-0.08
20712000,0.12733756,0.10570659,0.0043010116,0.0,0.0,-0.08
20744000,0.12727495,0.1053879,0.0043575168,0.0,0.0,-0.08
20780000,0.12764011,0.10455482,0.0039762855,0.0,0.0,-0.08
20808000,0.12727334,0.10436741,0.003934622,0.0,0.0,-0.08
20840000,0.12698208,0.10518362,0.003732562,0.0,0.0,-0.08
20872000,0.12667468,0.10581531,0.0033897758,0.0,0.0,-0.08
20904000,0.12635928,0.10568978,0.003461659,0.0,0.0,-0.08
20932000,0.12648171,0.106294766,0.0036107898,0.0,0.0,-0.08
20968000,0.12661433,0.106616,0.0034727454,0.0,0.0,-0.08
21000000,0.12624809,0.105837084,0.0033536553,0.0,0.0,-0.08
21032000,0.12644589,0.105675615,0.0032603145,0.0,0.0,-0.08
21064000,0.12671462,0.105165675,0.0031333566,0.0,0.0,-0.08
21096000,0.12687685,0.10589363,0.0032327771,0.0,0.0,-0.08
21128000,0.12734368,0.10600254,0.0033216476,0.0,0.0,-0.08
21160000,0.12734923,0.105856575,0.0033402443,0.0,0.0,-0.08
21192000,0.12708643,0.106788576,0.003124237,0.0,0.0,-0.08
21228000,0.12703057,0.10705074,0.0035102963,0.0,0.0,-0.08
21252000,0.12699701,0.10725902,0.0036063194,0.0,0.0,-0.08
21288000,0.12747483,0.1080103,0.003627777,0.0,0.0,-0.08
21324000,0.1278876,0.108316295,0.0035117269,0.0,0.0,-0.08
21352000,0.12756433,0.10836443,0.0035666227,0.0,0.0,-0.08
21384000,0.12737374,0.10841712,0.0037683249,0.0,0.0,-0.08
21416000,0.12793508,0.10932201,0.0038529038,0.0,0.0,-0.08
21448000,0.12772974,0.10948701,0.0037677884,0.0,0.0,-0.08
21480000,0.12758161,0.10980606,0.0037021637,0.0,0.0,-0.08
21512000,0.12727089,0.10922864,0.0040310025,0.0,0.0,-0.08
21540000,0.12698653,0.10967623,0.003835559,0.0,0.0,-0.08
21580000,0.12745874,0.10964198,0.00412184,0.0,0.0,-0.08
21608000,0.12729082,0.109841086,0.0040875077,0.0,0.0,-0.08
21644000,0.12728196,0.10966948,0.0040569305,0.0,0.0,-0.08
21672000,0.12646309,0.109963745,0.003832519,0.0,0.0,-0.08
21704000,0.12658933,0.10973853,0.0037381053,0.0,0.0,-0.08
21732000,0.12674098,0.10974796,0.00369519,0.0,0.0,-0.08
21772000,0.12689629,0.1100273,0.0039510727,0.0,0.0,-0.08
21796000,0.12661116,0.10966477,0.0040099025,0.0,0.0,-0.08
21832000,0.12654236,0.109738305,0.00403744,0.0,0.0,-0.08
21868000,0.12650529,0.10962559,0.004203737,0.0,0.0,-0.08
21896000,0.12648748,0.10974032,0.004046023,0.0,0.0,-0.08
21928000,0.12625782,0.109777376,0.004150629,0.0,0.0,-0.08
21956000,0.12589844,0.11018324,0.0043886304,0.0,0.0,-0.08
21992000,0.12566939,0.110033914,0.0044442415,0.0,0.0,-0.08
22024000,0.1250858,0.110054195,0.0049211383,0.0,0.0,-0.08
22056000,0.12483135,0.11007042,0.004844606,0.0,0.0,-0.08
22092000,0.12454398,0.11000191,0.0049391985,0.0,0.0,-0.08
22120000,0.12440526,0.10991847,0.0049102306,0.0,0.0,-0.08
22152000,0.12441622,0.11006653,0.0049324036,0.0,0.0,-0.08
22188000,0.12435822,0.110099256,0.0048142076,0.0,0.0,-0.08
22216000,0.12447835,0.11015962,0.004914701,0.0,0.0,-0.08
22248000,0.12437173,0.10982886,0.005438268,0.0,0.0,-0.08
22280000,0.124168955,0.109573066,0.0054282546,0.0,0.0,-0.08
22312000,0.12401958,0.10898222,0.005258739,0.0,0.0,-0.08
22344000,0.12366311,0.109035216,0.0053853393,0.0,0.0,-0.08
22372000,0.12364762,0.10890454,0.0053400993,0.0,0.0,-0.08
22408000,0.12431632,0.109284684,0.0052803755,0.0,0.0,-0.08
22444000,0.12416871,0.11019814,0.004996419,0.0,0.0,-0.08
22476000,0.12422511,0.10976976,0.0052131414,0.0,0.0,-0.08
22504000,0.12470585,0.10936737,0.0052322745,0.0,0.0,-0.08
22536000,0.12461914,0.10876905,0.005279839,0.0,0.0,-0.08
22568000,0.12438747,0.1091544,0.0053449273,0.0,0.0,-0.08
22604000,0.12450365,0.1085977,0.0056156516,0.0,0.0,-0.08
22632000,0.12443942,0.1085629,0.0056481957,0.0,0.0,-0.08
22668000,0.12478469,0.10841116,0.0058341622,0.0,0.0,-0.08
22692000,0.1248581,0.10853753,0.0057061315,0.0,0.0,-0.08
22732000,0.12502179,0.10873689,0.0057705045,0.0,0.0,-0.08
22760000,0.1251947,0.1097139,0.0055993795,0.0,0.0,-0.08
22792000,0.12533222,0.10940361,0.005512655,0.0,0.0,-0.08
22824000,0.12516496,0.109079875,0.0056360364,0.0,0.0,-0.08
22860000,0.12466551,0.10914398,0.005591333,0.0,0.0,-0.08
22892000,0.12463025,0.10949343,0.005541086,0.0,0.0,-0.08
22924000,0.124947146,0.10872963,0.005641401,0.0,0.0,-0.08
22952000,0.1248675,0.108925894,0.0056684017,0.0,0.0,-0.08
22988000,0.1249691,0.10993263,0.005403936,0.0,0.0,-0.08
23016000,0.124769256,0.11009441,0.0057792664,0.0,0.0,-0.08
23048000,0.124929875,0.110297605,0.0056185126,0.0,0.0,-0.08
23084000,0.12498635,0.11066802,0.00549978,0.0,0.0,-0.08
23112000,0.12464464,0.11029732,0.005477071,0.0,0.0,-0.08
23144000,0.12484635,0.10988611,0.005330801,0.0,0.0,-0.08
23176000,0.124614626,0.10963303,0.0056406856,0.0,0.0,-0.08
23212000,0.12485647,0.10993581,0.0056877136,0.0,0.0,-0.08
23244000,0.12454538,0.10944873,0.0059309006,0.0,0.0,-0.08
23276000,0.12495033,0.10897371,0.006237924,0.0,0.0,-0.08
23308000,0.124849066,0.10900821,0.0061633587,0.0,0.0,-0.08
23336000,0.124580905,0.10915314,0.0060778856,0.0,0.0,-0.08
23368000,0.124693595,0.1096047,0.0061739087,0.0,0.0,-0.08
23400000,0.12466018,0.10976979,0.0062134266,0.0,0.0,-0.08
23432000,0.12465809,0.11033877,0.0063239336,0.0,0.0,-0.08
23468000,0.1245758,0.10994765,0.0061758757,0.0,0.0,-0.08
23496000,0.12434256,0.109983906,0.006642401,0.0,0.0,-0.08
23528000,0.124515496,0.10976663,0.0067668557,0.0,0.0,-0.08
23560000,0.12451657,0.11021447,0.0071176887,0.0,0.0,-0.08
23592000,0.12363012,0.10984287,0.0070610046,0.0,0.0,-0.08
23624000,0.12381475,0.10989645,0.0072689652,0.0,0.0,-0.08
23656000,0.12428451,0.109588824,0.0074157715,0.0,0.0,-0.08
23688000,0.12409282,0.10949624,0.007529676,0.0,0.0,-0.08
23720000,0.123959854,0.109512866,0.007574022,0.0,0.0,-0.08
23748000,0.12395925,0.108929895,0.007963121,0.0,0.0,-0.08
23784000,0.123803765,0.108054,0.007903755,0.0,0.0,-0.08
23820000,0.12359388,0.10775012,0.007832944,0.0,0.0,-0.08
23852000,0.12330685,0.107928,0.008006394,0.0,0.0,-0.08
23876000,0.12334994,0.10841015,0.007920563,0.0,0.0,-0.08
23912000,0.12347815,0.10865283,0.00784421,0.0,0.0,-0.08
23940000,0.12306623,0.10839234,0.0076541305,0.0,0.0,-0.08
23976000,0.12392801,0.10871714,0.0073531866,0.0,0.0,-0.08
24012000,0.123921245,0.10838473,0.0071151853,0.0,0.0,-0.08
24036000,0.124121785,0.10809479,0.007109642,0.0,0.0,-0.08
24072000,0.12369595,0.10798406,0.0070284605,0.0,0.0,-0.08
24104000,0.12315088,0.108051874,0.0069004297,0.0,0.0,-0.08
24136000,0.12248509,0.108581185,0.006949961,0.0,0.0,-0.08
24172000,0.12284863,0.10817584,0.007071018,0.0,0.0,-0.08
24200000,0.12251426,0.108371235,0.006748259,0.0,0.0,-0.08
24236000,0.122203186,0.10825315,0.006741643,0.0,0.0,-0.08
24264000,0.12205412,0.10835682,0.006667793,0.0,0.0,-0.08
24296000,0.12252022,0.10858184,0.0064537525,0.0,0.0,-0.08
24332000,0.122536875,0.10824142,0.0061665773,0.0,0.0,-0.08
24360000,0.122286625,0.10804282,0.00622648,0.0,0.0,-0.08
24396000,0.12224831,0.10796573,0.0062575936,0.0,0.0,-0.08
24428000,0.121780306,0.10769427,0.006097555,0.0,0.0,-0.08
24456000,0.12210057,0.107781686,0.006099701,0.0,0.0,-0.08
24488000,0.12219465,0.10774048,0.0061347485,0.0,0.0,-0.08
24520000,0.12221685,0.10837499,0.0061213374,0.0,0.0,-0.08
24552000,0.12207216,0.1085817,0.0060964823,0.0,0.0,-0.08
24584000,0.121952415,0.10843668,0.0059071183,0.0,0.0,-0.08
24616000,0.12225464,0.10874245,0.005845964,0.0,0.0,-0.08
24648000,0.122163564,0.10889383,0.0056946874,0.0,0.0,-0.08
24680000,0.12216588,0.10877804,0.005799651,0.0,0.0,-0.08
24712000,0.12255194,0.10899125,0.0058311224,0.0,0.0,-0.08
24748000,0.1227287,0.10856959,0.005544305,0.0,0.0,-0.08
24776000,0.122993566,0.10924206,0.005491197,0.0,0.0,-0.08
24808000,0.12289991,0.1096211,0.0054659843,0.0,0.0,-0.08
24844000,0.122555405,0.10981338,0.005707383,0.0,0.0,-0.08
24876000,0.1222459,0.110146545,0.0055187345,0.0,0.0,-0.08
24904000,0.122329004,0.1101364,0.0053919554,0.0,0.0,-0.08
24936000,0.122300215,0.11004375,0.005279124,0.0,0.0,-0.08
24972000,0.12248819,0.110504895,0.0048249364,0.0,0.0,-0.08
25000000,0.12249235,0.11115615,0.0048649907,0.0,0.0,-0.08
25032000,0.122891754,0.11104057,0.0044991374,0.0,0.0,-0.08
25064000,0.12255838,0.1113302,0.004334271,0.0,0.0,-0.08
25096000,0.12278721,0.11204083,0.0041193366,0.0,0.0,-0.08
25132000,0.12290751,0.11270946,0.003865242,0.0,0.0,-0.08
25160000,0.12234719,0.11265302,0.0036039948,0.0,0.0,-0.08
25192000,0.12193106,0.11312315,0.0035837889,0.0,0.0,-0.08
25224000,0.121778175,0.113110185,0.003552854,0.0,0.0,-0.08
25256000,0.12184544,0.113081515,0.0037082434,0.0,0.0,-0.08
25292000,0.12153281,0.11284176,0.0036631823,0.0,0.0,-0.08
25320000,0.12115936,0.11300169,0.0039303303,0.0,0.0,-0.08
25356000,0.121360004,0.11335165,0.0038800836,0.0,0.0,-0.08
25384000,0.12085522,0.11373022,0.004041016,0.0,0.0,-0.08
25420000,0.12118858,0.113804564,0.004271865,0.0,0.0,-0.08
25444000,0.12165755,0.11362137,0.0040858984,0.0,0.0,-0.08
25480000,0.12219927,0.113991454,0.0039473176,0.0,0.0,-0.08
25512000,0.122476436,0.114008114,0.003978789,0.0,0.0,-0.08
25544000,0.122241385,0.11452404,0.004004538,0.0,0.0,-0.08
25580000,0.12238099,0.114567384,0.0039550066,0.0,0.0,-0.08
25608000,0.12242383,0.11496683,0.004027784,0.0,0.0,-0.08
25640000,0.12280977,0.11474688,0.004107535,0.0,0.0,-0.08
25672000,0.12269379,0.114630625,0.004620731,0.0,0.0,-0.08
25704000,0.12305172,0.11404635,0.004566908,0.0,0.0,-0.08
25736000,0.122541934,0.11427273,0.004484296,0.0,0.0,-0.08
25768000,0.122249156,0.11396991,0.0047094226,0.0,0.0,-0.08
25800000,0.122225955,0.11428501,0.0046432614,0.0,0.0,-0.08
25832000,0.12242427,0.11477206,0.004717469,0.0,0.0,-0.08
25864000,0.12206371,0.11452596,0.004560113,0.0,0.0,-0.08
25896000,0.121829085,0.11393523,0.0045363307,0.0,0.0,-0.08
25928000,0.12144584,0.11367497,0.004650235,0.0,0.0,-0.08
25956000,0.12208316,0.11390584,0.004594803,0.0,0.0,-0.08
25992000,0.121989444,0.11402692,0.0046103597,0.0,0.0,-0.08
26028000,0.122185305,0.114112325,0.004867494,0.0,0.0,-0.08
26060000,0.12216559,0.1138197,0.0051564574,0.0,0.0,-0.08
26092000,0.12186673,0.113981485,0.0053361654,0.0,0.0,-0.08
26120000,0.12187934,0.114046946,0.0054579377,0.0,0.0,-0.08
26152000,0.1217895,0.11424393,0.0055958033,0.0,0.0,-0.08
26188000,0.12216477,0.114167035,0.005693257,0.0,0.0,-0.08
26216000,0.122268975,0.11456298,0.00556916,0.0,0.0,-0.08
26248000,0.122115836,0.114326745,0.0056809187,0.0,0.0,-0.08
26284000,0.12171194,0.11401027,0.005738139,0.0,0.0,-0.08
26312000,0.121496305,0.114035174,0.0058196783,0.0,0.0,-0.08
26344000,0.12125134,0.113845065,0.006372571,0.0,0.0,-0.08
26380000,0.121929765,0.114194706,0.006365955,0.0,0.0,-0.08
26408000,0.1222333,0.11356323,0.006580174,0.0,0.0,-0.08
26440000,0.1219634,0.112867326,0.00653404,0.0,0.0,-0.08
26472000,0.121694975,0.11320431,0.0063530803,0.0,0.0,-0.08
26500000,0.122099586,0.113204174,0.006480217,0.0,0.0,-0.08
26536000,0.12223363,0.113385804,0.006545663,0.0,0.0,-0.08
26568000,0.12174252,0.113280386,0.006193042,0.0,0.0,-0.08
26600000,0.121633954,0.1133728,0.0061200857,0.0,0.0,-0.08
26628000,0.12219143,0.113265514,0.00630337,0.0,0.0,-0.08
26668000,0.12253567,0.1126892,0.0062050223,0.0,0.0,-0.08
26696000,0.1230984,0.11307508,0.006072521,0.0,0.0,-0.08
26732000,0.123359375,0.11287281,0.0060346127,0.0,0.0,-0.08
26760000,0.12371668,0.11323149,0.0061461926,0.0,0.0,-0.08
26792000,0.1234765,0.113266766,0.0060819983,0.0,0.0,-0.08
26824000,0.12352663,0.11362233,0.006177485,0.0,0.0,-0.08
26856000,0.123651385,0.11394706,0.00577873,0.0,0.0,-0.08
26888000,0.123064555,0.11372799,0.0059176683,0.0,0.0,-0.08
26920000,0.12264727,0.11351352,0.00552696,0.0,0.0,-0.08
26952000,0.12228144,0.114334494,0.0055562854,0.0,0.0,-0.08
26984000,0.12174025,0.11415304,0.005684495,0.0,0.0,-0.08
27016000,0.12182251,0.11398251,0.005586326,0.0,0.0,-0.08
27048000,0.12136258,0.11465171,0.0055282116,0.0,0.0,-0.08
27084000,0.12242599,0.11398854,0.0055398345,0.0,0.0,-0.08
27112000,0.12199632,0.11407192,0.0054377317,0.0,0.0,-0.08
27144000,0.121857874,0.1144318,0.005228162,0.0,0.0,-0.08
27176000,0.1214855,0.11433821,0.0052392483,0.0,0.0,-0.08
27208000,0.12076027,0.11395211,0.005234599,0.0,0.0,-0.08
27240000,0.12097238,0.11449445,0.005245149,0.0,0.0,-0.08
27272000,0.12125352,0.11460549,0.005251229,0.0,0.0,-0.08
27308000,0.12113622,0.11454736,0.0052138567,0.0,0.0,-0.08
27340000,0.12127881,0.11523257,0.0050284266,0.0,0.0,-0.08
27372000,0.12123996,0.11517638,0.00510031,0.0,0.0,-0.08
27400000,0.12105958,0.11518277,0.0050448775,0.0,0.0,-0.08
27436000,0.12153516,0.11564039,0.0048526525,0.0,0.0,-0.08
27464000,0.12122996,0.115545765,0.0045270324,0.0,0.0,-0.08
27496000,0.12138321,0.115825295,0.004221976,0.0,0.0,-0.08
27528000,0.12123352,0.11581336,0.004152596,0.0,0.0,-0.08
27560000,0.121935435,0.11544954,0.003947675,0.0,0.0,-0.08
27588000,0.12225994,0.11520197,0.0039512515,0.0,0.0,-0.08
27624000,0.122138634,0.11517001,0.0041617155,0.0,0.0,-0.08
27652000,0.122811586,0.1154216,0.0040106177,0.0,0.0,-0.08
27688000,0.12293947,0.11513984,0.0041915774,0.0,0.0,-0.08
27720000,0.12258985,0.1160671,0.004202664,0.0,0.0,-0.08
27756000,0.12242122,0.1160492,0.004213035,0.0,0.0,-0.08
27784000,0.12217812,0.116038114,0.0041906834,0.0,0.0,-0.08
27816000,0.12239619,0.1154356,0.0041481256,0.0,0.0,-0.08
27848000,0.12265172,0.114754856,0.003930509,0.0,0.0,-0.08
27880000,0.12227647,0.11537516,0.0038300157,0.0,0.0,-0.08
27912000,0.12218006,0.11536758,0.0036706924,0.0,0.0,-0.08
27948000,0.1224422,0.115389235,0.0034216046,0.0,0.0,-0.08
27976000,0.122493826,0.11563412,0.0035914779,0.0,0.0,-0.08
28012000,0.122444496,0.11615346,0.0034235716,0.0,0.0,-0.08
28040000,0.12279235,0.11671701,0.0037626028,0.0,0.0,-0.08
28072000,0.12297555,0.11660951,0.0037522316,0.0,0.0,-0.08
28108000,0.12390507,0.11652146,0.0036460161,0.0,0.0,-0.08
28136000,0.12435129,0.116296604,0.0034648776,0.0,0.0,-0.08
28164000,0.123612806,0.11617175,0.0035594702,0.0,0.0,-0.08
28200000,0.12312361,0.11708198,0.0034891963,0.0,0.0,-0.08
28228000,0.123035505,0.11682409,0.003292501,0.0,0.0,-0.08
28264000,0.12302969,0.11729424,0.003246367,0.0,0.0,-0.08
28296000,0.12290628,0.117773384,0.0030881166,0.0,0.0,-0.08
28328000,0.12275422,0.11787837,0.0028088093,0.0,0.0,-0.08
28356000,0.12313085,0.118084714,0.0025978088,0.0,0.0,-0.08
28392000,0.12311382,0.11818575,0.0027587414,0.0,0.0,-0.08
28424000,0.123377144,0.11807824,0.0025146604,0.0,0.0,-0.08
28452000,0.12286504,0.11781402,0.0024653077,0.0,0.0,-0.08
28488000,0.123249404,0.117541075,0.0025137663,0.0,0.0,-0.08
28524000,0.1232675,0.11820457,0.0023859143,0.0,0.0,-0.08
28552000,0.12319022,0.1187496,0.0025654435,0.0,0.0,-0.08
28584000,0.12340135,0.119460344,0.002615869,0.0,0.0,-0.08
28616000,0.12348707,0.11936872,0.0025994182,0.0,0.0,-0.08
28652000,0.12349959,0.11927363,0.0028327703,0.0,0.0,-0.08
28684000,0.1234781,0.119324714,0.0025781393,0.0,0.0,-0.08
28712000,0.12362561,0.119287044,0.002774477,0.0,0.0,-0.08
28748000,0.12410241,0.1197602,0.0027800202,0.0,0.0,-0.08
28776000,0.12374257,0.11921107,0.002586186,0.0,0.0,-0.08
28808000,0.123871766,0.11919512,0.0026680827,0.0,0.0,-0.08
28844000,0.124077536,0.118909225,0.0025300384,0.0,0.0,-0.08
28872000,0.12414023,0.119162634,0.0027031302,0.0,0.0,-0.08
28904000,0.124339625,0.119296655,0.0027269125,0.0,0.0,-0.08
28936000,0.12479105,0.119694754,0.0028747916,0.0,0.0,-0.08
28968000,0.12499163,0.11988872,0.0028145313,0.0,0.0,-0.08
29000000,0.12526065,0.12036067,0.0029677749,0.0,0.0,-0.08
29032000,0.124968946,0.120564,0.0027714372,0.0,0.0,-0.08
29068000,0.12555033,0.120523036,0.00283885,0.0,0.0,-0.08
29096000,0.12511852,0.120561026,0.0029110909,0.0,0.0,-0.08
29128000,0.12479836,0.1202785,0.0030300021,0.0,0.0,-0.08
29160000,0.12475611,0.12073273,0.0029960275,0.0,0.0,-0.08
29196000,0.12485428,0.12049459,0.0027866364,0.0,0.0,-0.08
29224000,0.12465582,0.12105017,0.002715826,0.0,0.0,-0.08
29256000,0.12491037,0.12110744,0.0024520755,0.0,0.0,-0.08
29288000,0.12526098,0.121356204,0.0025867224,0.0,0.0,-0.08
29320000,0.12576833,0.12174936,0.0025902987,0.0,0.0,-0.08
29352000,0.12584236,0.122152105,0.002535224,0.0,0.0,-0.08
29388000,0.12576243,0.12196851,0.002449751,0.0,0.0,-0.08
29416000,0.12616032,0.122190066,0.0024894476,0.0,0.0,-0.08
29448000,0.12588312,0.12235136,0.0023673177,0.0,0.0,-0.08
29476000,0.12567353,0.12226597,0.0025550723,0.0,0.0,-0.08
29512000,0.12619606,0.12246245,0.002495706,0.0,0.0,-0.08
29548000,0.12596098,0.12306509,0.0025330782,0.0,0.0,-0.08
29576000,0.1261647,0.12253313,0.0025032163,0.0,0.0,-0.08
29604000,0.12631321,0.12273008,0.0024577975,0.0,0.0,-0.08
29640000,0.12666222,0.122263476,0.0021965504,0.0,0.0,-0.08
29672000,0.12689403,0.12258673,0.002041161,0.0,0.0,-0.08
29704000,0.12705845,0.12217965,0.0018775463,0.0,0.0,-0.08
29736000,0.1273919,0.12185435,0.0019077659,0.0,0.0,-0.08
29768000,0.12690473,0.12194024,0.001788497,0.0,0.0,-0.08
29800000,0.1271933,0.1219119,0.0017158985,0.0,0.0,-0.08
29832000,0.12730931,0.122046545,0.0018135309,0.0,0.0,-0.08
29868000,0.12753832,0.12193878,0.0019977093,0.0,0.0,-0.08
29896000,0.1278436,0.122306876,0.002238214,0.0,0.0,-0.08
29928000,0.12774213,0.1228791,0.002195835,0.0,0.0,-0.08
29960000,0.1284952,0.12247227,0.0020982027,0.0,0.0,-0.08
29992000,0.12896131,0.12248473,0.0020495653,0.0,0.0,-0.08
30024000,0.1289728,0.12313199,0.0018714666,0.0,0.0,-0.08
30060000,0.12892225,0.12324471,0.0018045902,0.0,0.0,-0.08
30088000,0.12894651,0.124094516,0.0019077659,0.0,0.0,-0.08
30120000,0.128715,0.1233882,0.0019925237,0.0,0.0,-0.08
30148000,0.1284601,0.122864574,0.002129674,0.0,0.0,-0.08
30184000,0.1290878,0.1230322,0.0021463037,0.0,0.0,-0.08
30212000,0.12914483,0.123320885,0.002113223,0.0,0.0,-0.08
30248000,0.12946486,0.12379416,0.0018832684,0.0,0.0,-0.08
30280000,0.1294061,0.12433912,0.0016717315,0.0,0.0,-0.08
30312000,0.12963733,0.124223,0.0015851855,0.0,0.0,-0.08
30344000,0.12957463,0.12420371,0.001324296,0.0,0.0,-0.08
30376000,0.12982099,0.12380527,0.0015023947,0.0,0.0,-0.08
30408000,0.12976356,0.12411444,0.0015998483,0.0,0.0,-0.08
30440000,0.12918255,0.12386931,0.0019347668,0.0,0.0,-0.08
30472000,0.12941602,0.12386498,0.0023594499,0.0,0.0,-0.08
30504000,0.12935841,0.12369847,0.0022044182,0.0,0.0,-0.08
30536000,0.1293682,0.12397577,0.0023397803,0.0,0.0,-0.08
30568000,0.12948957,0.12476124,0.0020781755,0.0,0.0,-0.08
30600000,0.13027956,0.12508747,0.00213933,0.0,0.0,-0.08
30632000,0.13074112,0.12534513,0.0020028949,0.0,0.0,-0.08
30664000,0.13046768,0.12524623,0.002151668,0.0,0.0,-0.08
30696000,0.13099085,0.124605715,0.0021407604,0.0,0.0,-0.08
30728000,0.13156925,0.12480656,0.0020665526,0.0,0.0,-0.08
30760000,0.13122113,0.1246201,0.001985371,0.0,0.0,-0.08
30792000,0.13174322,0.124923974,0.0020168424,0.0,0.0,-0.08
30828000,0.13220432,0.12464748,0.001865387,0.0,0.0,-0.08
30856000,0.13169569,0.124444604,0.002105713,0.0,0.0,-0.08
30884000,0.13197598,0.12511656,0.0020390153,0.0,0.0,-0.08
30920000,0.13197237,0.12566158,0.0024461746,0.0,0.0,-0.08
30956000,0.1325784,0.12542014,0.0023978949,0.0,0.0,-0.08
30984000,0.13231441,0.12560648,0.002627492,0.0,0.0,-0.08
31016000,0.13178933,0.12603283,0.0028290153,0.0,0.0,-0.08
31052000,0.13173108,0.12581187,0.0029527545,0.0,0.0,-0.08
31084000,0.13221237,0.12572925,0.0032739043,0.0,0.0,-0.08
31112000,0.1319296,0.12570646,0.003377974,0.0,0.0,-0.08
31144000,0.13252588,0.12607054,0.0037216544,0.0,0.0,-0.08
31176000,0.13290906,0.12651831,0.003715217,0.0,0.0,-0.08
31212000,0.1326197,0.12620743,0.0041068196,0.0,0.0,-0.08
31240000,0.13256618,0.1255893,0.0040000677,0.0,0.0,-0.08
31276000,0.13281287,0.12542732,0.0044973493,0.0,0.0,-0.08
31304000,0.13282788,0.12559637,0.0046720505,0.0,0.0,-0.08
31336000,0.1326574,0.12580469,0.004955828,0.0,0.0,-0.08
31368000,0.13284484,0.12617195,0.0051584244,0.0,0.0,-0.08
31400000,0.13313627,0.12594664,0.005781412,0.0,0.0,-0.08
31436000,0.13216388,0.12547262,0.0056839585,0.0,0.0,-0.08
31464000,0.13185242,0.12543148,0.0059684515,0.0,0.0,-0.08
31500000,0.13159487,0.12540439,0.006329298,0.0,0.0,-0.08
31528000,0.1315947,0.12558918,0.006570339,0.0,0.0,-0.08
31564000,0.13232467,0.12529051,0.0064576864,0.0,0.0,-0.08
31592000,0.1328129,0.12482185,0.0064737797,0.0,0.0,-0.08
31624000,0.13259804,0.12532564,0.005972743,0.0,0.0,-0.08
31656000,0.13284877,0.12548225,0.005886376,0.0,0.0,-0.08
31692000,0.13246784,0.12565976,0.0055348277,0.0,0.0,-0.08
31720000,0.13256297,0.12646212,0.005515158,0.0,0.0,-0.08
31752000,0.13244534,0.1261613,0.005360484,0.0,0.0,-0.08
31784000,0.13258639,0.12657943,0.005203843,0.0,0.0,-0.08
31820000,0.1321194,0.12673421,0.0052859187,0.0,0.0,-0.08
31848000,0.13220021,0.12739198,0.005045235,0.0,0.0,-0.08
31880000,0.13200517,0.12738886,0.0049143434,0.0,0.0,-0.08
31912000,0.13227415,0.12777452,0.0048524737,0.0,0.0,-0.08
31944000,0.13216303,0.12811351,0.005091727,0.0,0.0,-0.08
31976000,0.13197072,0.1286574,0.0053476095,0.0,0.0,-0.08
32008000,0.13206702,0.12836492,0.0052333474,0.0,0.0,-0.08
32039999,0.13204119,0.12860428,0.0056092143,0.0,0.0,-0.08
32072000,0.13211696,0.12813348,0.0058407784,0.0,0.0,-0.08
32108000,0.13250569,0.12742183,0.0060895085,0.0,0.0,-0.08
32136000,0.13177185,0.12699284,0.006331444,0.0,0.0,-0.08
32172000,0.13258132,0.12768485,0.006593764,0.0,0.0,-0.08
32196000,0.13222057,0.12845546,0.006570518,0.0,0.0,-0.08
32231999,0.13177444,0.12814832,0.0065528154,0.0,0.0,-0.08
32264000,0.13251784,0.12828039,0.0064968467,0.0,0.0,-0.08
32295999,0.13260311,0.12812628,0.006969452,0.0,0.0,-0.08
32328000,0.13264571,0.12771054,0.0067920685,0.0,0.0,-0.08
32359999,0.13217197,0.12775058,0.00664562,0.0,0.0,-0.08
32396000,0.13191396,0.12753007,0.0064231753,0.0,0.0,-0.08
32423999,0.1314038,0.12821063,0.0061191916,0.0,0.0,-0.08
32460000,0.13195091,0.12897784,0.005959511,0.0,0.0,-0.08
32487999,0.13173977,0.12953381,0.005902469,0.0,0.0,-0.08
32520000,0.13185704,0.12965535,0.005602777,0.0,0.0,-0.08
32551999,0.13208407,0.1298204,0.005486548,0.0,0.0,-0.08
32584000,0.13233481,0.12998126,0.0054727793,0.0,0.0,-0.08
32615999,0.13254675,0.13038187,0.0054007173,0.0,0.0,-0.08
32648000,0.1321735,0.1308212,0.0055802464,0.0,0.0,-0.08
32679999,0.13224283,0.13091052,0.0057097077,0.0,0.0,-0.08
32712000,0.13194002,0.13057934,0.0053966045,0.0,0.0,-0.08
32743999,0.13252276,0.13060538,0.0052546263,0.0,0.0,-0.08
32780000,0.13271768,0.13077295,0.0051689744,0.0,0.0,-0.08
32804000,0.13253638,0.13097638,0.005100131,0.0,0.0,-0.08
32844000,0.13255084,0.13083377,0.0049871206,0.0,0.0,-0.08
32871999,0.13271426,0.13097964,0.005198121,0.0,0.0,-0.08
32904000,0.13281685,0.13087395,0.0050681233,0.0,0.0,-0.08
32935999,0.13317376,0.13086464,0.0050979853,0.0,0.0,-0.08
32972000,0.1331645,0.13082437,0.0049871206,0.0,0.0,-0.08
32999999,0.13302065,0.13047075,0.0052918196,0.0,0.0,-0.08
33027999,0.13289985,0.13073824,0.0054502487,0.0,0.0,-0.08
33063999,0.13266179,0.1312191,0.0056428313,0.0,0.0,-0.08
33100000,0.1332538,0.1315352,0.0055802464,0.0,0.0,-0.08
33127999,0.13348605,0.13203496,0.0059047937,0.0,0.0,-0.08
33164000,0.13298246,0.1326344,0.0057982206,0.0,0.0,-0.08
33191999,0.13303342,0.13288121,0.0057678223,0.0,0.0,-0.08
33224000,0.13217431,0.13241918,0.0056254864,0.0,0.0,-0.08
33255999,0.13205796,0.13229164,0.005607426,0.0,0.0,-0.08
33292000,0.13252147,0.13188678,0.0053889155,0.0,0.0,-0.08
33319999,0.13217668,0.13212882,0.0054810047,0.0,0.0,-0.08
33352000,0.13216189,0.13220917,0.0057184696,0.0,0.0,-0.08
33383999,0.13212624,0.13212478,0.005681455,0.0,0.0,-0.08
33416000,0.1323162,0.13266534,0.0055927634,0.0,0.0,-0.08
33448000,0.13292609,0.13290742,0.005546093,0.0,0.0,-0.08
33484000,0.13301718,0.13296787,0.0056108236,0.0,0.0,-0.08
33512000,0.13258433,0.1331878,0.0057857037,0.0,0.0,-0.08
33548000,0.13325945,0.13276124,0.0060807467,0.0,0.0,-0.08
33576000,0.13337532,0.13283628,0.0062316656,0.0,0.0,-0.08
33604000,0.13360327,0.13278644,0.006179273,0.0,0.0,-0.08
33640000,0.13370365,0.13255717,0.0061565638,0.0,0.0,-0.08
33668000,0.1338226,0.13226333,0.006232381,0.0,0.0,-0.08
33708000,0.13320222,0.13269654,0.006038189,0.0,0.0,-0.08
33736000,0.13291594,0.13255107,0.0057569146,0.0,0.0,-0.08
33768000,0.1333546,0.13239029,0.005910158,0.0,0.0,-0.08
33800000,0.13308196,0.13218434,0.0061925054,0.0,0.0,-0.08
33832000,0.1328444,0.1322086,0.0061991215,0.0,0.0,-0.08
33864000,0.13322487,0.13159777,0.006011188,0.0,0.0,-0.08
33896000,0.13339998,0.13160624,0.005833626,0.0,0.0,-0.08
33928000,0.13340169,0.1311388,0.0057501197,0.0,0.0,-0.08
33960000,0.13319536,0.13062313,0.005646765,0.0,0.0,-0.08
33992000,0.13275358,0.1301829,0.005634606,0.0,0.0,-0.08
34028000,0.1329481,0.1302381,0.0053783655,0.0,0.0,-0.08
34052000,0.13313799,0.13030598,0.0051881075,0.0,0.0,-0.08
34092000,0.13257849,0.13069987,0.0049710274,0.0,0.0,-0.08
34120000,0.13235366,0.13092083,0.0050988793,0.0,0.0,-0.08
34156000,0.13263555,0.13083887,0.0051543117,0.0,0.0,-0.08
34188000,0.13214022,0.13163227,0.0050940514,0.0,0.0,-0.08
34216000,0.13176611,0.13177404,0.0050035715,0.0,0.0,-0.08
34248000,0.13212979,0.13170297,0.004979253,0.0,0.0,-0.08
34276000,0.13206682,0.13083375,0.0046893954,0.0,0.0,-0.08
34312000,0.13163349,0.13142048,0.004819393,0.0,0.0,-0.08
34344000,0.131666,0.13207436,0.004682064,0.0,0.0,-0.08
34372000,0.1314817,0.13206957,0.004670441,0.0,0.0,-0.08
34412000,0.13112925,0.13121511,0.0044589043,0.0,0.0,-0.08
34436000,0.13167834,0.13063863,0.0046718717,0.0,0.0,-0.08
34476000,0.13138016,0.13087752,0.004596412,0.0,0.0,-0.08
34504000,0.13126063,0.1312149,0.0044716,0.0,0.0,-0.08
34540000,0.1317059,0.13073875,0.0045096874,0.0,0.0,-0.08
34572000,0.13195282,0.13087496,0.004358411,0.0,0.0,-0.08
34604000,0.13172323,0.13077416,0.0045365095,0.0,0.0,-0.08
34632000,0.13197958,0.13071191,0.0044826865,0.0,0.0,-0.08
34668000,0.13212782,0.1310497,0.004519522,0.0,0.0,-0.08
34700000,0.13222897,0.13094592,0.0044728518,0.0,0.0,-0.08
34728000,0.13270485,0.13072973,0.004409373,0.0,0.0,-0.08
34764000,0.13230544,0.13098109,0.0044009686,0.0,0.0,-0.08
34792000,0.13215688,0.13105614,0.004051566,0.0,0.0,-0.08
34828000,0.13179272,0.13113515,0.004067838,0.0,0.0,-0.08
34852000,0.1321699,0.1309918,0.0040184855,0.0,0.0,-0.08
34888000,0.13164485,0.13044158,0.004041195,0.0,0.0,-0.08
34920000,0.13150802,0.13055222,0.0042770505,0.0,0.0,-0.08
34952000,0.13114808,0.13082023,0.0040136576,0.0,0.0,-0.08
34984000,0.13109142,0.13036169,0.0039521456,0.0,0.0,-0.08
35020000,0.1307224,0.13035679,0.0039789677,0.0,0.0,-0.08
35044000,0.13057026,0.13061398,0.0041924715,0.0,0.0,-0.08
35076000,0.13085444,0.13015807,0.0043655634,0.0,0.0,-0.08
35112000,0.13103563,0.13009085,0.0044673085,0.0,0.0,-0.08
35148000,0.13073048,0.13075714,0.004432261,0.0,0.0,-0.08
35176000,0.13100035,0.12968805,0.004436016,0.0,0.0,-0.08
35212000,0.1309008,0.12965803,0.0046452284,0.0,0.0,-0.08
35244000,0.1307633,0.13015567,0.0045027137,0.0,0.0,-0.08
35272000,0.13062964,0.13026057,0.004209459,0.0,0.0,-0.08
35308000,0.12998126,0.13042504,0.0042183995,0.0,0.0,-0.08
35332000,0.13013627,0.13062973,0.0040925145,0.0,0.0,-0.08
35368000,0.12976131,0.13081248,0.00425756,0.0,0.0,-0.08
35400000,0.12963557,0.13092849,0.0041865706,0.0,0.0,-0.08
35436000,0.12994185,0.13045436,0.004253447,0.0,0.0,-0.08
35468000,0.12961906,0.13081817,0.003980577,0.0,0.0,-0.08
35496000,0.1296631,0.13075465,0.0036962628,0.0,0.0,-0.08
35528000,0.1293239,0.13164227,0.0034494996,0.0,0.0,-0.08
35560000,0.12866786,0.13162188,0.0032442212,0.0,0.0,-0.08
35596000,0.12851164,0.13167544,0.003332734,0.0,0.0,-0.08
35624000,0.1286973,0.13122666,0.0035206676,0.0,0.0,-0.08
35660000,0.12861663,0.13151686,0.0034997463,0.0,0.0,-0.08
35688000,0.12827453,0.13188204,0.0035651922,0.0,0.0,-0.08
35720000,0.12836888,0.13156731,0.0035762787,0.0,0.0,-0.08
35752000,0.1285878,0.13125262,0.0032274127,0.0,0.0,-0.08
35784000,0.12891237,0.1310711,0.0030654073,0.0,0.0,-0.08
35820000,0.12862644,0.13104135,0.0029940605,0.0,0.0,-0.08
35848000,0.1287142,0.13101034,0.0032129288,0.0,0.0,-0.08
35880000,0.12882091,0.13048613,0.0032647848,0.0,0.0,-0.08
35912000,0.12948857,0.13037424,0.0034008622,0.0,0.0,-0.08
35944000,0.12936233,0.13012686,0.0035757422,0.0,0.0,-0.08
35976000,0.12996656,0.13010769,0.0036460161,0.0,0.0,-0.08
36008000,0.13047314,0.12988031,0.003987193,0.0,0.0,-0.08
36044000,0.1305927,0.12938908,0.0042538047,0.0,0.0,-0.08
36072000,0.13078813,0.12879772,0.004383087,0.0,0.0,-0.08
36104000,0.13044034,0.12925301,0.004436016,0.0,0.0,-0.08
36136000,0.13041031,0.12943777,0.0043693185,0.0,0.0,-0.08
36172000,0.12996164,0.12910828,0.0046209097,0.0,0.0,-0.08
36204000,0.13019443,0.12916067,0.0045112967,0.0,0.0,-0.08
36232000,0.13032454,0.12938544,0.004378438,0.0,0.0,-0.08
36268000,0.1304068,0.12907311,0.0045152307,0.0,0.0,-0.08
36296000,0.13088325,0.129027,0.0043598413,0.0,0.0,-0.08
36328000,0.13072252,0.12922335,0.0044930577,0.0,0.0,-0.08
36360000,0.13029811,0.12952524,0.0045758486,0.0,0.0,-0.08
36392000,0.13041867,0.12946449,0.0046357512,0.0,0.0,-0.08
36428000,0.13007593,0.13030364,0.004840672,0.0,0.0,-0.08
36452000,0.12992878,0.13005413,0.0047535896,0.0,0.0,-0.08
36488000,0.12999913,0.13006279,0.0047834516,0.0,0.0,-0.08
36524000,0.13003281,0.12985778,0.005101204,0.0,0.0,-0.08
36548000,0.13034968,0.13012649,0.0050969124,0.0,0.0,-0.08
