timestamp,time_utc_usec,lat,lon,alt,alt_ellipsoid,s_variance_m_s,c_variance_rad,eph,epv,hdop,vdop,noise_per_ms,jamming_indicator,vel_m_s,vel_n_m_s,vel_e_m_s,vel_d_m_s,cog_rad,timestamp_time_relative,heading,heading_offset,fix_type,vel_ned_valid,satellites_used
1088000,0,473977508,85456074,488105,0,0.25,0.0,1.0,1.0,0.0,0.0,0,0,0.0,0.0,0.0,0.02,1.9863007,0,nan,nan,3,0,10
1888000,0,473977508,85456073,488102,0,0.25,0.0,1.0,1.0,0.0,0.0,0,0,0.0,-0.01,0.0,-0.01,2.6903458,0,nan,nan,3,0,10
2088000,0,473977508,85456074,488107,0,0.25,0.0,1.0,1.0,0.0,0.0,0,0,0.0,0.0,-0.01,0.01,4.537199,0,nan,nan,3,0,10
2288000,0,473977508,85456074,488105,0,0.25,0.0,1.0,1.0,0.0,0.0,0,0,0.0,0.0,0.0,0.0,1.0094687,0,nan,nan,3,0,10
2488000,0,473977508,85456073,488101,0,0.25,0.0,1.0,1.0,0.0,0.0,0,0,0.0,0.01,0.0,0.01,5.717181,0,nan,nan,3,0,10
2688000,0,473977508,85456074,488108,0,0.25,0.0,1.0,1.0,0.0,0.0,0,0,0.0,-0.01,0.02,0.0,2.163621,0,nan,nan,3,0,10
2888000,0,473977508,85456074,488104,0,0.25,0.0,1.0,1.0,0.0,0.0,0,0,0.0,0.0,0.0,-0.01,1.1504872,0,nan,nan,3,0,10
3088000,0,473977508,85456074,488101,0,0.25,0.0,1.0,1.0,0.0,0.0,0,0,0.0,0.02,0.0,0.0,5.964138,0,nan,nan,3,0,10
3288000,0,473977508,85456074,488101,0,0.25,0.0,1.0,1.0,0.0,0.0,0,0,0.0,0.0,0.0,0.02,3.926526,0,nan,nan,3,0,10
3488000,0,473977507,85456074,488101,0,0.25,0.0,1.0,1.0,0.0,0.0,0,0,0.0,0.0,0.01,0.01,1.812471,0,nan,nan,3,0,10
3688000,0,473977508,85456074,488111,0,0.25,0.0,1.0,1.0,0.0,0.0,0,0,0.0,0.0,-0.01,0.01,4.8251696,0,nan,nan,3,0,10
3888000,0,473977508,85456074,488100,0,0.25,0.0,1.0,1.0,0.0,0.0,0,0,0.0,0.0,-0.01,0.03,4.2425957,0,nan,nan,3,0,10
4092000,0,473977507,85456074,488106,0,0.25,0.0,1.0,1.0,0.0,0.0,0,0,0.0,0.01,0.0,0.04,5.705313,0,nan,nan,3,0,10
4292000,0,473977508,85456074,488111,0,0.25,0.0,1.0,1.0,0.0,0.0,0,0,0.0,0.0,0.0,-0.02,6.1098685,0,nan,nan,3,0,10
4492000,0,473977508,85456074,488105,0,0.25,0.0,1.0,1.0,0.0,0.0,0,0,0.0,0.0,0.0,0.03,4.789217,0,nan,nan,3,0,10
4692000,0,473977508,85456074,488101,0,0.25,0.0,1.0,1.0,0.0,0.0,0,0,0.0,-0.01,0.0,-0.04,3.4189992,0,nan,nan,3,0,10
4892000,0,473977508,85456074,488110,0,0.25,0.0,1.0,1.0,0.0,0.0,0,0,0.0,0.0,0.0,-0.06,5.398668,0,nan,nan,3,0,10
5192000,0,473977508,85456074,488100,0,0.25,0.0,1.0,1.0,0.0,0.0,0,0,0.0,0.0,0.02,-0.03,1.2559019,0,nan,nan,3,0,10
5392000,0,473977508,85456075,488099,0,0.25,0.0,1.0,1.0,0.0,0.0,0,0,0.0,0.01,0.0,0.0,0.2658058,0,nan,nan,3,0,10
5592000,0,473977508,85456075,488094,0,0.25,0.0,1.0,1.0,0.0,0.0,0,0,0.0,0.01,0.0,-0.01,5.7372518,0,nan,nan,3,0,10
5792000,0,473977508,85456075,488099,0,0.25,0.0,1.0,1.0,0.0,0.0,0,0,0.0,0.0,0.01,-0.01,1.5063493,0,nan,nan,3,0,10
5992000,0,473977508,85456074,488095,0,0.25,0.0,1.0,1.0,0.0,0.0,0,0,0.0,0.0,0.0,-0.02,0.65552634,0,nan,nan,3,0,10
6192000,0,473977508,85456074,488099,0,0.25,0.0,1.0,1.0,0.0,0.0,0,0,0.0,-0.01,0.0,0.01,3.1816416,0,nan,nan,3,0,10
6392000,0,473977508,85456074,488102,0,0.25,0.0,1.0,1.0,0.0,0.0,0,0,0.0,0.0,0.0,0.01,3.8945875,0,nan,nan,3,0,10
6592000,0,473977508,85456074,488109,0,0.25,0.0,1.0,1.0,0.0,0.0,0,0,0.0,0.03,-0.01,0.0,5.8212,0,nan,nan,3,0,10
6792000,0,473977508,85456074,488107,0,0.25,0.0,1.0,1.0,0.0,0.0,0,0,0.0,0.0,0.01,0.01,0.9932376,0,nan,nan,3,0,10
6992000,0,473977508,85456074,488105,0,0.25,0.0,1.0,1.0,0.0,0.0,0,0,0.0,0.01,-0.01,-0.03,5.3943048,0,nan,nan,3,0,10
7192000,0,473977508,85456074,488106,0,0.25,0.0,1.0,1.0,0.0,0.0,0,0,0.0,0.02,0.0,-0.01,6.049482,0,nan,nan,3,0,10
7392000,0,473977508,85456074,488106,0,0.25,0.0,1.0,1.0,0.0,0.0,0,0,0.0,0.0,0.0,-0.02,6.204637,0,nan,nan,3,0,10
7592000,0,473977508,85456074,488103,0,0.25,0.0,1.0,1.0,0.0,0.0,0,0,0.0,-0.02,0.0,-0.02,3.0305004,0,nan,nan,3,0,10
7792000,0,473977508,85456074,488102,0,0.25,0.0,1.0,1.0,0.0,0.0,0,0,0.0,-0.02,0.0,0.04,2.8851187,0,nan,nan,3,0,10
7992000,0,473977507,85456074,488109,0,0.25,0.0,1.0,1.0,0.0,0.0,0,0,0.0,0.0,0.0,0.04,5.7924027,0,nan,nan,3,0,10
8192000,0,473977508,85456074,488104,0,0.25,0.0,1.0,1.0,0.0,0.0,0,0,0.0,0.0,0.0,-0.01,2.8907037,0,nan,nan,3,0,10
8396000,0,473977508,85456074,488100,0,0.25,0.0,1.0,1.0,0.0,0.0,0,0,0.0,-0.01,0.0,0.0,2.725426,0,nan,nan,3,0,10
8596000,0,473977508,85456074,488103,0,0.25,0.0,1.0,1.0,0.0,0.0,0,0,0.0,0.0,0.0,0.0,0.6928753,0,nan,nan,3,0,10
8796000,0,473977508,85456074,488108,0,0.25,0.0,1.0,1.0,0.0,0.0,0,0,0.0,0.0,0.01,0.0,1.9859517,0,nan,nan,3,0,10
8996000,0,473977508,85456074,488109,0,0.25,0.0,1.0,1.0,0.0,0.0,0,0,0.0,0.0,-0.02,0.01,4.34644,0,nan,nan,3,0,10
9196000,0,473977508,85456075,488100,0,0.25,0.0,1.0,1.0,0.0,0.0,0,0,0.0,0.0,0.0,0.01,3.3305137,0,nan,nan,3,0,10
9396000,0,473977508,85456074,488108,0,0.25,0.0,1.0,1.0,0.0,0.0,0,0,0.0,0.0,-0.02,-0.01,4.84908,0,nan,nan,3,0,10
9596000,0,473977508,85456074,488092,0,0.25,0.0,1.0,1.0,0.0,0.0,0,0,0.0,0.0,0.01,-0.07,1.6988535,0,nan,nan,3,0,10
9796000,0,473977508,85456074,488095,0,0.25,0.0,1.0,1.0,0.0,0.0,0,0,0.0,0.0,0.03,0.0,1.4951795,0,nan,nan,3,0,10
9996000,0,473977508,85456075,488094,0,0.25,0.0,1.0,1.0,0.0,0.0,0,0,0.0,-0.01,0.0,-0.01,3.6102817,0,nan,nan,3,0,10
10196000,0,473977508,85456074,488084,0,0.25,0.0,1.0,1.0,0.0,0.0,0,0,0.0,0.0,0.01,0.02,1.2665482,0,nan,nan,3,0,10
10496000,0,473977508,85456074,488097,0,0.25,0.0,1.0,1.0,0.0,0.0,0,0,0.0,0.0,0.0,0.02,0.47139955,0,nan,nan,3,0,10
10696000,0,473977508,85456074,488103,0,0.25,0.0,1.0,1.0,0.0,0.0,0,0,0.0,0.01,-0.01,0.0,5.5211864,0,nan,nan,3,0,10
10896000,0,473977508,85456074,488097,0,0.25,0.0,1.0,1.0,0.0,0.0,0,0,0.0,0.0,0.0,-0.01,1.3867978,0,nan,nan,3,0,10
11096000,0,473977508,85456074,488103,0,0.25,0.0,1.0,1.0,0.0,0.0,0,0,0.0,0.0,-0.01,0.0,5.052056,0,nan,nan,3,0,10
11296000,0,473977508,85456074,488114,0,0.25,0.0,1.0,1.0,0.0,0.0,0,0,0.0,-0.01,0.0,-0.04,3.4685652,0,nan,nan,3,0,10
11496000,0,473977508,85456074,488112,0,0.25,0.0,1.0,1.0,0.0,0.0,0,0,0.0,0.01,0.0,0.0,5.920157,0,nan,nan,3,0,10
11696000,0,473977507,85456074,488109,0,0.25,0.0,1.0,1.0,0.0,0.0,0,0,0.0,-0.01,0.0,0.02,2.5407755,0,nan,nan,3,0,10
11896000,0,473977508,85456074,488115,0,0.25,0.0,1.0,1.0,0.0,0.0,0,0,0.0,0.0,-0.01,0.0,4.8298817,0,nan,nan,3,0,10
12096000,0,473977508,85456074,488100,0,0.25,0.0,1.0,1.0,0.0,0.0,0,0,0.0,0.0,0.0,0.02,4.0719075,0,nan,nan,3,0,10
12296000,0,473977508,85456074,488099,0,0.25,0.0,1.0,1.0,0.0,0.0,0,0,0.0,0.01,0.0,0.03,0.6099746,0,nan,nan,3,0,10
12496000,0,473977508,85456074,488103,0,0.25,0.0,1.0,1.0,0.0,0.0,0,0,0.0,0.0,0.0,0.01,1.7864664,0,nan,nan,3,0,10
12696000,0,473977508,85456074,488107,0,0.25,0.0,1.0,1.0,0.0,0.0,0,0,0.0,0.0,0.0,-0.03,2.7800531,0,nan,nan,3,0,10
12896000,0,473977508,85456074,488103,0,0.25,0.0,1.0,1.0,0.0,0.0,0,0,0.0,0.0,-0.01,0.01,4.896028,0,nan,nan,3,0,10
13096000,0,473977507,85456074,488101,0,0.25,0.0,1.0,1.0,0.0,0.0,0,0,0.0,0.01,0.01,-0.01,0.84558713,0,nan,nan,3,0,10
13296000,0,473977508,85456074,488105,0,0.25,0.0,1.0,1.0,0.0,0.0,0,0,0.0,0.0,0.01,0.01,1.14019,0,nan,nan,3,0,10
13496000,0,473977508,85456074,488104,0,0.25,0.0,1.0,1.0,0.0,0.0,0,0,0.0,0.0,0.0,0.0,0.8946294,0,nan,nan,3,0,10
13696000,0,473977508,85456074,488106,0,0.25,0.0,1.0,1.0,0.0,0.0,0,0,0.0,0.01,-0.01,0.02,5.556441,0,nan,nan,3,0,10
13896000,0,473977508,85456073,488100,0,0.25,0.0,1.0,1.0,0.0,0.0,0,0,0.0,0.02,-0.02,0.02,5.416295,0,nan,nan,3,0,10
14096000,0,473977508,85456074,488107,0,0.25,0.0,1.0,1.0,0.0,0.0,0,0,0.0,0.0,0.0,0.01,2.4847522,0,nan,nan,3,0,10
14296000,0,473977508,85456073,488104,0,0.25,0.0,1.0,1.0,0.0,0.0,0,0,0.0,0.0,-0.01,0.01,4.9258723,0,nan,nan,3,0,10
14496000,0,473977508,85456074,488103,0,0.25,0.0,1.0,1.0,0.0,0.0,0,0,0.0,0.0,0.0,0.0,1.0606053,0,nan,nan,3,0,10
14696000,0,473977508,85456074,488101,0,0.25,0.0,1.0,1.0,0.0,0.0,0,0,0.0,0.02,0.0,0.0,0.10401856,0,nan,nan,3,0,10
14896000,0,473977508,85456074,488105,0,0.25,0.0,1.0,1.0,0.0,0.0,0,0,0.0,0.03,0.01,-0.01,0.42183366,0,nan,nan,3,0,10
15096000,0,473977508,85456074,488109,0,0.25,0.0,1.0,1.0,0.0,0.0,0,0,0.0,0.0,-0.01,0.02,4.4234066,0,nan,nan,3,0,10
15296000,0,473977508,85456074,488113,0,0.25,0.0,1.0,1.0,0.0,0.0,0,0,0.0,0.01,0.0,-0.02,6.198529,0,nan,nan,3,0,10
15596000,0,473977508,85456074,488103,0,0.25,0.0,1.0,1.0,0.0,0.0,0,0,0.0,0.01,-0.01,0.0,5.496229,0,nan,nan,3,0,10
15796000,0,473977508,85456074,488102,0,0.25,0.0,1.0,1.0,0.0,0.0,0,0,0.0,-0.01,-0.01,0.02,3.7598522,0,nan,nan,3,0,10
15996000,0,473977508,85456074,488100,0,0.25,0.0,1.0,1.0,0.0,0.0,0,0,0.0,0.0,0.03,0.04,1.4618447,0,nan,nan,3,0,10
16196000,0,473977508,85456074,488103,0,0.25,0.0,1.0,1.0,0.0,0.0,0,0,0.0,0.0,-0.01,-0.02,5.250494,0,nan,nan,3,0,10
16400000,0,473977508,85456074,488099,0,0.25,0.0,1.0,1.0,0.0,0.0,0,0,0.0,0.0,0.0,0.01,3.7992954,0,nan,nan,3,0,10
16600000,0,473977508,85456074,488106,0,0.25,0.0,1.0,1.0,0.0,0.0,0,0,0.0,0.0,0.0,0.0,4.798641,0,nan,nan,3,0,10
16800000,0,473977508,85456074,488109,0,0.25,0.0,1.0,1.0,0.0,0.0,0,0,0.0,0.02,-0.03,0.01,5.443696,0,nan,nan,3,0,10
17000000,0,473977508,85456074,488105,0,0.25,0.0,1.0,1.0,0.0,0.0,0,0,0.0,0.0,0.0,0.0,5.439333,0,nan,nan,3,0,10
17200000,0,473977508,85456074,488107,0,0.25,0.0,1.0,1.0,0.0,0.0,0,0,0.0,0.0,0.0,-0.03,3.7130785,0,nan,nan,3,0,10
17400000,0,473977508,85456074,488103,0,0.25,0.0,1.0,1.0,0.0,0.0,0,0,0.0,-0.01,0.0,0.0,3.54623,0,nan,nan,3,0,10
17600000,0,473977508,85456074,488104,0,0.25,0.0,1.0,1.0,0.0,0.0,0,0,0.0,0.01,0.0,0.0,6.1240053,0,nan,nan,3,0,10
17800000,0,473977508,85456074,488095,0,0.25,0.0,1.0,1.0,0.0,0.0,0,0,0.0,0.0,0.0,0.01,0.9333746,0,nan,nan,3,0,10
18000000,0,473977508,85456074,488101,0,0.25,0.0,1.0,1.0,0.0,0.0,0,0,0.0,0.0,0.0,0.0,0.47680992,0,nan,nan,3,0,10
18200000,0,473977508,85456073,488097,0,0.25,0.0,1.0,1.0,0.0,0.0,0,0,0.0,0.02,0.0,0.02,6.0416284,0,nan,nan,3,0,10
18400000,0,473977507,85456073,488095,0,0.25,0.0,1.0,1.0,0.0,0.0,0,0,0.0,0.01,-0.02,0.0,5.1860933,0,nan,nan,3,0,10
18600000,0,473977508,85456074,488097,0,0.25,0.0,1.0,1.0,0.0,0.0,0,0,0.0,0.02,0.01,0.0,0.4096167,0,nan,nan,3,0,10
18800000,0,473977508,85456074,488102,0,0.25,0.0,1.0,1.0,0.0,0.0,0,0,0.0,-0.02,0.0,0.01,3.0547597,0,nan,nan,3,0,10
19000000,0,473977507,85456074,488111,0,0.25,0.0,1.0,1.0,0.0,0.0,0,0,0.0,0.01,0.01,0.02,0.49356458,0,nan,nan,3,0,10
19200000,0,473977508,85456074,488106,0,0.25,0.0,1.0,1.0,0.0,0.0,0,0,0.0,0.0,0.03,0.03,1.4173402,0,nan,nan,3,0,10
19400000,0,473977508,85456074,488109,0,0.25,0.0,1.0,1.0,0.0,0.0,0,0,0.0,0.01,0.0,0.01,6.2142363,0,nan,nan,3,0,10
19600000,0,473977508,85456074,488099,0,0.25,0.0,1.0,1.0,0.0,0.0,0,0,0.0,0.02,0.0,0.02,6.27026,0,nan,nan,3,0,10
19800000,0,473977508,85456074,488106,0,0.25,0.0,1.0,1.0,0.0,0.0,0,0,0.0,0.0,0.0,0.0,5.1075554,0,nan,nan,3,0,10
20000000,0,473977508,85456074,488110,0,0.25,0.0,1.0,1.0,0.0,0.0,0,0,0.0,0.01,0.0,-0.03,0.116933614,0,nan,nan,3,0,10
20200000,0,473977508,85456074,488111,0,0.25,0.0,1.0,1.0,0.0,0.0,0,0,0.0,0.0,0.0,-0.01,1.0848647,0,nan,nan,3,0,10
20400000,0,473977508,85456074,488099,0,0.25,0.0,1.0,1.0,0.0,0.0,0,0,0.0,0.0,0.0,0.02,0.17505136,0,nan,nan,3,0,10
20700000,0,473977508,85456074,488104,0,0.25,0.0,1.0,1.0,0.0,0.0,0,0,0.0,0.0,0.01,0.0,1.1838219,0,nan,nan,3,0,10
20900000,0,473977508,85456074,488107,0,0.25,0.0,1.0,1.0,0.0,0.0,0,0,0.0,0.01,-0.01,0.0,5.6777377,0,nan,nan,3,0,10
21100000,0,473977508,85456075,488108,0,0.25,0.0,1.0,1.0,0.0,0.0,0,0,0.0,0.01,0.0,0.0,5.7060113,0,nan,nan,3,0,10
21300000,0,473977508,85456074,488113,0,0.25,0.0,1.0,1.0,0.0,0.0,0,0,0.0,0.01,0.01,-0.03,0.52794653,0,nan,nan,3,0,10
21500000,0,473977508,85456075,488115,0,0.25,0.0,1.0,1.0,0.0,0.0,0,0,0.0,0.0,0.0,0.0,0.7984646,0,nan,nan,3,0,10
21700000,0,473977508,85456075,488103,0,0.25,0.0,1.0,1.0,0.0,0.0,0,0,0.0,0.0,0.0,-0.03,0.35341877,0,nan,nan,3,0,10
21900000,0,473977508,85456075,488103,0,0.25,0.0,1.0,1.0,0.0,0.0,0,0,0.0,0.0,0.0,-0.01,2.6756854,0,nan,nan,3,0,10
22100000,0,473977508,85456074,488099,0,0.25,0.0,1.0,1.0,0.0,0.0,0,0,0.0,0.0,0.0,0.0,4.0253086,0,nan,nan,3,0,10
22300000,0,473977508,85456074,488102,0,0.25,0.0,1.0,1.0,0.0,0.0,0,0,0.0,0.0,0.0,0.01,4.3811707,0,nan,nan,3,0,10
22500000,0,473977508,85456074,488097,0,0.25,0.0,1.0,1.0,0.0,0.0,0,0,0.0,0.0,0.0,-0.02,0.6616348,0,nan,nan,3,0,10
22700000,0,473977508,85456074,488109,0,0.25,0.0,1.0,1.0,0.0,0.0,0,0,0.0,0.01,0.0,0.03,6.0426755,0,nan,nan,3,0,10
22900000,0,473977508,85456074,488110,0,0.25,0.0,1.0,1.0,0.0,0.0,0,0,0.0,0.03,0.0,0.02,6.1868353,0,nan,nan,3,0,10
23100000,0,473977508,85456074,488102,0,0.25,0.0,1.0,1.0,0.0,0.0,0,0,0.0,0.0,0.0,-0.01,2.2510593,0,nan,nan,3,0,10
23300000,0,473977508,85456073,488103,0,0.25,0.0,1.0,1.0,0.0,0.0,0,0,0.0,0.0,0.01,0.01,1.1302419,0,nan,nan,3,0,10
23500000,0,473977508,85456073,488106,0,0.25,0.0,1.0,1.0,0.0,0.0,0,0,0.0,0.0,-0.01,-0.03,4.098436,0,nan,nan,3,0,10
23700000,0,473977507,85456073,488108,0,0.25,0.0,1.0,1.0,0.0,0.0,0,0,0.0,0.02,0.0,0.0,0.09407048,0,nan,nan,3,0,10
23900000,0,473977508,85456074,488109,0,0.25,0.0,1.0,1.0,0.0,0.0,0,0,0.0,-0.01,0.0,-0.02,2.6547422,0,nan,nan,3,0,10
24100000,0,473977508,85456074,488105,0,0.25,0.0,1.0,1.0,0.0,0.0,0,0,0.0,-0.01,0.0,-0.02,3.3102684,0,nan,nan,3,0,10
24300000,0,473977508,85456074,488100,0,0.25,0.0,1.0,1.0,0.0,0.0,0,0,0.0,-0.01,-0.02,-0.04,4.154285,0,nan,nan,3,0,10
24500000,0,473977508,85456074,488096,0,0.25,0.0,1.0,1.0,0.0,0.0,0,0,0.0,0.0,0.01,0.0,1.3988402,0,nan,nan,3,0,10
24700000,0,473977508,85456074,488097,0,0.25,0.0,1.0,1.0,0.0,0.0,0,0,0.0,-0.02,-0.03,0.02,4.190412,0,nan,nan,3,0,10
24900000,0,473977508,85456074,488091,0,0.25,0.0,1.0,1.0,0.0,0.0,0,0,0.0,0.01,0.0,0.04,6.255774,0,nan,nan,3,0,10
25100000,0,473977508,85456074,488105,0,0.25,0.0,1.0,1.0,0.0,0.0,0,0,0.0,0.01,0.0,0.01,5.812997,0,nan,nan,3,0,10
25300000,0,473977508,85456074,488099,0,0.25,0.0,1.0,1.0,0.0,0.0,0,0,0.0,0.01,-0.03,0.01,5.11698,0,nan,nan,3,0,10
25500000,0,473977508,85456074,488102,0,0.25,0.0,1.0,1.0,0.0,0.0,0,0,0.0,0.0,0.0,0.0,5.236881,0,nan,nan,3,0,10
25700000,0,473977508,85456073,488102,0,0.25,0.0,1.0,1.0,0.0,0.0,0,0,0.0,0.0,0.01,-0.01,1.1932465,0,nan,nan,3,0,10
26000000,0,473977508,85456074,488097,0,0.25,0.0,1.0,1.0,0.0,0.0,0,0,0.0,-0.01,0.0,0.049999997,2.6486337,0,nan,nan,3,0,10
26200000,0,473977508,85456074,488093,0,0.25,0.0,1.0,1.0,0.0,0.0,0,0,0.0,0.0,0.01,0.01,1.9512206,0,nan,nan,3,0,10
26400000,0,473977508,85456074,488105,0,0.25,0.0,1.0,1.0,0.0,0.0,0,0,0.0,0.01,0.0,-0.04,0.03717442,0,nan,nan,3,0,10
26600000,0,473977508,85456074,488106,0,0.25,0.0,1.0,1.0,0.0,0.0,0,0,0.0,0.0,0.02,-0.03,1.3812128,0,nan,nan,3,0,10
26800000,0,473977508,85456075,488103,0,0.25,0.0,1.0,1.0,0.0,0.0,0,0,0.0,0.0,0.0,0.01,5.502163,0,nan,nan,3,0,10
27000000,0,473977508,85456074,488107,0,0.25,0.0,1.0,1.0,0.0,0.0,0,0,0.0,0.0,0.01,-0.01,0.82987964,0,nan,nan,3,0,10
27200000,0,473977508,85456074,488097,0,0.25,0.0,1.0,1.0,0.0,0.0,0,0,0.0,-0.01,0.01,-0.01,2.63153,0,nan,nan,3,0,10
27400000,0,473977508,85456074,488095,0,0.25,0.0,1.0,1.0,0.0,0.0,0,0,0.0,0.01,-0.01,0.01,5.3979697,0,nan,nan,3,0,10
27600000,0,473977508,85456074,488094,0,0.25,0.0,1.0,1.0,0.0,0.0,0,0,0.0,-0.02,0.0,0.02,3.4074805,0,nan,nan,3,0,10
27800000,0,473977508,85456074,488105,0,0.25,0.0,1.0,1.0,0.0,0.0,0,0,0.0,0.01,-0.01,-0.01,5.57529,0,nan,nan,3,0,10
28000000,0,473977508,85456074,488107,0,0.25,0.0,1.0,1.0,0.0,0.0,0,0,0.0,0.0,-0.01,0.0,4.968282,0,nan,nan,3,0,10
28200000,0,473977508,85456074,488111,0,0.25,0.0,1.0,1.0,0.0,0.0,0,0,0.0,0.0,0.0,0.0,4.6598916,0,nan,nan,3,0,10
28400000,0,473977508,85456074,488100,0,0.25,0.0,1.0,1.0,0.0,0.0,0,0,0.0,-0.01,0.0,0.03,2.9547553,0,nan,nan,3,0,10
28600000,0,473977508,85456074,488101,0,0.25,0.0,1.0,1.0,0.0,0.0,0,0,0.0,0.02,0.02,0.01,0.83371925,0,nan,nan,3,0,10
28800000,0,473977508,85456074,488102,0,0.25,0.0,1.0,1.0,0.0,0.0,0,0,0.0,0.0,0.0,0.0,5.6293936,0,nan,nan,3,0,10
29000000,0,473977508,85456074,488098,0,0.25,0.0,1.0,1.0,0.0,0.0,0,0,0.0,0.0,0.0,0.06,3.6128995,0,nan,nan,3,0,10
29200000,0,473977508,85456074,488109,0,0.25,0.0,1.0,1.0,0.0,0.0,0,0,0.0,0.0,0.0,-0.01,3.1076417,0,nan,nan,3,0,10
29400000,0,473977508,85456074,488105,0,0.25,0.0,1.0,1.0,0.0,0.0,0,0,0.0,-0.02,0.0,0.0,3.337844,0,nan,nan,3,0,10
29600000,0,473977508,85456074,488100,0,0.25,0.0,1.0,1.0,0.0,0.0,0,0,0.0,0.0,0.01,0.03,1.0140064,0,nan,nan,3,0,10
29800000,0,473977507,85456073,488102,0,0.25,0.0,1.0,1.0,0.0,0.0,0,0,0.0,-0.01,-0.02,0.02,4.296525,0,nan,nan,3,0,10
30000000,0,473977508,85456073,488101,0,0.25,0.0,1.0,1.0,0.0,0.0,0,0,0.0,0.0,0.02,-0.01,1.3183829,0,nan,nan,3,0,10
30200000,0,473977508,85456074,488108,0,0.25,0.0,1.0,1.0,0.0,0.0,0,0,0.0,0.0,0.0,-0.01,5.2089562,0,nan,nan,3,0,10
30400000,0,473977508,85456074,488093,0,0.25,0.0,1.0,1.0,0.0,0.0,0,0,0.0,0.01,0.0,-0.03,5.7709355,0,nan,nan,3,0,10
30600000,0,473977508,85456074,488100,0,0.25,0.0,1.0,1.0,0.0,0.0,0,0,0.0,0.0,0.0,0.02,1.2435105,0,nan,nan,3,0,10
30900000,0,473977508,85456074,488108,0,0.25,0.0,1.0,1.0,0.0,0.0,0,0,0.0,0.0,-0.01,0.07,4.261445,0,nan,nan,3,0,10
31100000,0,473977508,85456074,488105,0,0.25,0.0,1.0,1.0,0.0,0.0,0,0,0.0,0.0,0.0,0.0,2.1571634,0,nan,nan,3,0,10
31300000,0,473977508,85456074,488102,0,0.25,0.0,1.0,1.0,0.0,0.0,0,0,0.0,0.0,-0.02,-0.01,4.3967037,0,nan,nan,3,0,10
31500000,0,473977508,85456074,488100,0,0.25,0.0,1.0,1.0,0.0,0.0,0,0,0.0,0.0,0.01,0.01,1.9958998,0,nan,nan,3,0,10
31700000,0,473977508,85456074,488104,0,0.25,0.0,1.0,1.0,0.0,0.0,0,0,0.0,0.02,0.0,-0.01,0.026179168,0,nan,nan,3,0,10
31900000,0,473977508,85456074,488110,0,0.25,0.0,1.0,1.0,0.0,0.0,0,0,0.0,0.0,0.0,0.0,5.3817387,0,nan,nan,3,0,10
32108000,0,473977508,85456074,488105,0,0.25,0.0,1.0,1.0,0.0,0.0,0,0,0.0,-0.01,0.02,0.01,2.1086447,0,nan,nan,3,0,10
32312000,0,473977508,85456074,488112,0,0.25,0.0,1.0,1.0,0.0,0.0,0,0,0.0,0.01,-0.01,0.02,5.3094845,0,nan,nan,3,0,10
32516000,0,473977507,85456074,488101,0,0.25,0.0,1.0,1.0,0.0,0.0,0,0,0.0,-0.01,0.0,0.049999997,3.6286073,0,nan,nan,3,0,10
32724000,0,473977508,85456074,488090,0,0.25,0.0,1.0,1.0,0.0,0.0,0,0,0.0,-0.01,-0.01,0.0,3.7074938,0,nan,nan,3,0,10
32928000,0,473977508,85456075,488092,0,0.25,0.0,1.0,1.0,0.0,0.0,0,0,0.0,0.0,0.0,0.02,5.8674498,0,nan,nan,3,0,10
33132000,0,473977508,85456075,488097,0,0.25,0.0,1.0,1.0,0.0,0.0,0,0,0.0,0.01,0.02,0.02,1.1403645,0,nan,nan,3,0,10
33336000,0,473977508,85456074,488094,0,0.25,0.0,1.0,1.0,0.0,0.0,0,0,0.0,0.0,0.0,0.01,4.0429363,0,nan,nan,3,0,10
33544000,0,473977508,85456074,488097,0,0.25,0.0,1.0,1.0,0.0,0.0,0,0,0.0,-0.01,0.02,0.0,2.1320314,0,nan,nan,3,0,10
33744000,0,473977508,85456074,488090,0,0.25,0.0,1.0,1.0,0.0,0.0,0,0,0.0,0.0,0.0,-0.03,3.684107,0,nan,nan,3,0,10
33944000,0,473977508,85456074,488091,0,0.25,0.0,1.0,1.0,0.0,0.0,0,0,0.0,0.0,0.01,-0.049999997,1.623981,0,nan,nan,3,0,10
34144000,0,473977508,85456075,488113,0,0.25,0.0,1.0,1.0,0.0,0.0,0,0,0.0,0.0,0.0,-0.01,0.226188,0,nan,nan,3,0,10
34344000,0,473977508,85456075,488114,0,0.25,0.0,1.0,1.0,0.0,0.0,0,0,0.0,0.0,-0.01,0.0,4.430039,0,nan,nan,3,0,10
34544000,0,473977508,85456074,488104,0,0.25,0.0,1.0,1.0,0.0,0.0,0,0,0.0,0.0,0.02,-0.04,1.812471,0,nan,nan,3,0,10
34744000,0,473977508,85456074,488089,0,0.25,0.0,1.0,1.0,0.0,0.0,0,0,0.0,0.0,0.0,0.0,4.9759617,0,nan,nan,3,0,10
34944000,0,473977508,85456075,488093,0,0.25,0.0,1.0,1.0,0.0,0.0,0,0,0.0,0.0,0.0,-0.01,3.0811136,0,nan,nan,3,0,10
35144000,0,473977508,85456074,488102,0,0.25,0.0,1.0,1.0,0.0,0.0,0,0,0.0,0.01,0.02,-0.01,0.98992157,0,nan,nan,3,0,10
35344000,0,473977508,85456074,488100,0,0.25,0.0,1.0,1.0,0.0,0.0,0,0,0.0,0.0,0.01,-0.049999997,1.8374286,0,nan,nan,3,0,10
35544000,0,473977508,85456074,488098,0,0.25,0.0,1.0,1.0,0.0,0.0,0,0,0.0,0.0,0.01,0.02,1.0810251,0,nan,nan,3,0,10
35744000,0,473977508,85456074,488104,0,0.25,0.0,1.0,1.0,0.0,0.0,0,0,0.0,0.0,0.0,0.0,2.4889407,0,nan,nan,3,0,10
35944000,0,473977508,85456074,488111,0,0.25,0.0,1.0,1.0,0.0,0.0,0,0,0.0,0.0,-0.01,0.0,4.6918306,0,nan,nan,3,0,10
36144000,0,473977508,85456074,488112,0,0.25,0.0,1.0,1.0,0.0,0.0,0,0,0.0,0.0,-0.02,0.0,4.5429583,0,nan,nan,3,0,10
36344000,0,473977508,85456074,488101,0,0.25,0.0,1.0,1.0,0.0,0.0,0,0,0.0,-0.01,0.0,-0.049999997,3.4087021,0,nan,nan,3,0,10
36544000,0,473977508,85456074,488098,0,0.25,0.0,1.0,1.0,0.0,0.0,0,0,0.0,-0.01,0.02,0.01,2.1578615,0,nan,nan,3,0,10
36744000,0,473977507,85456073,488102,0,0.25,0.0,1.0,1.0,0.0,0.0,0,0,0.0,-0.01,0.0,0.0,2.7114637,0,nan,nan,3,0,10
36944000,0,473977508,85456074,488101,0,0.25,0.0,1.0,1.0,0.0,0.0,0,0,0.0,0.0,0.0,0.03,5.643356,0,nan,nan,3,0,10
37144000,0,473977508,85456074,488099,0,0.25,0.0,1.0,1.0,0.0,0.0,0,0,0.0,0.0,0.0,0.06,4.7649574,0,nan,nan,3,0,10
37344000,0,473977508,85456074,488098,0,0.25,0.0,1.0,1.0,0.0,0.0,0,0,0.0,0.0,0.01,-0.02,1.5143776,0,nan,nan,3,0,10
37544000,0,473977508,85456074,488102,0,0.25,0.0,1.0,1.0,0.0,0.0,0,0,0.0,0.0,-0.01,-0.03,4.7434907,0,nan,nan,3,0,10
37744000,0,473977508,85456074,488102,0,0.25,0.0,1.0,1.0,0.0,0.0,0,0,0.0,0.0,0.03,-0.049999997,1.8527869,0,nan,nan,3,0,10
37944000,0,473977508,85456074,488108,0,0.25,0.0,1.0,1.0,0.0,0.0,0,0,0.0,0.0,-0.01,-0.049999997,5.4272904,0,nan,nan,3,0,10
38144000,0,473977508,85456074,488108,0,0.25,0.0,1.0,1.0,0.0,0.0,0,0,0.0,0.01,-0.01,0.03,5.466734,0,nan,nan,3,0,10
38444000,0,473977508,85456074,488100,0,0.25,0.0,1.0,1.0,0.0,0.0,0,0,0.0,0.0,0.0,-0.03,5.386451,0,nan,nan,3,0,10
38644000,0,473977508,85456074,488108,0,0.25,0.0,1.0,1.0,0.0,0.0,0,0,0.0,0.0,0.0,0.02,3.1332972,0,nan,nan,3,0,10
38844000,0,473977508,85456075,488115,0,0.25,0.0,1.0,1.0,0.0,0.0,0,0,0.0,0.01,-0.01,0.08,5.339154,0,nan,nan,3,0,10
39044000,0,473977508,85456075,488108,0,0.25,0.0,1.0,1.0,0.0,0.0,0,0,0.0,0.0,0.0,0.0,3.3989286,0,nan,nan,3,0,10
39244000,0,473977508,85456074,488106,0,0.25,0.0,1.0,1.0,0.0,0.0,0,0,0.0,0.0,0.01,-0.03,1.680179,0,nan,nan,3,0,10
39444000,0,473977508,85456074,488104,0,0.25,0.0,1.0,1.0,0.0,0.0,0,0,0.0,0.0,0.01,0.03,1.1792842,0,nan,nan,3,0,10
39644000,0,473977508,85456074,488106,0,0.25,0.0,1.0,1.0,0.0,0.0,0,0,0.0,0.0,-0.01,-0.01,4.3410296,0,nan,nan,3,0,10
39844000,0,473977508,85456075,488105,0,0.25,0.0,1.0,1.0,0.0,0.0,0,0,0.0,0.02,-0.01,0.0,5.699554,0,nan,nan,3,0,10
40044000,0,473977508,85456074,488109,0,0.25,0.0,1.0,1.0,0.0,0.0,0,0,0.0,0.0,0.01,0.0,1.5292125,0,nan,nan,3,0,10
40244000,0,473977508,85456074,488101,0,0.25,0.0,1.0,1.0,0.0,0.0,0,0,0.0,0.0,0.01,0.04,1.1632277,0,nan,nan,3,0,10
40444000,0,473977508,85456074,488103,0,0.25,0.0,1.0,1.0,0.0,0.0,0,0,0.0,0.02,0.0,-0.04,0.25550866,0,nan,nan,3,0,10
40644000,0,473977508,85456074,488097,0,0.25,0.0,1.0,1.0,0.0,0.0,0,0,0.0,0.01,0.01,0.0,0.9112096,0,nan,nan,3,0,10
40844000,0,473977508,85456075,488096,0,0.25,0.0,1.0,1.0,0.0,0.0,0,0,0.0,0.01,0.0,0.0,0.4439987,0,nan,nan,3,0,10
41044000,0,473977508,85456074,488095,0,0.25,0.0,1.0,1.0,0.0,0.0,0,0,0.0,0.0,0.0,0.0,1.7766929,0,nan,nan,3,0,10
41244000,0,473977508,85456074,488099,0,0.25,0.0,1.0,1.0,0.0,0.0,0,0,0.0,0.01,0.02,-0.01,0.8553607,0,nan,nan,3,0,10
41444000,0,473977508,85456073,488097,0,0.25,0.0,1.0,1.0,0.0,0.0,0,0,0.0,0.0,0.0,-0.02,2.7620766,0,nan,nan,3,0,10
41644000,0,473977508,85456074,488113,0,0.25,0.0,1.0,1.0,0.0,0.0,0,0,0.0,-0.01,0.02,0.0,2.1407578,0,nan,nan,3,0,10
41844000,0,473977508,85456074,488108,0,0.25,0.0,1.0,1.0,0.0,0.0,0,0,0.0,0.0,0.0,0.0,1.0428035,0,nan,nan,3,0,10
42044000,0,473977508,85456074,488105,0,0.25,0.0,1.0,1.0,0.0,0.0,0,0,0.0,-0.01,0.0,-0.03,2.8130388,0,nan,nan,3,0,10
42244000,0,473977508,85456074,488102,0,0.25,0.0,1.0,1.0,0.0,0.0,0,0,0.0,0.02,0.0,0.03,5.9409256,0,nan,nan,3,0,10
42444000,0,473977508,85456074,488093,0,0.25,0.0,1.0,1.0,0.0,0.0,0,0,0.0,0.0,0.0,0.0,4.0661483,0,nan,nan,3,0,10
42644000,0,473977508,85456074,488106,0,0.25,0.0,1.0,1.0,0.0,0.0,0,0,0.0,0.01,0.0,0.0,5.726082,0,nan,nan,3,0,10
42844000,0,473977509,85456074,488109,0,0.25,0.0,1.0,1.0,0.0,0.0,0,0,0.0,0.0,0.0,-0.02,1.1436806,0,nan,nan,3,0,10
43044000,0,473977508,85456074,488107,0,0.25,0.0,1.0,1.0,0.0,0.0,0,0,0.0,0.0,0.0,-0.06,5.767096,0,nan,nan,3,0,10
43244000,0,473977508,85456074,488096,0,0.25,0.0,1.0,1.0,0.0,0.0,0,0,0.0,0.0,0.0,0.01,4.111351,0,nan,nan,3,0,10
43544000,0,473977508,85456074,488095,0,0.25,0.0,1.0,1.0,0.0,0.0,0,0,0.0,0.0,0.01,-0.04,0.86792666,0,nan,nan,3,0,10
43744000,0,473977508,85456075,488099,0,0.25,0.0,1.0,1.0,0.0,0.0,0,0,0.0,-0.01,0.0,-0.02,3.4793859,0,nan,nan,3,0,10
43944000,0,473977508,85456074,488097,0,0.25,0.0,1.0,1.0,0.0,0.0,0,0,0.0,0.01,0.01,0.0,0.8506484,0,nan,nan,3,0,10
44144000,0,473977508,85456074,488101,0,0.25,0.0,1.0,1.0,0.0,0.0,0,0,0.0,0.0,0.0,0.0,3.9748702,0,nan,nan,3,0,10
44344000,0,473977508,85456074,488103,0,0.25,0.0,1.0,1.0,0.0,0.0,0,0,0.0,-0.01,0.0,-0.04,3.2095659,0,nan,nan,3,0,10
44548000,0,473977508,85456074,488104,0,0.25,0.0,1.0,1.0,0.0,0.0,0,0,0.0,0.0,0.0,0.01,3.5411687,0,nan,nan,3,0,10
44748000,0,473977508,85456074,488104,0,0.25,0.0,1.0,1.0,0.0,0.0,0,0,0.0,0.0,-0.01,-0.01,5.1194234,0,nan,nan,3,0,10
44948000,0,473977508,85456074,488096,0,0.25,0.0,1.0,1.0,0.0,0.0,0,0,0.0,0.01,-0.01,0.01,5.4423,0,nan,nan,3,0,10
45148000,0,473977508,85456074,488097,0,0.25,0.0,1.0,1.0,0.0,0.0,0,0,0.0,0.0,0.02,-0.049999997,1.4347929,0,nan,nan,3,0,10
45348000,0,473977508,85456074,488107,0,0.25,0.0,1.0,1.0,0.0,0.0,0,0,0.0,0.0,0.01,0.0,1.435491,0,nan,nan,3,0,10
45548000,0,473977508,85456074,488102,0,0.25,0.0,1.0,1.0,0.0,0.0,0,0,0.0,0.0,0.01,0.04,1.2733548,0,nan,nan,3,0,10
45748000,0,473977508,85456074,488104,0,0.25,0.0,1.0,1.0,0.0,0.0,0,0,0.0,0.0,-0.01,0.0,5.1789374,0,nan,nan,3,0,10
45948000,0,473977508,85456074,488104,0,0.25,0.0,1.0,1.0,0.0,0.0,0,0,0.0,-0.02,0.0,0.03,3.5748527,0,nan,nan,3,0,10
46148000,0,473977508,85456074,488106,0,0.25,0.0,1.0,1.0,0.0,0.0,0,0,0.0,0.03,0.0,0.04,6.147043,0,nan,nan,3,0,10
46348000,0,473977508,85456074,488103,0,0.25,0.0,1.0,1.0,0.0,0.0,0,0,0.0,0.02,0.02,0.0,0.7970684,0,nan,nan,3,0,10
46548000,0,473977508,85456074,488106,0,0.25,0.0,1.0,1.0,0.0,0.0,0,0,0.0,0.0,0.0,0.0,0.6468,0,nan,nan,3,0,10
46748000,0,473977508,85456074,488105,0,0.25,0.0,1.0,1.0,0.0,0.0,0,0,0.0,0.0,0.0,0.02,5.597106,0,nan,nan,3,0,10
46948000,0,473977508,85456074,488105,0,0.25,0.0,1.0,1.0,0.0,0.0,0,0,0.0,0.0,0.0,0.049999997,5.8026996,0,nan,nan,3,0,10
47148000,0,473977508,85456074,488102,0,0.25,0.0,1.0,1.0,0.0,0.0,0,0,0.0,0.0,0.0,0.01,0.90545017,0,nan,nan,3,0,10
47348000,0,473977508,85456074,488108,0,0.25,0.0,1.0,1.0,0.0,0.0,0,0,0.0,0.0,-0.01,0.0,4.4677367,0,nan,nan,3,0,10
47548000,0,473977508,85456074,488110,0,0.25,0.0,1.0,1.0,0.0,0.0,0,0,0.0,-0.01,0.0,0.07,2.602733,0,nan,nan,3,0,10
47748000,0,473977508,85456074,488110,0,0.25,0.0,1.0,1.0,0.0,0.0,0,0,0.0,0.0,0.01,0.0,1.0860864,0,nan,nan,3,0,10
47948000,0,473977508,85456075,488108,0,0.25,0.0,1.0,1.0,0.0,0.0,0,0,0.0,-0.01,0.0,-0.04,3.5895128,0,nan,nan,3,0,10
48148000,0,473977508,85456075,488103,0,0.25,0.0,1.0,1.0,0.0,0.0,0,0,0.0,0.0,-0.01,-0.07,5.175447,0,nan,nan,3,0,10
48348000,0,473977507,85456075,488094,0,0.25,0.0,1.0,1.0,0.0,0.0,0,0,0.0,-0.02,-0.01,0.0,3.7233758,0,nan,nan,3,0,10
48548000,0,473977508,85456074,488094,0,0.25,0.0,1.0,1.0,0.0,0.0,0,0,0.0,-0.02,-0.01,0.01,3.728786,0,nan,nan,3,0,10
48848000,0,473977508,85456074,488095,0,0.25,0.0,1.0,1.0,0.0,0.0,0,0,0.0,0.01,0.0,-0.01,6.136746,0,nan,nan,3,0,10
49048000,0,473977508,85456074,488101,0,0.25,0.0,1.0,1.0,0.0,0.0,0,0,0.0,0.0,0.0,-0.03,5.5950117,0,nan,nan,3,0,10
49248000,0,473977508,85456074,488106,0,0.25,0.0,1.0,1.0,0.0,0.0,0,0,0.0,0.0,0.0,-0.02,0.36197063,0,nan,nan,3,0,10
49448000,0,473977508,85456074,488105,0,0.25,0.0,1.0,1.0,0.0,0.0,0,0,0.0,0.0,-0.01,0.02,4.9468155,0,nan,nan,3,0,10
49648000,0,473977508,85456075,488103,0,0.25,0.0,1.0,1.0,0.0,0.0,0,0,0.0,-0.01,0.0,0.04,3.4661217,0,nan,nan,3,0,10
49848000,0,473977508,85456075,488113,0,0.25,0.0,1.0,1.0,0.0,0.0,0,0,0.0,0.0,-0.01,0.02,5.05415,0,nan,nan,3,0,10
50048000,0,473977508,85456074,488105,0,0.25,0.0,1.0,1.0,0.0,0.0,0,0,0.0,0.0,-0.02,-0.02,4.4351,0,nan,nan,3,0,10
50248000,0,473977508,85456074,488112,0,0.25,0.0,1.0,1.0,0.0,0.0,0,0,0.0,0.0,0.0,-0.04,0.04188667,0,nan,nan,3,0,10
50448000,0,473977508,85456074,488111,0,0.25,0.0,1.0,1.0,0.0,0.0,0,0,0.0,-0.01,0.01,0.0,2.4309976,0,nan,nan,3,0,10
50648000,0,473977507,85456074,488107,0,0.25,0.0,1.0,1.0,0.0,0.0,0,0,0.0,-0.01,0.02,0.0,2.1037579,0,nan,nan,3,0,10
50848000,0,473977508,85456074,488103,0,0.25,0.0,1.0,1.0,0.0,0.0,0,0,0.0,0.0,0.01,-0.03,1.3079112,0,nan,nan,3,0,10
51048000,0,473977508,85456074,488108,0,0.25,0.0,1.0,1.0,0.0,0.0,0,0,0.0,-0.01,-0.01,0.02,3.9773138,0,nan,nan,3,0,10
51248000,0,473977508,85456074,488107,0,0.25,0.0,1.0,1.0,0.0,0.0,0,0,0.0,-0.02,-0.01,0.02,3.6584513,0,nan,nan,3,0,10
51448000,0,473977508,85456074,488110,0,0.25,0.0,1.0,1.0,0.0,0.0,0,0,0.0,0.01,0.0,-0.01,5.828879,0,nan,nan,3,0,10
51648000,0,473977508,85456074,488112,0,0.25,0.0,1.0,1.0,0.0,0.0,0,0,0.0,0.0,0.0,0.0,0.44260246,0,nan,nan,3,0,10
51848000,0,473977508,85456074,488117,0,0.25,0.0,1.0,1.0,0.0,0.0,0,0,0.0,0.0,-0.01,0.02,4.1916337,0,nan,nan,3,0,10
52048000,0,473977508,85456075,488110,0,0.25,0.0,1.0,1.0,0.0,0.0,0,0,0.0,0.0,0.01,-0.01,2.0904937,0,nan,nan,3,0,10
52248000,0,473977508,85456075,488113,0,0.25,0.0,1.0,1.0,0.0,0.0,0,0,0.0,0.01,0.0,0.0,5.910383,0,nan,nan,3,0,10
52448000,0,473977508,85456074,488117,0,0.25,0.0,1.0,1.0,0.0,0.0,0,0,0.0,-0.02,0.01,0.0,2.439375,0,nan,nan,3,0,10
52648000,0,473977508,85456074,488108,0,0.25,0.0,1.0,1.0,0.0,0.0,0,0,0.0,0.0,0.0,-0.02,2.5364122,0,nan,nan,3,0,10
52848000,0,473977508,85456074,488107,0,0.25,0.0,1.0,1.0,0.0,0.0,0,0,0.0,0.0,0.0,0.01,4.090408,0,nan,nan,3,0,10
53048000,0,473977508,85456074,488120,0,0.25,0.0,1.0,1.0,0.0,0.0,0,0,0.0,-0.01,0.01,0.02,2.4838793,0,nan,nan,3,0,10
53248000,0,473977508,85456074,488114,0,0.25,0.0,1.0,1.0,0.0,0.0,0,0,0.0,-0.02,0.01,0.04,2.6331007,0,nan,nan,3,0,10
53448000,0,473977508,85456074,488106,0,0.25,0.0,1.0,1.0,0.0,0.0,0,0,0.0,0.01,0.0,-0.049999997,5.9835105,0,nan,nan,3,0,10
53748000,0,473977508,85456074,488107,0,0.25,0.0,1.0,1.0,0.0,0.0,0,0,0.0,0.01,0.0,0.01,6.2460003,0,nan,nan,3,0,10
53948000,0,473977508,85456074,488107,0,0.25,0.0,1.0,1.0,0.0,0.0,0,0,0.0,0.01,0.0,0.03,0.16161273,0,nan,nan,3,0,10
54148000,0,473977508,85456074,488107,0,0.25,0.0,1.0,1.0,0.0,0.0,0,0,0.0,-0.01,0.0,-0.01,3.6336684,0,nan,nan,3,0,10
54348000,0,473977508,85456073,488110,0,0.25,0.0,1.0,1.0,0.0,0.0,0,0,0.0,0.0,0.01,0.0,1.9491262,0,nan,nan,3,0,10
54548000,0,473977508,85456075,488104,0,0.25,0.0,1.0,1.0,0.0,0.0,0,0,0.0,0.01,-0.01,0.0,5.3784227,0,nan,nan,3,0,10
54748000,0,473977508,85456075,488096,0,0.25,0.0,1.0,1.0,0.0,0.0,0,0,0.0,0.0,0.0,0.0,0.10227328,0,nan,nan,3,0,10
54948000,0,473977508,85456074,488100,0,0.25,0.0,1.0,1.0,0.0,0.0,0,0,0.0,-0.02,0.0,-0.03,3.2589574,0,nan,nan,3,0,10
55148000,0,473977508,85456074,488103,0,0.25,0.0,1.0,1.0,0.0,0.0,0,0,0.0,-0.01,0.0,0.02,3.4296455,0,nan,nan,3,0,10
55348000,0,473977508,85456074,488107,0,0.25,0.0,1.0,1.0,0.0,0.0,0,0,0.0,0.0,0.02,0.0,1.5730189,0,nan,nan,3,0,10
55548000,0,473977508,85456074,488116,0,0.25,0.0,1.0,1.0,0.0,0.0,0,0,0.0,-0.01,0.0,0.01,3.5615885,0,nan,nan,3,0,10
55748000,0,473977508,85456074,488110,0,0.25,0.0,1.0,1.0,0.0,0.0,0,0,0.0,0.0,0.0,0.01,2.353158,0,nan,nan,3,0,10
55948000,0,473977508,85456075,488105,0,0.25,0.0,1.0,1.0,0.0,0.0,0,0,0.0,-0.01,0.0,-0.01,3.1048493,0,nan,nan,3,0,10
56148000,0,473977508,85456074,488107,0,0.25,0.0,1.0,1.0,0.0,0.0,0,0,0.0,-0.01,0.0,0.02,2.713907,0,nan,nan,3,0,10
56348000,0,473977508,85456073,488102,0,0.25,0.0,1.0,1.0,0.0,0.0,0,0,0.0,0.0,0.01,0.0,1.1761427,0,nan,nan,3,0,10
56548000,0,473977508,85456073,488110,0,0.25,0.0,1.0,1.0,0.0,0.0,0,0,0.0,0.0,0.0,0.0,1.941098,0,nan,nan,3,0,10
56748000,0,473977508,85456074,488107,0,0.25,0.0,1.0,1.0,0.0,0.0,0,0,0.0,0.0,0.0,0.0,0.63597924,0,nan,nan,3,0,10
56948000,0,473977508,85456074,488099,0,0.25,0.0,1.0,1.0,0.0,0.0,0,0,0.0,-0.02,-0.01,-0.01,3.5361075,0,nan,nan,3,0,10
57148000,0,473977508,85456074,488098,0,0.25,0.0,1.0,1.0,0.0,0.0,0,0,0.0,0.02,0.0,0.0,6.2487926,0,nan,nan,3,0,10
57348000,0,473977508,85456074,488090,0,0.25,0.0,1.0,1.0,0.0,0.0,0,0,0.0,0.0,0.0,-0.01,2.343908,0,nan,nan,3,0,10
57548000,0,473977508,85456074,488097,0,0.25,0.0,1.0,1.0,0.0,0.0,0,0,0.0,-0.01,0.0,-0.01,2.8660953,0,nan,nan,3,0,10
57748000,0,473977508,85456074,488108,0,0.25,0.0,1.0,1.0,0.0,0.0,0,0,0.0,0.0,0.01,0.02,1.6074009,0,nan,nan,3,0,10
57948000,0,473977507,85456074,488100,0,0.25,0.0,1.0,1.0,0.0,0.0,0,0,0.0,-0.01,-0.01,0.0,3.9567194,0,nan,nan,3,0,10
58148000,0,473977508,85456074,488104,0,0.25,0.0,1.0,1.0,0.0,0.0,0,0,0.0,0.02,0.0,0.0,6.238845,0,nan,nan,3,0,10
58348000,0,473977507,85456074,488104,0,0.25,0.0,1.0,1.0,0.0,0.0,0,0,0.0,0.01,0.0,-0.01,0.48571083,0,nan,nan,3,0,10
58548000,0,473977508,85456074,488108,0,0.25,0.0,1.0,1.0,0.0,0.0,0,0,0.0,0.0,0.01,0.01,2.0679798,0,nan,nan,3,0,10
58748000,0,473977508,85456074,488108,0,0.25,0.0,1.0,1.0,0.0,0.0,0,0,0.0,0.0,0.0,0.0,2.9720337,0,nan,nan,3,0,10
59048000,0,473977508,85456074,488105,0,0.25,0.0,1.0,1.0,0.0,0.0,0,0,0.0,-0.02,0.0,-0.04,2.7371192,0,nan,nan,3,0,10
59248000,0,473977508,85456074,488102,0,0.25,0.0,1.0,1.0,0.0,0.0,0,0,0.0,0.0,0.02,-0.01,1.5229294,0,nan,nan,3,0,10
59448000,0,473977508,85456074,488106,0,0.25,0.0,1.0,1.0,0.0,0.0,0,0,0.0,0.0,0.0,0.0,3.8680594,0,nan,nan,3,0,10
59648000,0,473977508,85456074,488105,0,0.25,0.0,1.0,1.0,0.0,0.0,0,0,0.0,0.0,0.0,0.01,0.66809237,0,nan,nan,3,0,10
59848000,0,473977508,85456074,488100,0,0.25,0.0,1.0,1.0,0.0,0.0,0,0,0.0,0.01,-0.01,0.02,5.43113,0,nan,nan,3,0,10
60048000,0,473977508,85456074,488115,0,0.25,0.0,1.0,1.0,0.0,0.0,0,0,0.0,0.0,-0.01,0.02,4.622543,0,nan,nan,3,0,10
60248000,0,473977508,85456074,488111,0,0.25,0.0,1.0,1.0,0.0,0.0,0,0,0.0,0.0,0.0,0.02,0.6846725,0,nan,nan,3,0,10
60448000,0,473977508,85456073,488110,0,0.25,0.0,1.0,1.0,0.0,0.0,0,0,0.0,0.01,0.01,0.02,0.69374794,0,nan,nan,3,0,10
60648000,0,473977508,85456074,488110,0,0.25,0.0,1.0,1.0,0.0,0.0,0,0,0.0,0.0,0.01,0.0,1.7243345,0,nan,nan,3,0,10
60848000,0,473977508,85456075,488106,0,0.25,0.0,1.0,1.0,0.0,0.0,0,0,0.0,0.01,0.0,-0.01,0.06858942,0,nan,nan,3,0,10
61048000,0,473977508,85456074,488109,0,0.25,0.0,1.0,1.0,0.0,0.0,0,0,0.0,0.0,0.0,0.0,3.831234,0,nan,nan,3,0,10
61248000,0,473977508,85456075,488105,0,0.25,0.0,1.0,1.0,0.0,0.0,0,0,0.0,0.0,0.0,0.0,2.9917552,0,nan,nan,3,0,10
61448000,0,473977508,85456074,488096,0,0.25,0.0,1.0,1.0,0.0,0.0,0,0,0.0,-0.02,0.02,-0.01,2.3456535,0,nan,nan,3,0,10
61648000,0,473977508,85456074,488100,0,0.25,0.0,1.0,1.0,0.0,0.0,0,0,0.0,0.0,0.02,-0.03,1.8903104,0,nan,nan,3,0,10
61848000,0,473977508,85456074,488092,0,0.25,0.0,1.0,1.0,0.0,0.0,0,0,0.0,0.02,0.0,0.0,0.07260356,0,nan,nan,3,0,10
62048000,0,473977508,85456074,488097,0,0.25,0.0,1.0,1.0,0.0,0.0,0,0,0.0,0.01,0.01,0.0,1.024129,0,nan,nan,3,0,10
62248000,0,473977508,85456074,488099,0,0.25,0.0,1.0,1.0,0.0,0.0,0,0,0.0,0.0,0.02,-0.02,1.7222402,0,nan,nan,3,0,10
62448000,0,473977508,85456074,488099,0,0.25,0.0,1.0,1.0,0.0,0.0,0,0,0.0,0.0,-0.02,0.0,4.77508,0,nan,nan,3,0,10
62648000,0,473977508,85456074,488097,0,0.25,0.0,1.0,1.0,0.0,0.0,0,0,0.0,0.01,-0.01,0.0,5.5060024,0,nan,nan,3,0,10
62848000,0,473977508,85456074,488101,0,0.25,0.0,1.0,1.0,0.0,0.0,0,0,0.0,-0.01,0.01,0.0,2.0402298,0,nan,nan,3,0,10
63048000,0,473977508,85456074,488104,0,0.25,0.0,1.0,1.0,0.0,0.0,0,0,0.0,0.0,0.0,0.03,1.8672727,0,nan,nan,3,0,10
63248000,0,473977508,85456074,488109,0,0.25,0.0,1.0,1.0,0.0,0.0,0,0,0.0,-0.02,-0.01,0.0,3.6211026,0,nan,nan,3,0,10
63448000,0,473977508,85456074,488119,0,0.25,0.0,1.0,1.0,0.0,0.0,0,0,0.0,0.0,0.0,-0.049999997,1.9426688,0,nan,nan,3,0,10
63648000,0,473977508,85456074,488111,0,0.25,0.0,1.0,1.0,0.0,0.0,0,0,0.0,0.0,0.0,0.04,3.5128953,0,nan,nan,3,0,10
63948000,0,473977508,85456073,488110,0,0.25,0.0,1.0,1.0,0.0,0.0,0,0,0.0,0.01,-0.01,0.0,5.5112386,0,nan,nan,3,0,10
64148000,0,473977508,85456074,488113,0,0.25,0.0,1.0,1.0,0.0,0.0,0,0,0.0,0.0,0.0,-0.03,2.2449508,0,nan,nan,3,0,10
64356000,0,473977508,85456074,488108,0,0.25,0.0,1.0,1.0,0.0,0.0,0,0,0.0,0.0,0.01,0.0,1.274751,0,nan,nan,3,0,10
64564000,0,473977507,85456075,488109,0,0.25,0.0,1.0,1.0,0.0,0.0,0,0,0.0,0.0,-0.01,-0.02,4.9850373,0,nan,nan,3,0,10
64764000,0,473977508,85456074,488101,0,0.25,0.0,1.0,1.0,0.0,0.0,0,0,0.0,0.0,-0.01,-0.01,4.0186768,0,nan,nan,3,0,10
64972000,0,473977508,85456074,488110,0,0.25,0.0,1.0,1.0,0.0,0.0,0,0,0.0,0.0,0.0,0.01,0.91295487,0,nan,nan,3,0,10
65076000,0,473977508,85456074,488105,0,0.25,0.0,1.0,1.0,0.0,0.0,0,0,0.0,0.0,0.0,0.0,2.2936442,0,nan,nan,3,0,10
65276000,0,473977508,85456074,488098,0,0.25,0.0,1.0,1.0,0.0,0.0,0,0,0.0,0.0,0.0,0.04,5.4772053,0,nan,nan,3,0,10
65484000,0,473977508,85456074,488098,0,0.25,0.0,1.0,1.0,0.0,0.0,0,0,0.0,0.0,0.0,0.01,5.302154,0,nan,nan,3,0,10
65692000,0,473977508,85456075,488098,0,0.25,0.0,1.0,1.0,0.0,0.0,0,0,0.0,0.02,0.0,0.0,6.111439,0,nan,nan,3,0,10
65892000,0,473977508,85456074,488103,0,0.25,0.0,1.0,1.0,0.0,0.0,0,0,0.0,0.01,0.0,0.0,5.807412,0,nan,nan,3,0,10
66100000,0,473977508,85456074,488097,0,0.25,0.0,1.0,1.0,0.0,0.0,0,0,0.0,0.0,0.0,-0.02,4.951353,0,nan,nan,3,0,10
66304000,0,473977508,85456074,488104,0,0.25,0.0,1.0,1.0,0.0,0.0,0,0,0.0,0.0,-0.02,-0.02,4.944721,0,nan,nan,3,0,10
66508000,0,473977508,85456074,488106,0,0.25,0.0,1.0,1.0,0.0,0.0,0,0,0.0,0.01,0.01,0.01,0.62864906,0,nan,nan,3,0,10
66716000,0,473977508,85456074,488107,0,0.25,0.0,1.0,1.0,0.0,0.0,0,0,0.0,0.01,0.0,0.02,0.5520314,0,nan,nan,3,0,10
66920000,0,473977508,85456074,488098,0,0.25,0.0,1.0,1.0,0.0,0.0,0,0,0.0,0.01,0.01,-0.01,0.8241202,0,nan,nan,3,0,10
67120000,0,473977508,85456075,488102,0,0.25,0.0,1.0,1.0,0.0,0.0,0,0,0.0,0.0,0.01,0.0,1.8482492,0,nan,nan,3,0,10
67320000,0,473977508,85456075,488101,0,0.25,0.0,1.0,1.0,0.0,0.0,0,0,0.0,0.0,0.0,-0.01,2.3515873,0,nan,nan,3,0,10
67520000,0,473977508,85456075,488094,0,0.25,0.0,1.0,1.0,0.0,0.0,0,0,0.0,0.0,0.02,0.01,1.7187496,0,nan,nan,3,0,10
67820000,0,473977507,85456074,488104,0,0.25,0.0,1.0,1.0,0.0,0.0,0,0,0.0,0.0,0.01,-0.04,1.7690136,0,nan,nan,3,0,10
68020000,0,473977508,85456074,488112,0,0.25,0.0,1.0,1.0,0.0,0.0,0,0,0.0,0.0,-0.02,0.0,4.6433115,0,nan,nan,3,0,10
68220000,0,473977508,85456074,488114,0,0.25,0.0,1.0,1.0,0.0,0.0,0,0,0.0,-0.01,0.0,0.0,2.6386855,0,nan,nan,3,0,10
68420000,0,473977508,85456074,488104,0,0.25,0.0,1.0,1.0,0.0,0.0,0,0,0.0,0.01,-0.01,0.0,5.755926,0,nan,nan,3,0,10
68620000,0,473977508,85456074,488103,0,0.25,0.0,1.0,1.0,0.0,0.0,0,0,0.0,0.01,0.02,0.02,1.0702044,0,nan,nan,3,0,10
68820000,0,473977507,85456074,488099,0,0.25,0.0,1.0,1.0,0.0,0.0,0,0,0.0,0.01,-0.01,0.0,5.522757,0,nan,nan,3,0,10
69020000,0,473977507,85456074,488107,0,0.25,0.0,1.0,1.0,0.0,0.0,0,0,0.0,0.0,0.01,0.06,1.7679665,0,nan,nan,3,0,10
69220000,0,473977508,85456074,488104,0,0.25,0.0,1.0,1.0,0.0,0.0,0,0,0.0,0.0,0.0,0.03,5.195343,0,nan,nan,3,0,10
69420000,0,473977508,85456074,488106,0,0.25,0.0,1.0,1.0,0.0,0.0,0,0,0.0,0.0,-0.01,0.0,5.092546,0,nan,nan,3,0,10
69620000,0,473977508,85456074,488103,0,0.25,0.0,1.0,1.0,0.0,0.0,0,0,0.0,0.0,0.0,0.0,1.3613167,0,nan,nan,3,0,10
69820000,0,473977508,85456074,488108,0,0.25,0.0,1.0,1.0,0.0,0.0,0,0,0.0,0.0,0.01,0.01,1.1291947,0,nan,nan,3,0,10
70020000,0,473977508,85456074,488108,0,0.25,0.0,1.0,1.0,0.0,0.0,0,0,0.0,0.0,-0.01,-0.01,4.7190566,0,nan,nan,3,0,10
70220000,0,473977508,85456074,488111,0,0.25,0.0,1.0,1.0,0.0,0.0,0,0,0.0,-0.01,-0.01,0.02,4.0656247,0,nan,nan,3,0,10
70420000,0,473977508,85456074,488100,0,0.25,0.0,1.0,1.0,0.0,0.0,0,0,0.0,0.0,0.01,-0.03,2.1845644,0,nan,nan,3,0,10
70620000,0,473977508,85456074,488103,0,0.25,0.0,1.0,1.0,0.0,0.0,0,0,0.0,0.02,0.01,-0.03,0.45272508,0,nan,nan,3,0,10
70820000,0,473977508,85456074,488111,0,0.25,0.0,1.0,1.0,0.0,0.0,0,0,0.0,0.0,-0.02,-0.01,4.639472,0,nan,nan,3,0,10
71020000,0,473977507,85456074,488114,0,0.25,0.0,1.0,1.0,0.0,0.0,0,0,0.0,0.01,0.0,-0.049999997,5.6236343,0,nan,nan,3,0,10
71220000,0,473977508,85456074,488106,0,0.25,0.0,1.0,1.0,0.0,0.0,0,0,0.0,-0.01,0.01,0.0,2.2199934,0,nan,nan,3,0,10
71420000,0,473977507,85456074,488107,0,0.25,0.0,1.0,1.0,0.0,0.0,0,0,0.0,0.0,0.0,0.0,3.7104607,0,nan,nan,3,0,10
71620000,0,473977508,85456074,488113,0,0.25,0.0,1.0,1.0,0.0,0.0,0,0,0.0,0.02,-0.01,0.01,5.8849025,0,nan,nan,3,0,10
71820000,0,473977508,85456074,488103,0,0.25,0.0,1.0,1.0,0.0,0.0,0,0,0.0,0.0,0.01,0.03,1.8229427,0,nan,nan,3,0,10
72020000,0,473977507,85456074,488102,0,0.25,0.0,1.0,1.0,0.0,0.0,0,0,0.0,0.0,0.02,-0.01,1.5761604,0,nan,nan,3,0,10
72220000,0,473977508,85456074,488099,0,0.25,0.0,1.0,1.0,0.0,0.0,0,0,0.0,0.0,-0.02,0.0,4.489727,0,nan,nan,3,0,10
72420000,0,473977508,85456074,488100,0,0.25,0.0,1.0,1.0,0.0,0.0,0,0,0.0,-0.02,0.0,-0.049999997,2.8631282,0,nan,nan,3,0,10
72620000,0,473977508,85456074,488102,0,0.25,0.0,1.0,1.0,0.0,0.0,0,0,0.0,-0.01,0.0,0.0,2.8540528,0,nan,nan,3,0,10
72920000,0,473977508,85456074,488112,0,0.25,0.0,1.0,1.0,0.0,0.0,0,0,0.0,0.0,0.02,0.0,1.366029,0,nan,nan,3,0,10
73120000,0,473977508,85456074,488110,0,0.25,0.0,1.0,1.0,0.0,0.0,0,0,0.0,0.0,-0.01,0.02,4.2736616,0,nan,nan,3,0,10
73320000,0,473977508,85456074,488102,0,0.25,0.0,1.0,1.0,0.0,0.0,0,0,0.0,-0.02,-0.01,-0.02,3.571013,0,nan,nan,3,0,10
73520000,0,473977508,85456074,488106,0,0.25,0.0,1.0,1.0,0.0,0.0,0,0,0.0,0.0,0.01,0.0,1.3473545,0,nan,nan,3,0,10
73720000,0,473977507,85456074,488111,0,0.25,0.0,1.0,1.0,0.0,0.0,0,0,0.0,0.0,-0.02,0.0,4.689387,0,nan,nan,3,0,10
73920000,0,473977508,85456075,488104,0,0.25,0.0,1.0,1.0,0.0,0.0,0,0,0.0,0.0,-0.01,-0.03,4.1895394,0,nan,nan,3,0,10
74120000,0,473977508,85456075,488101,0,0.25,0.0,1.0,1.0,0.0,0.0,0,0,0.0,-0.02,0.0,0.01,3.348839,0,nan,nan,3,0,10
74320000,0,473977508,85456074,488095,0,0.25,0.0,1.0,1.0,0.0,0.0,0,0,0.0,0.0,0.0,0.0,1.0387894,0,nan,nan,3,0,10
74520000,0,473977508,85456074,488098,0,0.25,0.0,1.0,1.0,0.0,0.0,0,0,0.0,0.0,0.0,0.02,1.639514,0,nan,nan,3,0,10
74720000,0,473977508,85456075,488109,0,0.25,0.0,1.0,1.0,0.0,0.0,0,0,0.0,-0.01,-0.02,0.0,4.081856,0,nan,nan,3,0,10
74920000,0,473977508,85456074,488106,0,0.25,0.0,1.0,1.0,0.0,0.0,0,0,0.0,-0.01,0.0,0.0,2.9608638,0,nan,nan,3,0,10
75120000,0,473977508,85456074,488106,0,0.25,0.0,1.0,1.0,0.0,0.0,0,0,0.0,0.0,0.02,0.0,1.3414205,0,nan,nan,3,0,10
75320000,0,473977508,85456074,488103,0,0.25,0.0,1.0,1.0,0.0,0.0,0,0,0.0,0.01,0.0,0.0,5.759766,0,nan,nan,3,0,10
75520000,0,473977508,85456074,488108,0,0.25,0.0,1.0,1.0,0.0,0.0,0,0,0.0,-0.01,0.0,0.03,3.3568673,0,nan,nan,3,0,10
75720000,0,473977508,85456075,488097,0,0.25,0.0,1.0,1.0,0.0,0.0,0,0,0.0,0.0,-0.01,0.0,5.1681166,0,nan,nan,3,0,10
75920000,0,473977508,85456074,488102,0,0.25,0.0,1.0,1.0,0.0,0.0,0,0,0.0,0.0,0.0,0.0,2.0878758,0,nan,nan,3,0,10
76120000,0,473977508,85456075,488097,0,0.25,0.0,1.0,1.0,0.0,0.0,0,0,0.0,-0.02,-0.01,-0.02,3.5943997,0,nan,nan,3,0,10
76320000,0,473977508,85456075,488103,0,0.25,0.0,1.0,1.0,0.0,0.0,0,0,0.0,0.0,0.0,-0.03,4.890792,0,nan,nan,3,0,10
76520000,0,473977508,85456075,488097,0,0.25,0.0,1.0,1.0,0.0,0.0,0,0,0.0,0.01,0.01,0.0,0.60281897,0,nan,nan,3,0,10
76720000,0,473977508,85456074,488099,0,0.25,0.0,1.0,1.0,0.0,0.0,0,0,0.0,0.0,-0.01,-0.02,4.4186945,0,nan,nan,3,0,10
76920000,0,473977508,85456074,488103,0,0.25,0.0,1.0,1.0,0.0,0.0,0,0,0.0,0.01,0.02,0.01,0.8925351,0,nan,nan,3,0,10
77120000,0,473977508,85456074,488104,0,0.25,0.0,1.0,1.0,0.0,0.0,0,0,0.0,0.0,-0.02,-0.01,5.108603,0,nan,nan,3,0,10
77320000,0,473977508,85456074,488098,0,0.25,0.0,1.0,1.0,0.0,0.0,0,0,0.0,0.0,-0.01,0.0,4.2663317,0,nan,nan,3,0,10
77520000,0,473977508,85456074,488097,0,0.25,0.0,1.0,1.0,0.0,0.0,0,0,0.0,0.02,0.0,0.02,6.041105,0,nan,nan,3,0,10
77820000,0,473977508,85456074,488104,0,0.25,0.0,1.0,1.0,0.0,0.0,0,0,0.0,0.0,0.0,0.0,3.9369977,0,nan,nan,3,0,10
78020000,0,473977508,85456074,488104,0,0.25,0.0,1.0,1.0,0.0,0.0,0,0,0.0,-0.03,0.0,0.049999997,3.3121884,0,nan,nan,3,0,10
78220000,0,473977508,85456074,488106,0,0.25,0.0,1.0,1.0,0.0,0.0,0,0,0.0,-0.01,0.0,-0.01,2.7900012,0,nan,nan,3,0,10
78420000,0,473977508,85456075,488106,0,0.25,0.0,1.0,1.0,0.0,0.0,0,0,0.0,0.0,0.01,0.03,1.5857594,0,nan,nan,3,0,10
78620000,0,473977509,85456074,488105,0,0.25,0.0,1.0,1.0,0.0,0.0,0,0,0.0,-0.01,0.0,-0.03,3.397009,0,nan,nan,3,0,10
78820000,0,473977509,85456074,488108,0,0.25,0.0,1.0,1.0,0.0,0.0,0,0,0.0,0.0,0.0,-0.02,1.7571458,0,nan,nan,3,0,10
79020000,0,473977508,85456074,488101,0,0.25,0.0,1.0,1.0,0.0,0.0,0,0,0.0,0.0,-0.01,0.02,4.7099814,0,nan,nan,3,0,10
79220000,0,473977508,85456074,488093,0,0.25,0.0,1.0,1.0,0.0,0.0,0,0,0.0,0.0,-0.01,-0.01,4.052884,0,nan,nan,3,0,10
79420000,0,473977507,85456074,488097,0,0.25,0.0,1.0,1.0,0.0,0.0,0,0,0.0,0.0,0.0,-0.03,4.5349298,0,nan,nan,3,0,10
79620000,0,473977508,85456074,488100,0,0.25,0.0,1.0,1.0,0.0,0.0,0,0,0.0,0.0,0.0,0.04,0.77298355,0,nan,nan,3,0,10
79820000,0,473977508,85456074,488106,0,0.25,0.0,1.0,1.0,0.0,0.0,0,0,0.0,-0.01,0.0,0.02,3.6724136,0,nan,nan,3,0,10
80020000,0,473977508,85456075,488114,0,0.25,0.0,1.0,1.0,0.0,0.0,0,0,0.0,0.0,0.0,-0.02,2.2646725,0,nan,nan,3,0,10
80220000,0,473977508,85456074,488105,0,0.25,0.0,1.0,1.0,0.0,0.0,0,0,0.0,0.0,0.0,0.0,4.0335116,0,nan,nan,3,0,10
80420000,0,473977508,85456075,488108,0,0.25,0.0,1.0,1.0,0.0,0.0,0,0,0.0,0.0,0.0,0.0,4.1829076,0,nan,nan,3,0,10
80620000,0,473977508,85456074,488094,0,0.25,0.0,1.0,1.0,0.0,0.0,0,0,0.0,0.0,0.02,0.01,1.2571236,0,nan,nan,3,0,10
80820000,0,473977508,85456075,488090,0,0.25,0.0,1.0,1.0,0.0,0.0,0,0,0.0,0.0,0.0,-0.03,3.6043477,0,nan,nan,3,0,10
81020000,0,473977508,85456075,488101,0,0.25,0.0,1.0,1.0,0.0,0.0,0,0,0.0,0.02,-0.01,0.03,5.880888,0,nan,nan,3,0,10
81220000,0,473977508,85456074,488103,0,0.25,0.0,1.0,1.0,0.0,0.0,0,0,0.0,0.0,0.01,0.01,1.7152591,0,nan,nan,3,0,10
81420000,0,473977508,85456074,488103,0,0.25,0.0,1.0,1.0,0.0,0.0,0,0,0.0,-0.01,0.02,-0.03,2.1658897,0,nan,nan,3,0,10
81620000,0,473977508,85456074,488107,0,0.25,0.0,1.0,1.0,0.0,0.0,0,0,0.0,0.0,0.0,-0.01,1.7484193,0,nan,nan,3,0,10
81820000,0,473977508,85456074,488101,0,0.25,0.0,1.0,1.0,0.0,0.0,0,0,0.0,0.0,0.01,0.0,2.3360543,0,nan,nan,3,0,10
82020000,0,473977508,85456074,488100,0,0.25,0.0,1.0,1.0,0.0,0.0,0,0,0.0,0.0,0.0,0.0,2.465903,0,nan,nan,3,0,10
82220000,0,473977508,85456074,488097,0,0.25,0.0,1.0,1.0,0.0,0.0,0,0,0.0,-0.01,0.0,0.0,2.4849267,0,nan,nan,3,0,10
82420000,0,473977508,85456074,488105,0,0.25,0.0,1.0,1.0,0.0,0.0,0,0,0.0,-0.02,-0.02,0.02,3.9062808,0,nan,nan,3,0,10
82620000,0,473977508,85456074,488101,0,0.25,0.0,1.0,1.0,0.0,0.0,0,0,0.0,0.0,0.0,0.02,5.523455,0,nan,nan,3,0,10
82920000,0,473977508,85456074,488107,0,0.25,0.0,1.0,1.0,0.0,0.0,0,0,0.0,0.0,0.01,-0.01,1.2283266,0,nan,nan,3,0,10
83120000,0,473977508,85456074,488108,0,0.25,0.0,1.0,1.0,0.0,0.0,0,0,0.0,0.0,0.01,0.04,1.8445841,0,nan,nan,3,0,10
83320000,0,473977508,85456074,488108,0,0.25,0.0,1.0,1.0,0.0,0.0,0,0,0.0,0.0,-0.01,0.0,4.347836,0,nan,nan,3,0,10
83520000,0,473977508,85456074,488111,0,0.25,0.0,1.0,1.0,0.0,0.0,0,0,0.0,-0.02,0.01,-0.01,2.5666056,0,nan,nan,3,0,10
83720000,0,473977508,85456074,488103,0,0.25,0.0,1.0,1.0,0.0,0.0,0,0,0.0,0.02,0.01,-0.01,0.37732908,0,nan,nan,3,0,10
83920000,0,473977508,85456074,488105,0,0.25,0.0,1.0,1.0,0.0,0.0,0,0,0.0,-0.02,0.0,-0.049999997,2.8755198,0,nan,nan,3,0,10
84120000,0,473977508,85456074,488105,0,0.25,0.0,1.0,1.0,0.0,0.0,0,0,0.0,0.0,0.0,0.0,1.834287,0,nan,nan,3,0,10
84320000,0,473977508,85456074,488100,0,0.25,0.0,1.0,1.0,0.0,0.0,0,0,0.0,-0.01,0.0,-0.04,3.2566884,0,nan,nan,3,0,10
84520000,0,473977508,85456074,488092,0,0.25,0.0,1.0,1.0,0.0,0.0,0,0,0.0,-0.01,-0.01,-0.03,3.9375212,0,nan,nan,3,0,10
84720000,0,473977508,85456074,488094,0,0.25,0.0,1.0,1.0,0.0,0.0,0,0,0.0,0.01,0.0,-0.01,6.103411,0,nan,nan,3,0,10
84920000,0,473977508,85456074,488096,0,0.25,0.0,1.0,1.0,0.0,0.0,0,0,0.0,0.01,0.0,0.02,0.201056,0,nan,nan,3,0,10
85120000,0,473977508,85456074,488099,0,0.25,0.0,1.0,1.0,0.0,0.0,0,0,0.0,0.01,0.01,0.01,0.7586723,0,nan,nan,3,0,10
85320000,0,473977508,85456074,488101,0,0.25,0.0,1.0,1.0,0.0,0.0,0,0,0.0,0.01,0.0,0.01,0.0022688613,0,nan,nan,3,0,10
85520000,0,473977508,85456074,488107,0,0.25,0.0,1.0,1.0,0.0,0.0,0,0,0.0,-0.03,-0.01,-0.03,3.4635038,0,nan,nan,3,0,10
85720000,0,473977508,85456074,488095,0,0.25,0.0,1.0,1.0,0.0,0.0,0,0,0.0,-0.01,0.0,0.02,2.7653928,0,nan,nan,3,0,10
85920000,0,473977508,85456074,488098,0,0.25,0.0,1.0,1.0,0.0,0.0,0,0,0.0,0.0,-0.01,0.0,4.306124,0,nan,nan,3,0,10
86120000,0,473977508,85456074,488105,0,0.25,0.0,1.0,1.0,0.0,0.0,0,0,0.0,0.0,-0.01,-0.01,4.315374,0,nan,nan,3,0,10
86320000,0,473977508,85456074,488107,0,0.25,0.0,1.0,1.0,0.0,0.0,0,0,0.0,-0.01,0.0,0.0,3.042194,0,nan,nan,3,0,10
86520000,0,473977508,85456074,488104,0,0.25,0.0,1.0,1.0,0.0,0.0,0,0,0.0,0.02,0.0,0.01,6.0297604,0,nan,nan,3,0,10
86720000,0,473977508,85456074,488093,0,0.25,0.0,1.0,1.0,0.0,0.0,0,0,0.0,-0.01,0.0,-0.01,3.0936794,0,nan,nan,3,0,10
86920000,0,473977508,85456073,488096,0,0.25,0.0,1.0,1.0,0.0,0.0,0,0,0.0,0.02,0.0,0.02,0.18185796,0,nan,nan,3,0,10
87120000,0,473977508,85456074,488106,0,0.25,0.0,1.0,1.0,0.0,0.0,0,0,0.0,0.0,0.0,0.01,5.462196,0,nan,nan,3,0,10
87320000,0,473977508,85456074,488105,0,0.25,0.0,1.0,1.0,0.0,0.0,0,0,0.0,-0.01,0.0,0.0,3.6724136,0,nan,nan,3,0,10
87520000,0,473977507,85456074,488102,0,0.25,0.0,1.0,1.0,0.0,0.0,0,0,0.0,0.0,0.0,0.02,5.4772053,0,nan,nan,3,0,10
87720000,0,473977507,85456074,488098,0,0.25,0.0,1.0,1.0,0.0,0.0,0,0,0.0,0.0,0.0,-0.02,5.308088,0,nan,nan,3,0,10
87920000,0,473977508,85456074,488102,0,0.25,0.0,1.0,1.0,0.0,0.0,0,0,0.0,0.01,0.0,0.0,6.109345,0,nan,nan,3,0,10
88220000,0,473977508,85456074,488106,0,0.25,0.0,1.0,1.0,0.0,0.0,0,0,0.0,-0.01,0.02,0.0,2.0463383,0,nan,nan,3,0,10
88420000,0,473977508,85456074,488100,0,0.25,0.0,1.0,1.0,0.0,0.0,0,0,0.0,0.0,0.0,0.01,1.3358357,0,nan,nan,3,0,10
88620000,0,473977508,85456074,488103,0,0.25,0.0,1.0,1.0,0.0,0.0,0,0,0.0,0.01,0.0,0.01,5.7152615,0,nan,nan,3,0,10
88820000,0,473977508,85456074,488105,0,0.25,0.0,1.0,1.0,0.0,0.0,0,0,0.0,-0.01,0.0,0.0,2.641478,0,nan,nan,3,0,10
89020000,0,473977508,85456074,488112,0,0.25,0.0,1.0,1.0,0.0,0.0,0,0,0.0,0.0,0.02,-0.01,1.8943245,0,nan,nan,3,0,10
89220000,0,473977508,85456074,488106,0,0.25,0.0,1.0,1.0,0.0,0.0,0,0,0.0,0.0,0.0,0.01,4.018502,0,nan,nan,3,0,10
89420000,0,473977508,85456074,488098,0,0.25,0.0,1.0,1.0,0.0,0.0,0,0,0.0,0.0,0.0,0.0,4.1952987,0,nan,nan,3,0,10
89620000,0,473977508,85456075,488090,0,0.25,0.0,1.0,1.0,0.0,0.0,0,0,0.0,0.0,0.01,0.03,2.1046305,0,nan,nan,3,0,10
89820000,0,473977508,85456075,488087,0,0.25,0.0,1.0,1.0,0.0,0.0,0,0,0.0,0.0,0.0,0.0,3.473801,0,nan,nan,3,0,10
90020000,0,473977508,85456074,488095,0,0.25,0.0,1.0,1.0,0.0,0.0,0,0,0.0,0.01,0.0,0.01,0.48850328,0,nan,nan,3,0,10
90220000,0,473977508,85456074,488093,0,0.25,0.0,1.0,1.0,0.0,0.0,0,0,0.0,0.0,-0.01,-0.01,4.725689,0,nan,nan,3,0,10
90420000,0,473977508,85456074,488099,0,0.25,0.0,1.0,1.0,0.0,0.0,0,0,0.0,-0.01,0.0,0.02,3.5933526,0,nan,nan,3,0,10
90620000,0,473977508,85456075,488105,0,0.25,0.0,1.0,1.0,0.0,0.0,0,0,0.0,0.0,0.0,-0.01,0.5904275,0,nan,nan,3,0,10
90820000,0,473977507,85456074,488104,0,0.25,0.0,1.0,1.0,0.0,0.0,0,0,0.0,0.0,0.0,0.01,1.7541788,0,nan,nan,3,0,10
91020000,0,473977508,85456074,488107,0,0.25,0.0,1.0,1.0,0.0,0.0,0,0,0.0,-0.01,0.0,-0.02,3.0294533,0,nan,nan,3,0,10
91220000,0,473977508,85456074,488102,0,0.25,0.0,1.0,1.0,0.0,0.0,0,0,0.0,0.01,0.0,-0.049999997,5.803572,0,nan,nan,3,0,10
91420000,0,473977508,85456073,488101,0,0.25,0.0,1.0,1.0,0.0,0.0,0,0,0.0,-0.01,0.0,-0.02,3.471532,0,nan,nan,3,0,10
91620000,0,473977508,85456074,488096,0,0.25,0.0,1.0,1.0,0.0,0.0,0,0,0.0,0.0,0.0,-0.01,1.9419707,0,nan,nan,3,0,10
91820000,0,473977508,85456074,488098,0,0.25,0.0,1.0,1.0,0.0,0.0,0,0,0.0,0.0,0.01,-0.01,1.6241555,0,nan,nan,3,0,10
92020000,0,473977508,85456074,488107,0,0.25,0.0,1.0,1.0,0.0,0.0,0,0,0.0,0.0,0.0,0.0,3.703305,0,nan,nan,3,0,10
92220000,0,473977508,85456073,488110,0,0.25,0.0,1.0,1.0,0.0,0.0,0,0,0.0,0.02,0.0,0.03,6.0826426,0,nan,nan,3,0,10
92420000,0,473977508,85456073,488104,0,0.25,0.0,1.0,1.0,0.0,0.0,0,0,0.0,0.0,0.0,0.01,1.8170087,0,nan,nan,3,0,10
92620000,0,473977508,85456073,488108,0,0.25,0.0,1.0,1.0,0.0,0.0,0,0,0.0,0.01,0.0,0.0,5.983336,0,nan,nan,3,0,10
92820000,0,473977508,85456074,488104,0,0.25,0.0,1.0,1.0,0.0,0.0,0,0,0.0,0.0,0.0,0.0,5.5293894,0,nan,nan,3,0,10
93020000,0,473977508,85456075,488110,0,0.25,0.0,1.0,1.0,0.0,0.0,0,0,0.0,0.0,0.0,0.0,0.7399978,0,nan,nan,3,0,10
93320000,0,473977508,85456074,488105,0,0.25,0.0,1.0,1.0,0.0,0.0,0,0,0.0,0.0,-0.01,0.0,4.487982,0,nan,nan,3,0,10
93520000,0,473977508,85456075,488101,0,0.25,0.0,1.0,1.0,0.0,0.0,0,0,0.0,0.0,0.0,0.03,1.5000663,0,nan,nan,3,0,10
93720000,0,473977508,85456074,488094,0,0.25,0.0,1.0,1.0,0.0,0.0,0,0,0.0,0.0,0.0,0.03,0.5316116,0,nan,nan,3,0,10
93920000,0,473977508,85456074,488102,0,0.25,0.0,1.0,1.0,0.0,0.0,0,0,0.0,0.0,0.0,-0.02,3.9844694,0,nan,nan,3,0,10
94120000,0,473977508,85456074,488108,0,0.25,0.0,1.0,1.0,0.0,0.0,0,0,0.0,0.0,0.01,0.0,1.2332133,0,nan,nan,3,0,10
94320000,0,473977508,85456074,488118,0,0.25,0.0,1.0,1.0,0.0,0.0,0,0,0.0,0.01,0.02,0.01,1.0091196,0,nan,nan,3,0,10
94520000,0,473977508,85456074,488111,0,0.25,0.0,1.0,1.0,0.0,0.0,0,0,0.0,-0.01,-0.01,0.0,4.049917,0,nan,nan,3,0,10
94720000,0,473977508,85456074,488109,0,0.25,0.0,1.0,1.0,0.0,0.0,0,0,0.0,0.0,0.0,0.0,1.9280084,0,nan,nan,3,0,10
94920000,0,473977508,85456074,488105,0,0.25,0.0,1.0,1.0,0.0,0.0,0,0,0.0,0.0,0.0,0.02,2.1714747,0,nan,nan,3,0,10
95120000,0,473977508,85456074,488109,0,0.25,0.0,1.0,1.0,0.0,0.0,0,0,0.0,0.0,-0.01,0.0,5.276324,0,nan,nan,3,0,10
95320000,0,473977508,85456073,488104,0,0.25,0.0,1.0,1.0,0.0,0.0,0,0,0.0,0.0,0.0,0.01,2.4428654,0,nan,nan,3,0,10
95520000,0,473977508,85456074,488107,0,0.25,0.0,1.0,1.0,0.0,0.0,0,0,0.0,0.0,0.0,0.0,5.3229227,0,nan,nan,3,0,10
95720000,0,473977508,85456074,488106,0,0.25,0.0,1.0,1.0,0.0,0.0,0,0,0.0,-0.01,0.0,0.0,3.1992688,0,nan,nan,3,0,10
95920000,0,473977508,85456074,488104,0,0.25,0.0,1.0,1.0,0.0,0.0,0,0,0.0,0.01,0.0,0.0,0.26650393,0,nan,nan,3,0,10
96120000,0,473977508,85456074,488111,0,0.25,0.0,1.0,1.0,0.0,0.0,0,0,0.0,0.0,0.0,-0.01,5.9517465,0,nan,nan,3,0,10
96320000,0,473977508,85456074,488118,0,0.25,0.0,1.0,1.0,0.0,0.0,0,0,0.0,0.0,0.0,-0.02,1.4690003,0,nan,nan,3,0,10
96520000,0,473977508,85456074,488108,0,0.25,0.0,1.0,1.0,0.0,0.0,0,0,0.0,-0.01,0.01,0.0,2.4819596,0,nan,nan,3,0,10
96720000,0,473977508,85456073,488112,0,0.25,0.0,1.0,1.0,0.0,0.0,0,0,0.0,0.0,0.0,0.0,1.4012836,0,nan,nan,3,0,10
96920000,0,473977508,85456074,488108,0,0.25,0.0,1.0,1.0,0.0,0.0,0,0,0.0,0.0,0.01,0.03,1.833589,0,nan,nan,3,0,10
97120000,0,473977507,85456075,488107,0,0.25,0.0,1.0,1.0,0.0,0.0,0,0,0.0,0.0,0.0,-0.01,2.5980206,0,nan,nan,3,0,10
97320000,0,473977508,85456075,488109,0,0.25,0.0,1.0,1.0,0.0,0.0,0,0,0.0,0.0,0.0,0.02,5.5618515,0,nan,nan,3,0,10
97520000,0,473977508,85456074,488104,0,0.25,0.0,1.0,1.0,0.0,0.0,0,0,0.0,-0.01,0.0,-0.01,3.1863537,0,nan,nan,3,0,10
97720000,0,473977508,85456073,488102,0,0.25,0.0,1.0,1.0,0.0,0.0,0,0,0.0,0.0,0.02,-0.04,1.7876881,0,nan,nan,3,0,10
97920000,0,473977508,85456074,488106,0,0.25,0.0,1.0,1.0,0.0,0.0,0,0,0.0,-0.01,0.0,0.02,3.687074,0,nan,nan,3,0,10
98120000,0,473977508,85456074,488110,0,0.25,0.0,1.0,1.0,0.0,0.0,0,0,0.0,0.01,0.01,-0.02,0.80649287,0,nan,nan,3,0,10
98420000,0,473977508,85456074,488104,0,0.25,0.0,1.0,1.0,0.0,0.0,0,0,0.0,0.01,0.0,0.0,5.8601193,0,nan,nan,3,0,10
98620000,0,473977508,85456074,488102,0,0.25,0.0,1.0,1.0,0.0,0.0,0,0,0.0,0.01,-0.01,0.0,5.3194323,0,nan,nan,3,0,10
98820000,0,473977508,85456074,488100,0,0.25,0.0,1.0,1.0,0.0,0.0,0,0,0.0,0.0,0.0,-0.01,4.6227174,0,nan,nan,3,0,10
99020000,0,473977508,85456074,488098,0,0.25,0.0,1.0,1.0,0.0,0.0,0,0,0.0,0.0,0.0,-0.01,4.855712,0,nan,nan,3,0,10
99220000,0,473977508,85456074,488092,0,0.25,0.0,1.0,1.0,0.0,0.0,0,0,0.0,0.0,0.0,0.02,0.40176296,0,nan,nan,3,0,10
99420000,0,473977508,85456074,488096,0,0.25,0.0,1.0,1.0,0.0,0.0,0,0,0.0,0.01,-0.01,-0.01,5.322399,0,nan,nan,3,0,10
99620000,0,473977508,85456074,488097,0,0.25,0.0,1.0,1.0,0.0,0.0,0,0,0.0,0.0,0.0,0.01,2.2344792,0,nan,nan,3,0,10
99820000,0,473977508,85456074,488095,0,0.25,0.0,1.0,1.0,0.0,0.0,0,0,0.0,0.0,0.01,0.0,1.7094996,0,nan,nan,3,0,10
100020000,0,473977508,85456074,488105,0,0.25,0.0,1.0,1.0,0.0,0.0,0,0,0.0,0.0,0.0,0.03,4.4064775,0,nan,nan,3,0,10
100220000,0,473977507,85456075,488106,0,0.25,0.0,1.0,1.0,0.0,0.0,0,0,0.0,0.0,-0.02,0.01,4.575944,0,nan,nan,3,0,10
100420000,0,473977507,85456074,488101,0,0.25,0.0,1.0,1.0,0.0,0.0,0,0,0.0,0.0,0.02,0.0,1.5964056,0,nan,nan,3,0,10
100620000,0,473977508,85456074,488104,0,0.25,0.0,1.0,1.0,0.0,0.0,0,0,0.0,0.01,-0.01,-0.01,5.3311257,0,nan,nan,3,0,10
100820000,0,473977508,85456075,488106,0,0.25,0.0,1.0,1.0,0.0,0.0,0,0,0.0,0.0,0.02,0.03,1.563769,0,nan,nan,3,0,10
101020000,0,473977507,85456075,488103,0,0.25,0.0,1.0,1.0,0.0,0.0,0,0,0.0,-0.01,0.01,-0.01,2.4369314,0,nan,nan,3,0,10
101220000,0,473977508,85456075,488104,0,0.25,0.0,1.0,1.0,0.0,0.0,0,0,0.0,0.01,0.0,-0.03,6.014402,0,nan,nan,3,0,10
101420000,0,473977508,85456074,488097,0,0.25,0.0,1.0,1.0,0.0,0.0,0,0,0.0,0.0,0.0,0.02,0.5136353,0,nan,nan,3,0,10
101620000,0,473977508,85456074,488101,0,0.25,0.0,1.0,1.0,0.0,0.0,0,0,0.0,0.0,-0.02,-0.02,4.757802,0,nan,nan,3,0,10
101820000,0,473977508,85456074,488098,0,0.25,0.0,1.0,1.0,0.0,0.0,0,0,0.0,0.0,0.0,0.03,0.13438639,0,nan,nan,3,0,10
102020000,0,473977508,85456075,488098,0,0.25,0.0,1.0,1.0,0.0,0.0,0,0,0.0,0.0,0.0,0.0,3.4036407,0,nan,nan,3,0,10
102220000,0,473977507,85456075,488105,0,0.25,0.0,1.0,1.0,0.0,0.0,0,0,0.0,0.0,0.01,-0.049999997,1.0550205,0,nan,nan,3,0,10
102420000,0,473977507,85456074,488099,0,0.25,0.0,1.0,1.0,0.0,0.0,0,0,0.0,0.0,0.0,0.01,4.9684567,0,nan,nan,3,0,10
102620000,0,473977508,85456074,488099,0,0.25,0.0,1.0,1.0,0.0,0.0,0,0,0.0,-0.01,0.0,0.04,2.5880725,0,nan,nan,3,0,10
102820000,0,473977508,85456074,488100,0,0.25,0.0,1.0,1.0,0.0,0.0,0,0,0.0,0.0,0.01,-0.01,1.8255606,0,nan,nan,3,0,10
103020000,0,473977507,85456074,488103,0,0.25,0.0,1.0,1.0,0.0,0.0,0,0,0.0,0.0,0.02,0.02,1.5457926,0,nan,nan,3,0,10
103220000,0,473977508,85456074,488096,0,0.25,0.0,1.0,1.0,0.0,0.0,0,0,0.0,0.01,-0.01,0.0,5.3888946,0,nan,nan,3,0,10
103520000,0,473977508,85456074,488111,0,0.25,0.0,1.0,1.0,0.0,0.0,0,0,0.0,0.0,0.01,0.0,1.6937921,0,nan,nan,3,0,10
103720000,0,473977508,85456074,488098,0,0.25,0.0,1.0,1.0,0.0,0.0,0,0,0.0,0.01,0.01,-0.01,0.8366862,0,nan,nan,3,0,10
103920000,0,473977508,85456074,488102,0,0.25,0.0,1.0,1.0,0.0,0.0,0,0,0.0,0.0,0.0,0.02,2.3952193,0,nan,nan,3,0,10
104120000,0,473977508,85456074,488108,0,0.25,0.0,1.0,1.0,0.0,0.0,0,0,0.0,0.0,-0.01,0.0,4.674552,0,nan,nan,3,0,10
104320000,0,473977508,85456074,488099,0,0.25,0.0,1.0,1.0,0.0,0.0,0,0,0.0,0.0,0.0,0.04,3.3025892,0,nan,nan,3,0,10
104520000,0,473977508,85456074,488106,0,0.25,0.0,1.0,1.0,0.0,0.0,0,0,0.0,0.0,0.01,0.02,1.4316514,0,nan,nan,3,0,10
104720000,0,473977508,85456074,488105,0,0.25,0.0,1.0,1.0,0.0,0.0,0,0,0.0,-0.01,0.0,-0.01,2.7221098,0,nan,nan,3,0,10
104920000,0,473977508,85456074,488107,0,0.25,0.0,1.0,1.0,0.0,0.0,0,0,0.0,0.0,0.0,0.0,3.6409986,0,nan,nan,3,0,10
105120000,0,473977508,85456074,488107,0,0.25,0.0,1.0,1.0,0.0,0.0,0,0,0.0,0.01,0.0,-0.02,0.032636695,0,nan,nan,3,0,10
105320000,0,473977508,85456073,488111,0,0.25,0.0,1.0,1.0,0.0,0.0,0,0,0.0,0.0,0.0,-0.02,3.9418845,0,nan,nan,3,0,10
105520000,0,473977508,85456074,488106,0,0.25,0.0,1.0,1.0,0.0,0.0,0,0,0.0,-0.01,0.0,-0.01,2.983029,0,nan,nan,3,0,10
105720000,0,473977507,85456074,488107,0,0.25,0.0,1.0,1.0,0.0,0.0,0,0,0.0,0.01,0.0,-0.04,5.866228,0,nan,nan,3,0,10
105920000,0,473977508,85456074,488103,0,0.25,0.0,1.0,1.0,0.0,0.0,0,0,0.0,0.0,-0.01,0.0,4.8330235,0,nan,nan,3,0,10
106120000,0,473977508,85456074,488108,0,0.25,0.0,1.0,1.0,0.0,0.0,0,0,0.0,0.0,-0.01,0.01,4.171912,0,nan,nan,3,0,10
106320000,0,473977508,85456074,488105,0,0.25,0.0,1.0,1.0,0.0,0.0,0,0,0.0,0.0,-0.01,0.0,4.7424436,0,nan,nan,3,0,10
106520000,0,473977508,85456074,488101,0,0.25,0.0,1.0,1.0,0.0,0.0,0,0,0.0,0.0,0.0,-0.01,3.756187,0,nan,nan,3,0,10
106720000,0,473977508,85456074,488107,0,0.25,0.0,1.0,1.0,0.0,0.0,0,0,0.0,0.01,-0.01,0.02,5.5046062,0,nan,nan,3,0,10
106920000,0,473977508,85456074,488098,0,0.25,0.0,1.0,1.0,0.0,0.0,0,0,0.0,0.01,0.0,0.0,0.45761186,0,nan,nan,3,0,10
107120000,0,473977508,85456074,488105,0,0.25,0.0,1.0,1.0,0.0,0.0,0,0,0.0,0.0,-0.01,-0.01,4.808066,0,nan,nan,3,0,10
107320000,0,473977508,85456074,488103,0,0.25,0.0,1.0,1.0,0.0,0.0,0,0,0.0,0.0,0.0,0.0,2.9790146,0,nan,nan,3,0,10
107520000,0,473977508,85456075,488098,0,0.25,0.0,1.0,1.0,0.0,0.0,0,0,0.0,0.0,-0.01,0.04,4.402638,0,nan,nan,3,0,10
107720000,0,473977508,85456074,488093,0,0.25,0.0,1.0,1.0,0.0,0.0,0,0,0.0,0.01,0.0,-0.01,0.04886778,0,nan,nan,3,0,10
107920000,0,473977507,85456074,488103,0,0.25,0.0,1.0,1.0,0.0,0.0,0,0,0.0,0.01,0.02,0.0,1.0796288,0,nan,nan,3,0,10
108120000,0,473977508,85456074,488099,0,0.25,0.0,1.0,1.0,0.0,0.0,0,0,0.0,0.0,0.0,0.03,5.6723275,0,nan,nan,3,0,10
108320000,0,473977508,85456074,488106,0,0.25,0.0,1.0,1.0,0.0,0.0,0,0,0.0,0.0,-0.02,0.0,4.5487175,0,nan,nan,3,0,10
108620000,0,473977508,85456075,488094,0,0.25,0.0,1.0,1.0,0.0,0.0,0,0,0.0,0.0,0.0,-0.03,1.1154071,0,nan,nan,3,0,10
108820000,0,473977508,85456074,488096,0,0.25,0.0,1.0,1.0,0.0,0.0,0,0,0.0,0.0,0.0,-0.04,5.655224,0,nan,nan,3,0,10
109020000,0,473977508,85456074,488096,0,0.25,0.0,1.0,1.0,0.0,0.0,0,0,0.0,0.01,0.0,-0.01,0.20280129,0,nan,nan,3,0,10
