timestamp,lat,lon,alt,alt_ellipsoid,delta_alt,vel_n,vel_e,vel_d,yaw,eph,epv,terrain_alt,lat_lon_reset_counter,alt_reset_counter,terrain_alt_valid,dead_reckoning
11708000,47.397750731855254,8.545607233992023,488.07715,-0.015533447,-0.0,-0.007775833,-0.016255183,0.0061129294,0.40665627,1.2296921,1.0347377,0.0,2,0,0,0
11908000,47.397750721887306,8.545607222477303,488.07376,-0.018554688,-0.0,-0.0061081415,-0.017293101,0.0077040084,0.40735072,1.1906686,1.0338184,0.0,2,0,0,0
12108000,47.39775072265385,8.54560720876051,488.06876,-0.023101807,-0.0,-0.0026189662,-0.019909708,0.008687155,0.40702423,1.1648939,1.0340539,0.0,2,0,0,0
12308000,47.39775073260316,8.54560720426032,488.06326,-0.028015137,-0.0,-0.0013206512,-0.014424561,0.0117863845,0.4066387,1.1470392,1.033965,0.0,2,0,0,0
12508000,47.397750751127646,8.545607224292029,488.0592,-0.031433105,-0.0,-9.340336e-06,-0.006137611,0.0142254075,0.4059189,1.1343044,1.0339328,0.0,2,0,0,0
12708000,47.39775076646415,8.545607253314838,488.05554,-0.03439331,-0.0,0.0006434233,-0.0046943617,0.015450211,0.40588233,1.1250541,1.0344427,0.0,2,0,0,0
12908000,47.3977507781307,8.545607277203061,488.0525,-0.03668213,-0.0,0.003303549,-0.004753553,0.017141674,0.40609682,1.118254,1.0342721,0.0,2,0,0,0
13108000,47.39775079045433,8.54560729247787,488.05273,-0.035705566,-0.0,0.004178167,-0.0014002665,0.016900342,0.40618324,1.1132113,1.0345745,0.0,2,0,0,0
13308000,47.39775080228234,8.545607320974929,488.05438,-0.03338623,-0.0,0.0075573027,0.0023429217,0.014346409,0.40592065,1.1094447,1.0341604,0.0,2,0,0,0
13508000,47.39775081700545,8.54560735813279,488.05768,-0.02947998,-0.0,0.010285772,0.0029115481,0.012100183,0.4056688,1.106612,1.0342313,0.0,2,0,0,0
13708000,47.39775082677534,8.545607380841263,488.06006,-0.026550293,-0.0,0.010312746,0.000912032,0.010687796,0.40557945,1.1044657,1.0336272,0.0,2,0,0,0
13908000,47.397750842252236,8.545607379440149,488.05957,-0.026489258,-0.0,0.0131727075,0.0002049843,0.013712049,0.40610102,1.102826,1.0329604,0.0,2,0,0,0
14108000,47.39775087038797,8.54560734554166,488.05765,-0.027832031,-0.0,0.015421876,-0.002578902,0.0136953,0.4060889,1.1015612,1.0327879,0.0,2,0,0,0
14308000,47.397750890425876,8.545607320930904,488.05597,-0.028930664,-0.0,0.01764266,-0.0038490035,0.014247247,0.40596125,1.1005745,1.032046,0.0,2,0,0,0
14508000,47.39775090473027,8.54560729835886,488.05423,-0.030059814,-0.0,0.018613502,-0.0036695912,0.011648739,0.40590885,1.0997941,1.0317981,0.0,2,0,0,0
14708000,47.39775090942133,8.545607289746961,488.05396,-0.029724121,-0.0,0.017651994,-0.0034152956,0.009030247,0.4054378,1.0991666,1.0310367,0.0,2,0,0,0
14908000,47.39775092132011,8.545607294870111,488.05252,-0.030548096,-0.0,0.018186968,-0.0031386628,0.012005743,0.4054634,1.0986521,1.0307693,0.0,2,0,0,0
15108000,47.39775095162924,8.545607309729819,488.0516,-0.030822754,-0.0,0.021276329,-0.0015942868,0.012956258,0.4053864,1.0982199,1.0300459,0.0,2,0,0,0
15308000,47.397750973599756,8.54560732038994,488.0504,-0.03137207,-0.0,0.024581093,0.00017516942,0.0118271075,0.4056603,1.0978479,1.0293608,0.0,2,0,0,0
15508000,47.397750985665375,8.545607322413876,488.0497,-0.032073975,-0.0,0.019928124,-0.0029909045,0.013786892,0.40575308,1.0975198,1.0291426,0.0,2,0,0,0
15708000,47.39775100193083,8.545607316687878,488.0525,-0.02835083,-0.0,0.023016877,-0.0042033787,0.00985738,0.4061006,1.0963742,1.0285367,0.0,2,0,0,0
15908000,47.397751004848416,8.545607304330575,488.0539,-0.026397705,-0.0,0.02211807,-0.0028810194,0.011112866,0.40633255,1.0953777,1.0283816,0.0,2,0,0,0
16107999,47.39775099286557,8.545607312563552,488.054,-0.025787354,-0.0,0.02283879,-0.0033077071,0.011892545,0.40647784,1.0945029,1.0278683,0.0,2,0,0,0
16308000,47.39775097960662,8.545607335731054,488.05225,-0.027008057,-0.0,0.020370713,-0.0039744703,0.017641203,0.40657738,1.0937285,1.0277963,0.0,2,0,0,0
16508000,47.39775096565099,8.545607340382643,488.04996,-0.028717041,-0.0,0.018836726,-0.0042362623,0.020048682,0.4064027,1.0929765,1.0273874,0.0,2,0,0,0
16715999,47.39775095258314,8.545607343310204,488.04858,-0.029510498,-0.0,0.018498957,-0.0038824792,0.022296768,0.40646222,1.0928086,1.0271511,0.0,2,0,0,0
16916000,47.39775094940328,8.545607331534415,488.0494,-0.02810669,-0.0,0.018885406,-0.005198556,0.022231627,0.40648738,1.0921954,1.0272038,0.0,2,0,0,0
17116000,47.39775095758785,8.545607296067926,488.0493,-0.027679443,-0.0,0.019193323,-0.009187858,0.02311872,0.40633312,1.0916413,1.0269339,0.0,2,0,0,0
17316000,47.397750957131095,8.545607280452392,488.04916,-0.027252197,-0.0,0.018483445,-0.008689221,0.020460384,0.40613493,1.0911388,1.0270743,0.0,2,0,0,0
17516000,47.397750947863216,8.545607276807337,488.049,-0.026855469,-0.0,0.015756724,-0.007525288,0.017854398,0.40584242,1.0906821,1.0268877,0.0,2,0,0,0
17716000,47.39775093586539,8.545607278411554,488.04675,-0.028564453,-0.0,0.015731638,-0.008803665,0.01844194,0.40631223,1.0902668,1.0271001,0.0,2,0,0,0
17916000,47.39775093538252,8.545607277366624,488.04575,-0.0289917,-0.0,0.019128352,-0.010435792,0.021739855,0.4062217,1.0898893,1.0269817,0.0,2,0,0,0
18116000,47.39775094093666,8.54560726919161,488.0444,-0.029724121,-0.0,0.023163125,-0.013786265,0.020531084,0.40617862,1.0895464,1.0268873,0.0,2,0,0,0
18316000,47.397750948519445,8.545607259850431,488.0442,-0.029327393,-0.0,0.020508464,-0.015172495,0.022897856,0.40620768,1.0892353,1.0271773,0.0,2,0,0,0
18516000,47.39775096311854,8.545607234176163,488.04373,-0.029205322,-0.0,0.02286201,-0.019537842,0.022577133,0.40613657,1.0889547,1.027118,0.0,2,0,0,0
18716000,47.39775097518412,8.545607199343777,488.04358,-0.028778076,-0.0,0.019286074,-0.023999667,0.023807045,0.405859,1.0887029,1.0274419,0.0,2,0,0,0
18916000,47.39775097452496,8.545607184647496,488.04303,-0.028747559,-0.0,0.01784116,-0.022610618,0.023327729,0.40597445,1.0884782,1.0273967,0.0,2,0,0,0
19116000,47.39775095982419,8.545607185904332,488.04343,-0.027770996,-0.0,0.017612474,-0.022524359,0.022388598,0.40551344,1.0882792,1.027732,0.0,2,0,0,0
19316000,47.39775095371434,8.54560720516793,488.04404,-0.026611328,-0.0,0.017817535,-0.022578359,0.018862788,0.40553287,1.0881047,1.027689,0.0,2,0,0,0
19516000,47.397750950219454,8.545607237896904,488.04486,-0.025268555,-0.0,0.0161884,-0.019867217,0.02020478,0.40542084,1.0879534,1.0276389,0.0,2,0,0,0
19716000,47.397750955761474,8.545607255956165,488.04517,-0.024475098,-0.0,0.017443113,-0.019307628,0.017738245,0.40553263,1.0878239,1.0279676,0.0,2,0,0,0
19916000,47.397750968819196,8.545607263495894,488.04437,-0.024780273,-0.0,0.019191008,-0.01884965,0.0180862,0.40555114,1.0877143,1.027902,0.0,2,0,0,0
20116000,47.3977509748798,8.545607265657148,488.0414,-0.02722168,-0.0,0.017453741,-0.02029398,0.02028954,0.4055324,1.0876234,1.0282214,0.0,2,0,0,0
20316000,47.39775097483513,8.545607262819567,488.04065,-0.027435303,-0.0,0.014714236,-0.020133018,0.018813817,0.4056096,1.0875492,1.0281329,0.0,2,0,0,0
20516000,47.39775096493398,8.545607255494936,488.0398,-0.027740479,-0.0,0.010738958,-0.021895166,0.020576773,0.40556687,1.0874902,1.028432,0.0,2,0,0,0
20716000,47.397750955792546,8.545607240944882,488.04092,-0.025817871,-0.0,0.008106939,-0.019957375,0.021749916,0.4055955,1.1000127,1.0286623,0.0,2,0,0,0
20916000,47.397750942267685,8.545607243364568,488.04257,-0.02368164,-0.0,0.0058755334,-0.020683585,0.02234437,0.40585822,1.0991845,1.0285273,0.0,2,0,0,0
21116000,47.39775093005324,8.545607237643338,488.04337,-0.02243042,-0.0,0.0010798869,-0.018448608,0.02128884,0.4059037,1.0984601,1.028791,0.0,2,0,0,0
21316000,47.39775092178134,8.545607241292315,488.04257,-0.022766113,-0.0,0.001180412,-0.019557463,0.020267831,0.40586594,1.0978264,1.0286349,0.0,2,0,0,0
21516000,47.3977509202032,8.545607249650715,488.0417,-0.02319336,-0.0,0.0022461289,-0.018885013,0.018957322,0.4057006,1.0972716,1.0288849,0.0,2,0,0,0
21716000,47.39775091032899,8.545607261451272,488.043,-0.021453857,-0.0,-0.0021208238,-0.01814652,0.018536976,0.40581658,1.0967861,1.0287097,0.0,2,0,0,0
21916000,47.397750892786355,8.54560727061477,488.04498,-0.019073486,-0.0,-0.003824067,-0.019967841,0.019058645,0.40565807,1.0963614,1.028942,0.0,2,0,0,0
22116000,47.39775087489325,8.545607276675673,488.04648,-0.017211914,-0.0,-0.008221516,-0.019811912,0.020174306,0.4053746,1.0959893,1.0287563,0.0,2,0,0,0
22316000,47.397750855957455,8.545607279508452,488.04956,-0.0138549805,-0.0,-0.007349578,-0.018403236,0.020041637,0.40523788,1.0956634,1.0285653,0.0,2,0,0,0
22516000,47.397750843802804,8.545607276752362,488.05023,-0.012908936,-0.0,-0.006049915,-0.01957148,0.022242913,0.40523776,1.0953774,1.0287805,0.0,2,0,0,0
22716000,47.3977508392391,8.545607273239604,488.04825,-0.014587402,-0.0,-0.0053464673,-0.019362342,0.0260333,0.40507266,1.0951257,1.0285829,0.0,2,0,0,0
22916000,47.397750843696436,8.545607270128643,488.04498,-0.017486572,-0.0,-0.0008862526,-0.01787667,0.026446229,0.40510428,1.0949036,1.0287962,0.0,2,0,0,0
23116000,47.397750865030076,8.545607272283416,488.0402,-0.021850586,-0.0,-0.0012479872,-0.015864711,0.030067815,0.40516636,1.0947071,1.0285934,0.0,2,0,0,0
23316000,47.397750876208846,8.545607277908713,488.03616,-0.025360107,-0.0,-6.9868947e-06,-0.014696813,0.029153978,0.40491605,1.0945321,1.028801,0.0,2,0,0,0
23516000,47.397750879566445,8.545607290472272,488.0344,-0.02658081,-0.0,0.00205316,-0.0105117485,0.029469004,0.4047183,1.0943758,1.0286002,0.0,2,0,0,0
23716000,47.39775088068043,8.545607290163199,488.03314,-0.027282715,-0.0,0.0017815289,-0.0102325035,0.030485002,0.40442196,1.0942345,1.0283997,0.0,2,0,0,0
23916000,47.3977508865738,8.545607282694926,488.03442,-0.025482178,-0.0,0.002844079,-0.012406729,0.02595821,0.4043226,1.0941055,1.0286055,0.0,2,0,0,0
24116000,47.397750877968306,8.54560727230857,488.0358,-0.023620605,-0.0,0.0010271418,-0.014763354,0.024599683,0.4046159,1.093987,1.0284076,0.0,2,0,0,0
24316000,47.39775086049504,8.545607258751096,488.0373,-0.02166748,-0.0,-0.0010814979,-0.018163167,0.025701141,0.4049014,1.0938764,1.028619,0.0,2,0,0,0
24516000,47.397750840517126,8.545607226875733,488.04062,-0.017974854,-0.0,-0.0021936595,-0.01840132,0.024835523,0.4049362,1.0937718,1.0284227,0.0,2,0,0,0
24716000,47.39775082614094,8.54560721703503,488.04205,-0.016204834,-0.0,-0.0031164687,-0.020106476,0.025261575,0.40505698,1.093672,1.0286343,0.0,2,0,0,0
24916000,47.397750802950455,8.545607184465386,488.0412,-0.016723633,-0.0,-0.0033971549,-0.019806629,0.027390301,0.40518922,1.0935754,1.0284442,0.0,2,0,0,0
25116000,47.39775079270255,8.545607166946718,488.03833,-0.019195557,-0.0,-0.0053965747,-0.018860696,0.027884955,0.4057481,1.0934805,1.0282558,0.0,2,0,0,0
25316000,47.39775079206,8.54560716478586,488.03513,-0.021942139,-0.0,-0.0050429907,-0.017668769,0.027855696,0.4057249,1.0933872,1.0284708,0.0,2,0,0,0
25516000,47.3977507953534,8.545607141060197,488.0324,-0.024169922,-0.0,-0.0085815145,-0.017740516,0.026879812,0.40570053,1.093295,1.0282866,0.0,2,0,0,0
25716000,47.397750793601105,8.545607133822898,488.0313,-0.024749756,-0.0,-0.009531703,-0.015069692,0.028884131,0.4055062,1.0932028,1.0285087,0.0,2,0,0,0
25916000,47.397750784216925,8.54560715127559,488.03296,-0.023101807,-0.0,-0.011056296,-0.010002725,0.031627942,0.40550917,1.09311,1.0283262,0.0,2,0,0,0
26116000,47.397750770618494,8.545607165038872,488.03366,-0.021728516,-0.0,-0.010964418,-0.009649055,0.031245917,0.40518212,1.0922918,1.0285386,0.0,2,0,0,0
26316000,47.39775075660179,8.54560718473671,488.03427,-0.020690918,-0.0,-0.014157318,-0.009324798,0.032565616,0.40499976,1.091561,1.0283519,0.0,2,0,0,0
26516000,47.39775074755472,8.545607213616444,488.03323,-0.02130127,-0.0,-0.014950102,-0.0057819076,0.036155,0.40481707,1.0909059,1.0281658,0.0,2,0,0,0
26716000,47.39775074265709,8.545607249728011,488.03183,-0.022277832,-0.0,-0.017060129,-0.0036818131,0.03577931,0.40496096,1.0903172,1.02838,0.0,2,0,0,0
26916000,47.397750733255194,8.545607297133433,488.03268,-0.020965576,-0.0,-0.01801345,-0.0009240354,0.038221642,0.40515777,1.0897866,1.0281967,0.0,2,0,0,0
27116000,47.39775072766574,8.545607341035636,488.0329,-0.020355225,-0.0,-0.019600948,0.0047797696,0.037640177,0.40521902,1.0893077,1.0284166,0.0,2,0,0,0
27316000,47.39775071670081,8.545607388900992,488.03067,-0.022155762,-0.0,-0.020730939,0.007988108,0.042729646,0.4052713,1.0888739,1.0282338,0.0,2,0,0,0
27516000,47.397750703182595,8.545607425417158,488.02722,-0.025115967,-0.0,-0.023560213,0.010131106,0.04997847,0.40561163,1.0884804,1.0284525,0.0,2,0,0,0
27716000,47.397750689303464,8.545607443851923,488.02524,-0.02658081,-0.0,-0.024901519,0.011713473,0.050104253,0.40563363,1.0881221,1.0282739,0.0,2,0,0,0
27916000,47.39775067221334,8.545607454131256,488.02234,-0.028930664,-0.0,-0.023359848,0.013994489,0.05252035,0.405822,1.0877956,1.0280956,0.0,2,0,0,0
28116000,47.397750668646914,8.545607455933892,488.0169,-0.03375244,-0.0,-0.024244245,0.012855454,0.05481725,0.4058751,1.0874977,1.028315,0.0,2,0,0,0
28316000,47.39775066168138,8.545607449088182,488.01147,-0.03845215,-0.0,-0.026586788,0.011347747,0.054654304,0.4061122,1.0872253,1.0281383,0.0,2,0,0,0
28516000,47.39775064875138,8.545607450224594,488.00763,-0.041503906,-0.0,-0.030558188,0.011086284,0.057925437,0.4062299,1.0869756,1.0283625,0.0,2,0,0,0
28716000,47.39775063624214,8.545607457747469,488.0029,-0.04534912,-0.0,-0.029109783,0.010572904,0.06418588,0.40615183,1.0867462,1.0281852,0.0,2,0,0,0
28916000,47.39775063971683,8.545607479949595,487.99814,-0.04916382,-0.0,-0.027108582,0.0136980275,0.064053886,0.4061997,1.0865347,1.0284079,0.0,2,0,0,0
29116000,47.397750642028974,8.545607491032118,487.99454,-0.051757812,-0.0,-0.023641732,0.009034659,0.0665777,0.40607467,1.0863391,1.0282341,0.0,2,0,0,0
29316000,47.397750645874275,8.54560749513615,487.98816,-0.057037354,-0.0,-0.022269957,0.011308489,0.06822262,0.40622607,1.0861583,1.0280602,0.0,2,0,0,0
29516000,47.39775064347893,8.54560749238144,487.98245,-0.061553955,-0.0,-0.02242371,0.006392274,0.06916007,0.4062578,1.0859902,1.0282825,0.0,2,0,0,0
29716000,47.39775062917488,8.5456074874524,487.97583,-0.06689453,-0.0,-0.027522992,0.0062669497,0.06850661,0.4065004,1.0858339,1.0281094,0.0,2,0,0,0
29916000,47.39775061319183,8.545607478532158,487.9727,-0.06866455,-0.0,-0.025176026,0.0043358007,0.068960115,0.40635443,1.0856881,1.0283363,0.0,2,0,0,0
30116000,47.39775060293228,8.54560745317962,487.97366,-0.0663147,-0.0,-0.02264659,0.00016786669,0.06578917,0.40644753,1.0855517,1.0281621,0.0,2,0,0,0
30316000,47.39775060086999,8.545607436461617,487.97485,-0.063812256,-0.0,-0.023158025,-0.0057001906,0.06643851,0.40663278,1.0854238,1.0283871,0.0,2,0,0,0
30516000,47.39775060241137,8.545607414304348,487.97668,-0.060699463,-0.0,-0.0221385,-0.005813193,0.065597504,0.40637282,1.0853034,1.0282159,0.0,2,0,0,0
30716000,47.3977506107707,8.545607401617731,487.9794,-0.056793213,-0.0,-0.019755032,-0.0065222126,0.06289235,0.4064433,1.0851895,1.0280441,0.0,2,0,0,0
30916000,47.39775061232891,8.545607390548225,487.97977,-0.054748535,-0.0,-0.01842116,-0.005515606,0.06483854,0.40629518,1.0961751,1.0285904,0.0,2,0,0,0
31116000,47.39775061311445,8.545607365164733,487.97754,-0.055847168,-0.0,-0.018857898,-0.012095281,0.06585016,0.40593,1.0954034,1.0284061,0.0,2,0,0,0
31316000,47.39775061702588,8.545607335673724,487.9762,-0.05606079,-0.0,-0.018359505,-0.014709076,0.06569849,0.4054495,1.094709,1.02863,0.0,2,0,0,0
31516000,47.39775062494985,8.545607293569027,487.97745,-0.053710938,-0.0,-0.016283674,-0.017128404,0.06414981,0.40479052,1.0940835,1.0284442,0.0,2,0,0,0
31716000,47.397750636939584,8.545607267357868,487.97955,-0.050567627,-0.0,-0.014037965,-0.020318309,0.062287048,0.4051888,1.0935191,1.0286654,0.0,2,0,0,0
31916000,47.39775065663851,8.545607247142351,487.9811,-0.048034668,-0.0,-0.015099214,-0.02062741,0.0626512,0.40543604,1.0930094,1.0284828,0.0,2,0,0,0
32115999,47.39775067287217,8.545607228292335,487.9823,-0.04586792,-0.0,-0.008996896,-0.025112089,0.06159986,0.40498444,1.0925484,1.0283,0.0,2,0,0,0
32316000,47.39775068320423,8.545607218135356,487.98154,-0.045684814,-0.0,-0.006536453,-0.027832007,0.06113401,0.40470886,1.0920835,1.0285217,0.0,2,0,0,0
32516000,47.39775069950358,8.545607199295436,487.9823,-0.044006348,-0.0,-0.005325256,-0.027749456,0.06065959,0.4051748,1.0916158,1.0283468,0.0,2,0,0,0
32716000,47.39775070757723,8.545607178536173,487.9819,-0.044403076,-0.0,-0.0019900852,-0.03218112,0.062286347,0.40524134,1.0911936,1.0285733,0.0,2,0,0,0
32923999,47.39775070797824,8.545607143280547,487.97913,-0.04626465,-0.0,-0.004219048,-0.033880893,0.06078388,0.40534526,1.0911965,1.0285407,0.0,2,0,0,0
33124000,47.397750705223366,8.545607114327387,487.97763,-0.046813965,-0.0,-0.004093659,-0.03810842,0.05715306,0.40507415,1.0907613,1.028361,0.0,2,0,0,0
33324000,47.397750716079024,8.545607106663777,487.98126,-0.042236328,-0.0,-0.00097488816,-0.036871947,0.05134151,0.4051999,1.090369,1.028185,0.0,2,0,0,0
33524000,47.397750726411736,8.545607098046005,487.98584,-0.0368042,-0.0,-0.0014057407,-0.039568063,0.050402705,0.40509754,1.0899701,1.0284182,0.0,2,0,0,0
33724000,47.39775072943036,8.545607094198484,487.98737,-0.03451538,-0.0,-0.0015512716,-0.040007792,0.04774009,0.4050396,1.0895654,1.0282438,0.0,2,0,0,0
33924000,47.39775073217928,8.545607085630134,487.98984,-0.03137207,-0.0,-0.00066547585,-0.04162587,0.043258674,0.40512773,1.0892005,1.0284766,0.0,2,0,0,0
34124000,47.39775073372888,8.545607074185869,487.99237,-0.028198242,-0.0,-0.002022434,-0.042339925,0.037226453,0.40536353,1.0888718,1.0283035,0.0,2,0,0,0
34324000,47.397750737296505,8.545607062932426,487.99835,-0.02166748,-0.0,-0.0026678937,-0.0427761,0.032897,0.40549254,1.088576,1.0281293,0.0,2,0,0,0
34524000,47.39775073713782,8.545607048147723,488.0036,-0.015991211,-0.0,-0.0058300807,-0.042628553,0.02759108,0.4056362,1.0883094,1.028357,0.0,2,0,0,0
34724000,47.39775073263599,8.545607049879028,488.0058,-0.0134887695,-0.0,-0.008156048,-0.037995115,0.023712367,0.40560794,1.0880694,1.0281848,0.0,2,0,0,0
34924000,47.39775072725676,8.54560705678064,488.0076,-0.011413574,-0.0,-0.008841921,-0.03899847,0.022892186,0.40568036,1.0878534,1.0284117,0.0,2,0,0,0
35124000,47.39775071883735,8.545607055240108,488.01102,-0.0077819824,-0.0,-0.014004035,-0.038493063,0.020600798,0.4056083,1.087659,1.0282351,0.0,2,0,0,0
35324000,47.39775071166616,8.545607066121287,488.01648,-0.002166748,-0.0,-0.01467016,-0.035951342,0.017576594,0.40570286,1.0874839,1.0284659,0.0,2,0,0,0
35524000,47.39775070508061,8.54560707718084,488.0216,0.0029907227,-0.0,-0.017930707,-0.03564043,0.013811869,0.40593156,1.087326,1.0282916,0.0,2,0,0,0
35724000,47.397750698080785,8.5456070878953,488.02512,0.006439209,-0.0,-0.017971503,-0.034349903,0.012477434,0.40592396,1.087184,1.0281167,0.0,2,0,0,0
35924000,47.39775069143157,8.545607086048971,488.0297,0.010864258,-0.0,-0.018408498,-0.036932927,0.008859256,0.40596297,1.0870559,1.0283437,0.0,2,0,0,0
36124000,47.39775067871285,8.545607068507291,488.03445,0.015380859,-0.0,-0.022984475,-0.03639801,0.0069380193,0.40554363,1.0869406,1.0281714,0.0,2,0,0,0
36324000,47.39775066359369,8.545607039256403,488.03906,0.019683838,-0.0,-0.025828583,-0.03602397,0.0036384976,0.4055683,1.0868366,1.0283984,0.0,2,0,0,0
36524000,47.39775064310716,8.545607014190285,488.04492,0.025146484,-0.0,-0.029260604,-0.034530304,0.00089755486,0.40536204,1.0867428,1.0282222,0.0,2,0,0,0
36724000,47.39775061478595,8.545607013662215,488.04846,0.028167725,-0.0,-0.031653292,-0.033793837,0.0013903619,0.40552086,1.0866579,1.0284534,0.0,2,0,0,0
36924000,47.39775058279529,8.545607013978257,488.05115,0.030273438,-0.0,-0.03419708,-0.033421427,0.0010135056,0.4054458,1.086581,1.02828,0.0,2,0,0,0
37124000,47.397750558310676,8.545607010557914,488.0554,0.03390503,-0.0,-0.033887867,-0.032247275,-0.0022382787,0.40552658,1.0865111,1.0281061,0.0,2,0,0,0
37324000,47.39775054546302,8.545607012667498,488.06012,0.03793335,-0.0,-0.033990372,-0.031223316,0.0011392953,0.40567046,1.0864477,1.0283338,0.0,2,0,0,0
37524000,47.39775053667453,8.545607019100405,488.06168,0.038726807,-0.0,-0.03540584,-0.030841406,0.0044247066,0.4058945,1.0863897,1.0281625,0.0,2,0,0,0
37724000,47.39775053141975,8.545607017125691,488.06424,0.040496826,-0.0,-0.03407556,-0.029387252,0.0045177364,0.4059488,1.0863364,1.0283903,0.0,2,0,0,0
37924000,47.39775052664981,8.545607037748265,488.0656,0.041046143,-0.0,-0.03394891,-0.025685033,0.009502275,0.40606457,1.0862874,1.0282152,0.0,2,0,0,0
38124000,47.39775052552137,8.545607059182382,488.06638,0.040985107,-0.0,-0.030524705,-0.022542112,0.01032908,0.40626207,1.0862421,1.0284472,0.0,2,0,0,0
38324000,47.39775053135177,8.545607063510682,488.06635,0.040130615,-0.0,-0.029984262,-0.023862906,0.013402544,0.4063436,1.0862,1.0282747,0.0,2,0,0,0
38524000,47.397750522096864,8.545607038801313,488.0641,0.036712646,-0.0,-0.031104667,-0.027319675,0.016137337,0.4062795,1.0856686,1.0280929,0.0,2,0,0,0
38724000,47.39775051975784,8.545607023875556,488.06165,0.03353882,-0.0,-0.030529318,-0.027940989,0.02289428,0.40627182,1.0851872,1.028312,0.0,2,0,0,0
38924000,47.39775052322399,8.545607012554404,488.05774,0.029022217,-0.0,-0.028303558,-0.031459823,0.030111277,0.40632948,1.0847509,1.0281327,0.0,2,0,0,0
39124000,47.397750535579256,8.545606999728975,488.05325,0.024017334,-0.0,-0.026886618,-0.032670967,0.033336766,0.40641767,1.0843555,1.0283514,0.0,2,0,0,0
39324000,47.39775054116675,8.545606996767882,488.0478,0.018127441,-0.0,-0.030481579,-0.031996515,0.03688644,0.40645897,1.0839971,1.0281683,0.0,2,0,0,0
39524000,47.397750545014006,8.545607010379713,488.04294,0.012969971,-0.0,-0.027362991,-0.0289162,0.04404607,0.40640697,1.083673,1.028391,0.0,2,0,0,0
39724000,47.397750552170905,8.545607030023579,488.03854,0.008361816,-0.0,-0.025180876,-0.025910426,0.0498759,0.406551,1.0833801,1.0282109,0.0,2,0,0,0
39924000,47.3977505605546,8.545607036782252,488.03323,0.002960205,-0.0,-0.024080688,-0.025004754,0.052924287,0.40672594,1.0831153,1.0280306,0.0,2,0,0,0
40124000,47.3977505763042,8.545607041019187,488.02744,-0.0028381348,-0.0,-0.02297162,-0.024625998,0.057735544,0.40739942,1.0828763,1.0282502,0.0,2,0,0,0
40324000,47.39775058828719,8.545607052382703,488.02197,-0.008178711,-0.0,-0.021716377,-0.025207756,0.06303852,0.40751123,1.0826613,1.0280732,0.0,2,0,0,0
40524000,47.397750599218305,8.545607069371298,488.01648,-0.013427734,-0.0,-0.020495126,-0.021486297,0.068944424,0.4073941,1.0824678,1.0282929,0.0,2,0,0,0
40724000,47.3977506124016,8.545607082281261,488.01242,-0.017150879,-0.0,-0.025565717,-0.02295623,0.07145799,0.4075091,1.0822937,1.0281128,0.0,2,0,0,0
40924000,47.39775061955237,8.545607093695214,488.0072,-0.021972656,-0.0,-0.023631817,-0.02225098,0.07639928,0.40764806,1.0821378,1.028337,0.0,2,0,0,0
41124000,47.39775062338205,8.54560710765065,487.99832,-0.030334473,-0.0,-0.02623724,-0.019942772,0.08313558,0.40780312,1.0819985,1.0281602,0.0,2,0,0,0
41324000,47.397750624037144,8.545607124719298,487.989,-0.038909912,-0.0,-0.025233578,-0.01828197,0.0867486,0.4077437,1.0818735,1.0279834,0.0,2,0,0,0
41524000,47.39775062214976,8.545607156854466,487.98096,-0.046081543,-0.0,-0.026838228,-0.012670988,0.08885052,0.40792024,1.0817622,1.028205,0.0,2,0,0,0
41724000,47.39775061765877,8.54560718304119,487.97504,-0.050994873,-0.0,-0.025904872,-0.009830997,0.08932648,0.40798625,1.0816633,1.0280316,0.0,2,0,0,0
41924000,47.397750610754905,8.545607220499818,487.9683,-0.056640625,-0.0,-0.024736842,-0.00583414,0.09128178,0.40804276,1.0815753,1.0282537,0.0,2,0,0,0
42124000,47.397750608913285,8.545607250574596,487.9643,-0.059448242,-0.0,-0.021848148,-0.0039927936,0.09067658,0.40826893,1.0814977,1.0280772,0.0,2,0,0,0
42324000,47.39775060471685,8.545607274327061,487.96335,-0.0592041,-0.0,-0.024756752,-0.00042416636,0.089063525,0.40858203,1.0814289,1.0283039,0.0,2,0,0,0
42524000,47.397750609131016,8.545607301417771,487.9631,-0.058258057,-0.0,-0.022644132,0.0038577872,0.089112565,0.4089939,1.0813684,1.0281305,0.0,2,0,0,0
42724000,47.39775061257014,8.545607332044394,487.9626,-0.057617188,-0.0,-0.022262298,0.0074040783,0.08831653,0.4091437,1.0813153,1.027957,0.0,2,0,0,0
42924000,47.39775062209683,8.545607361724748,487.96063,-0.058410645,-0.0,-0.019327616,0.009397153,0.09177849,0.4094138,1.0812687,1.0281811,0.0,2,0,0,0
43124000,47.3977506347923,8.545607387026363,487.9593,-0.058563232,-0.0,-0.016305674,0.012316978,0.09071963,0.40969735,1.0812275,1.0280106,0.0,2,0,0,0
43324000,47.39775064991955,8.545607414729595,487.95804,-0.058624268,-0.0,-0.010476378,0.016724769,0.092485346,0.40990475,1.0811913,1.028235,0.0,2,0,0,0
43524000,47.397750661003776,8.545607445569042,487.95663,-0.060028076,-0.0,-0.009874914,0.017722126,0.091060385,0.41013506,1.0910472,1.0283805,0.0,2,0,0,0
43724000,47.39775066523448,8.545607487129791,487.95517,-0.059692383,-0.0,-0.010413797,0.024961084,0.09208713,0.41031522,1.0904385,1.0286044,0.0,2,0,0,0
43924000,47.397750661253525,8.545607537136606,487.95273,-0.060943604,-0.0,-0.013846182,0.028014384,0.09478999,0.4102608,1.0898896,1.0284194,0.0,2,0,0,0
44124000,47.397750659749114,8.545607584250831,487.9505,-0.061950684,-0.0,-0.013725991,0.029383704,0.09322039,0.41056633,1.0893949,1.0282341,0.0,2,0,0,0
44324000,47.39775066521377,8.545607622038641,487.94684,-0.06436157,-0.0,-0.012091335,0.031417966,0.09310385,0.41066563,1.0889493,1.0284543,0.0,2,0,0,0
44524000,47.39775066560386,8.545607649471709,487.9436,-0.06628418,-0.0,-0.011238506,0.03304914,0.09039391,0.4108324,1.0885481,1.0282722,0.0,2,0,0,0
44724000,47.39775066509497,8.545607671161683,487.9439,-0.06463623,-0.0,-0.012383377,0.034296606,0.088554025,0.4109142,1.0881876,1.0284923,0.0,2,0,0,0
44924000,47.39775066774741,8.545607687473256,487.9473,-0.05996704,-0.0,-0.009313927,0.034091644,0.08560967,0.41124004,1.0878637,1.0283072,0.0,2,0,0,0
45124000,47.3977506811968,8.54560769644837,487.94986,-0.05621338,-0.0,-0.006551126,0.037667636,0.08664585,0.41119373,1.0875732,1.0285318,0.0,2,0,0,0
45324000,47.39775069203854,8.545607720125727,487.95108,-0.053863525,-0.0,-0.00747627,0.03600448,0.08313939,0.41139862,1.0873128,1.02835,0.0,2,0,0,0
45524000,47.39775069752748,8.545607748771829,487.94955,-0.05432129,-0.0,-0.008873448,0.0362617,0.08079694,0.4115961,1.0870802,1.0281681,0.0,2,0,0,0
45724000,47.397750703653124,8.545607775165955,487.94794,-0.054840088,-0.0,-0.004752244,0.03464848,0.080189414,0.4117999,1.0868728,1.02839,0.0,2,0,0,0
45924000,47.397750713427214,8.545607781717647,487.94623,-0.05545044,-0.0,-0.003972458,0.032804616,0.07696582,0.41191083,1.0866883,1.0282117,0.0,2,0,0,0
46124000,47.397750713712654,8.545607781438553,487.94122,-0.059326172,-0.0,-0.0014349353,0.032077666,0.081890345,0.411687,1.0865244,1.0284343,0.0,2,0,0,0
46324000,47.39775072920675,8.54560777623828,487.93698,-0.06237793,-0.0,0.00015993344,0.027796859,0.082036264,0.4118659,1.086379,1.028253,0.0,2,0,0,0
46524000,47.3977507574742,8.545607772491676,487.93637,-0.06173706,-0.0,0.005053442,0.02177898,0.0799318,0.41206965,1.0862504,1.0284802,0.0,2,0,0,0
46724000,47.397750784674,8.545607762154035,487.93878,-0.05810547,-0.0,0.0049523804,0.019615574,0.07194854,0.4123502,1.086137,1.0283026,0.0,2,0,0,0
46924000,47.397750798444285,8.545607748136655,487.94183,-0.053894043,-0.0,0.0034650548,0.017876705,0.06712978,0.41263443,1.0860378,1.0281248,0.0,2,0,0,0
47124000,47.39775081020659,8.545607736033038,487.9422,-0.052459717,-0.0,0.007866996,0.019242158,0.06630567,0.41265005,1.0859507,1.0283495,0.0,2,0,0,0
47324000,47.397750819751764,8.545607729393867,487.94287,-0.050750732,-0.0,0.0057066544,0.020316865,0.064297356,0.41250792,1.0858748,1.0281752,0.0,2,0,0,0
47524000,47.39775082093425,8.545607716998832,487.94653,-0.046081543,-0.0,0.002746771,0.019642146,0.06418247,0.4126972,1.0858086,1.0284005,0.0,2,0,0,0
47724000,47.39775081610152,8.545607705371168,487.9494,-0.042297363,-0.0,0.0019477884,0.017074302,0.06543363,0.4130791,1.0857508,1.028223,0.0,2,0,0,0
47924000,47.3977508078479,8.545607697577662,487.95187,-0.038970947,-0.0,0.0021010363,0.015811574,0.0643023,0.41325128,1.0857005,1.0284529,0.0,2,0,0,0
48124000,47.397750801041255,8.54560769652563,487.95682,-0.03326416,-0.0,0.0022668855,0.016117303,0.06146046,0.4133111,1.0856568,1.0282787,0.0,2,0,0,0
48324000,47.397750791233534,8.545607688130158,487.96396,-0.025482178,-0.0,-0.0038338827,0.013743587,0.06089286,0.41343853,1.085619,1.0281041,0.0,2,0,0,0
48524000,47.397750767228814,8.545607670693327,487.97067,-0.01828003,-0.0,-0.007292186,0.011610108,0.060508434,0.4136568,1.0855863,1.0283312,0.0,2,0,0,0
48724000,47.39775073368164,8.545607648149616,487.97736,-0.011260986,-0.0,-0.011072209,0.014482952,0.057781365,0.41392154,1.085558,1.0281596,0.0,2,0,0,0
48924000,47.39775070615282,8.545607647865845,487.9801,-0.008239746,-0.0,-0.00944211,0.01436395,0.058871236,0.41427624,1.0850167,1.0283773,0.0,2,0,0,0
49124000,47.3977507011474,8.545607641824182,487.98447,-0.0037841797,-0.0,-0.009551083,0.012596537,0.06062964,0.414442,1.0845273,1.0281924,0.0,2,0,0,0
49324000,47.397750697503106,8.545607636124396,487.98627,-0.0019226074,-0.0,-0.012647883,0.014958486,0.061376564,0.41444746,1.0840845,1.0284139,0.0,2,0,0,0
49524000,47.397750690110186,8.545607636209674,487.988,-0.00018310547,-0.0,-0.017401058,0.017817453,0.061988756,0.41443962,1.0836841,1.0282319,0.0,2,0,0,0
49724000,47.39775067830138,8.545607639119911,487.9887,0.0005187988,-0.0,-0.018260816,0.023445353,0.060643364,0.41435298,1.0833224,1.0280496,0.0,2,0,0,0
49924000,47.397750665652815,8.545607660607557,487.98718,-0.0010070801,-0.0,-0.018215418,0.027535785,0.06198287,0.414332,1.0829961,1.0282676,0.0,2,0,0,0
50124000,47.397750657785984,8.545607676189473,487.98642,-0.001739502,-0.0,-0.019408213,0.030919844,0.06116096,0.41430634,1.082702,1.0280886,0.0,2,0,0,0
50324000,47.397750648339176,8.54560768349641,487.98697,-0.001159668,-0.0,-0.022950733,0.033955973,0.06086903,0.4142689,1.0824375,1.0283067,0.0,2,0,0,0
50524000,47.397750634748995,8.545607700558476,487.98758,-0.0005187988,-0.0,-0.0266511,0.032611247,0.060285002,0.41433877,1.0822,1.0281246,0.0,2,0,0,0
50724000,47.397750613872525,8.545607725115728,487.98822,0.00012207031,-0.0,-0.02774938,0.034003794,0.06395073,0.41444024,1.0819869,1.0283473,0.0,2,0,0,0
50924000,47.397750589241646,8.545607767536247,487.98962,0.0014953613,-0.0,-0.028528126,0.037325937,0.06163695,0.4145432,1.0817963,1.0281684,0.0,2,0,0,0
51132000,47.397750575901455,8.545607797666976,487.98944,0.0012817383,-0.0,-0.02825028,0.03529471,0.061331213,0.41463846,1.0819927,1.0281384,0.0,2,0,0,0
51324000,47.39775056348242,8.545607806221247,487.98718,-0.0009765625,-0.0,-0.026918951,0.03628108,0.06186949,0.41480827,1.0814744,1.0282097,0.0,2,0,0,0
51524000,47.39775054919327,8.54560780515209,487.98734,-0.00079345703,-0.0,-0.027945181,0.035091635,0.060919486,0.41468415,1.0813396,1.0280343,0.0,2,0,0,0
51724000,47.397750546831055,8.545607806494724,487.98758,-0.0005493164,-0.0,-0.028521027,0.034521636,0.06266008,0.41471502,1.0812201,1.028255,0.0,2,0,0,0
51924000,47.3977505442764,8.545607809354824,487.98807,-6.1035156e-05,-0.0,-0.027507717,0.034754816,0.062342096,0.41489306,1.0811146,1.0280766,0.0,2,0,0,0
52124000,47.397750546405035,8.545607806702025,487.9883,0.00018310547,-0.0,-0.023916438,0.033732556,0.059014697,0.4150934,1.0810215,1.0283018,0.0,2,0,0,0
52332000,47.39775055491654,8.545607819292757,487.9886,0.00045776367,-0.0,-0.022507804,0.03345892,0.06004575,0.4153303,1.0813038,1.0282763,0.0,2,0,0,0
52524000,47.39775056385296,8.545607829050583,487.9894,0.0012512207,-0.0,-0.022251466,0.032420564,0.06318046,0.4155834,1.0808682,1.0279522,0.0,2,0,0,0
52724000,47.39775056406769,8.545607845807325,487.99057,0.002380371,-0.0,-0.019032795,0.03537818,0.06267648,0.41603145,1.0808057,1.0281749,0.0,2,0,0,0
52932000,47.39775057230671,8.545607861149794,487.99136,0.003112793,-0.0,-0.017553391,0.036750402,0.062253363,0.4164409,1.0811146,1.0281519,0.0,2,0,0,0
53124000,47.39775058243112,8.54560787537846,487.99207,0.003753662,-0.0,-0.01343278,0.037142444,0.06229657,0.41653126,1.0807036,1.0282265,0.0,2,0,0,0
53324000,47.397750588172805,8.545607888355093,487.9919,0.0035095215,-0.0,-0.0136733195,0.034848303,0.06040177,0.41692626,1.0806625,1.0280516,0.0,2,0,0,0
53532000,47.39775058669804,8.545607898014921,487.9899,0.0014343262,-0.0,-0.012199763,0.033878934,0.06432262,0.4170357,1.0809907,1.0280309,0.0,2,0,0,0
53724000,47.397750592804506,8.545607916325014,487.9862,-0.0022583008,-0.0,-0.011302201,0.038238075,0.06510597,0.4168877,1.0903492,1.0284287,0.0,2,0,0,0
53924000,47.39775060476606,8.545607939043288,487.98343,-0.0049438477,-0.0,-0.0094376,0.03828113,0.06671767,0.41710192,1.0897993,1.0282435,0.0,2,0,0,0
54124000,47.39775062551979,8.545607948572307,487.98257,-0.005706787,-0.0,-0.008339504,0.038737167,0.06781322,0.4172751,1.089303,1.028464,0.0,2,0,0,0
54324000,47.397750636950434,8.545607955218879,487.98148,-0.0066833496,-0.0,-0.009390437,0.0427642,0.06927128,0.417502,1.0888554,1.0282818,0.0,2,0,0,0
54532000,47.39775064911834,8.545607966491303,487.9813,-0.0067443848,-0.0,-0.005378409,0.041283958,0.067725495,0.4177357,1.0888565,1.0282495,0.0,2,0,0,0
54732000,47.3977506676944,8.545607969719759,487.9787,-0.009216309,-0.0,-0.004071151,0.044862796,0.06746631,0.41789037,1.088491,1.0284678,0.0,2,0,0,0
54924000,47.39775068343084,8.545607978780522,487.97592,-0.011810303,-0.0,-0.005267808,0.045439463,0.06830347,0.4179513,1.0877619,1.0285412,0.0,2,0,0,0
55124000,47.39775068357429,8.545607987448701,487.97592,-0.011566162,-0.0,-0.0041954936,0.04535829,0.066569276,0.41843936,1.0874685,1.0283592,0.0,2,0,0,0
55324000,47.39775068028969,8.54560798812092,487.97742,-0.009857178,-0.0,-0.004354459,0.043069288,0.06480049,0.41879365,1.0872056,1.0281769,0.0,2,0,0,0
55524000,47.39775068235895,8.54560799895216,487.9767,-0.010375977,-0.0,-0.0027486673,0.04325224,0.065909944,0.41905415,1.0869703,1.0283986,0.0,2,0,0,0
55732000,47.397750686748154,8.545608007703043,487.97543,-0.011444092,-0.0,-0.0026642466,0.041323915,0.06866672,0.41895533,1.0871553,1.0283704,0.0,2,0,0,0
55924000,47.39775068805055,8.54560800640409,487.97565,-0.010986328,-0.0,-0.0046095606,0.041369885,0.064982966,0.41870466,1.086573,1.028442,0.0,2,0,0,0
56124000,47.397750686634566,8.54560800409423,487.97446,-0.011962891,-0.0,-0.005652134,0.037901964,0.065341264,0.41864678,1.0864065,1.0282601,0.0,2,0,0,0
56324000,47.397750681398655,8.54560799714179,487.97455,-0.011627197,-0.0,-0.006366058,0.03751245,0.06537801,0.41889068,1.086259,1.028487,0.0,2,0,0,0
56524000,47.39775068002804,8.545607992103111,487.9762,-0.009735107,-0.0,-0.0050740116,0.03955349,0.062876016,0.4191967,1.0861285,1.0283086,0.0,2,0,0,0
56724000,47.39775068296805,8.545607987023553,487.97925,-0.006500244,-0.0,-0.0052854223,0.039438598,0.06194487,0.41937187,1.0860134,1.0281303,0.0,2,0,0,0
56924000,47.39775068825358,8.545607978281925,487.9814,-0.004211426,-0.0,-0.0051826257,0.037314642,0.061515413,0.4196232,1.0859123,1.0283544,0.0,2,0,0,0
57124000,47.39775068796312,8.545607963144013,487.98297,-0.0025634766,-0.0,-0.0028019208,0.037438568,0.058680028,0.41984186,1.0858238,1.0281795,0.0,2,0,0,0
57324000,47.397750699583476,8.545607948095935,487.9824,-0.0030822754,-0.0,5.7734505e-06,0.036699343,0.059055515,0.41980636,1.0857464,1.0284044,0.0,2,0,0,0
57532000,47.397750718645845,8.545607942423443,487.98126,-0.0041503906,-0.0,0.00233297,0.036988113,0.06032932,0.420069,1.0860698,1.0283766,0.0,2,0,0,0
57724000,47.39775073011889,8.545607937971411,487.97928,-0.0060424805,-0.0,0.0025105164,0.03667248,0.05840954,0.41996065,1.0856206,1.0284556,0.0,2,0,0,0
57924000,47.397750742267455,8.545607946783171,487.982,-0.0032043457,-0.0,0.005275453,0.03836704,0.055895552,0.42009494,1.0855702,1.0282807,0.0,2,0,0,0
58124000,47.39775074575092,8.545607946740308,487.98373,-0.0014038086,-0.0,0.0056703566,0.037463207,0.053520985,0.42016122,1.0855268,1.0281055,0.0,2,0,0,0
58324000,47.397750761200996,8.54560794397338,487.9835,-0.0016174316,-0.0,0.0081536,0.038181767,0.05234221,0.4205373,1.0854897,1.0283322,0.0,2,0,0,0
58524000,47.397750779581216,8.54560794461046,487.98447,-0.00061035156,-0.0,0.0075902613,0.03905578,0.047090456,0.42079952,1.0854583,1.0281601,0.0,2,0,0,0
58724000,47.39775078946049,8.545607953029588,487.98425,-0.0008239746,-0.0,0.0064002345,0.039938204,0.043420807,0.42088908,1.0854317,1.0283872,0.0,2,0,0,0
58924000,47.39775079515162,8.545607963847464,487.98666,0.0016174316,-0.0,0.005219761,0.041900046,0.041372336,0.42116395,1.0854095,1.0282115,0.0,2,0,0,0
59124000,47.3977508003102,8.545607997742989,487.99115,0.0059814453,-0.0,0.007027315,0.039263424,0.03996249,0.4210714,1.0848777,1.0284332,0.0,2,0,0,0
59324000,47.39775079972603,8.5456080104968,487.9966,0.011260986,-0.0,0.009749589,0.040479124,0.03580424,0.42107818,1.0843967,1.0282507,0.0,2,0,0,0
59524000,47.39775080776911,8.545608023357765,488.0031,0.017456055,-0.0,0.011418078,0.038736995,0.031973768,0.4210075,1.0839615,1.0280678,0.0,2,0,0,0
59724000,47.397750818489286,8.545608022393436,488.00952,0.0234375,-0.0,0.0131349135,0.037922364,0.030088741,0.42094368,1.0835681,1.0282855,0.0,2,0,0,0
59924000,47.39775083621593,8.545608003423943,488.0144,0.027801514,-0.0,0.01760117,0.032925274,0.02543168,0.42110625,1.0832127,1.0281056,0.0,2,0,0,0
60124000,47.39775085846441,8.545607966353467,488.0193,0.032043457,-0.0,0.019252568,0.02816349,0.022042835,0.42110363,1.0828924,1.0283234,0.0,2,0,0,0
60324000,47.39775088152689,8.54560792044089,488.02258,0.03466797,-0.0,0.025342347,0.02283331,0.024702607,0.42098123,1.0826038,1.0281402,0.0,2,0,0,0
60524000,47.39775090669415,8.545607875705219,488.02518,0.03652954,-0.0,0.027054327,0.019340176,0.025466422,0.42079258,1.0823442,1.0283622,0.0,2,0,0,0
60732000,47.3977509367432,8.545607847189137,488.0249,0.03552246,-0.0,0.032888517,0.020998672,0.025856353,0.42110094,1.0824797,1.0283321,0.0,2,0,0,0
60932000,47.397750962524135,8.545607830580181,488.024,0.03390503,-0.0,0.03200697,0.015320901,0.03014191,0.42124504,1.0822694,1.0281513,0.0,2,0,0,0
61124000,47.39775098674482,8.545607802969977,488.02466,0.03390503,-0.0,0.03428361,0.008121983,0.030995486,0.42145428,1.0817145,1.0282216,0.0,2,0,0,0
61324000,47.39775100838278,8.545607758929366,488.02594,0.034484863,-0.0,0.03535512,0.002392274,0.032128774,0.42140317,1.0815474,1.0280452,0.0,2,0,0,0
61524000,47.397751023144096,8.54560771784324,488.02493,0.032806396,-0.0,0.03762608,-0.0012339868,0.035456393,0.42145902,1.0813984,1.0282649,0.0,2,0,0,0
61724000,47.397751029569626,8.545607686493883,488.02402,0.03125,-0.0,0.038033,-0.007699474,0.036474865,0.42140028,1.0812659,1.0280855,0.0,2,0,0,0
61924000,47.39775104301899,8.545607655554898,488.02313,0.029754639,-0.0,0.041031595,-0.012918861,0.036617473,0.4214919,1.0811485,1.0283098,0.0,2,0,0,0
62124000,47.397751071985496,8.545607609686915,488.0228,0.028839111,-0.0,0.045062747,-0.017271489,0.036566753,0.421349,1.0810449,1.0281339,0.0,2,0,0,0
62324000,47.397751102682456,8.545607566012407,488.02136,0.026855469,-0.0,0.04544505,-0.022040019,0.03343329,0.42158884,1.0809537,1.0279579,0.0,2,0,0,0
62524000,47.39775112412861,8.545607528441714,488.02182,0.026763916,-0.0,0.04922491,-0.025625195,0.037057307,0.42161518,1.0808737,1.0281798,0.0,2,0,0,0
62724000,47.397751147051146,8.545607462909446,488.02115,0.02557373,-0.0,0.050589256,-0.027735014,0.03871186,0.42145327,1.080804,1.0280071,0.0,2,0,0,0
62924000,47.39775116890147,8.54560739742625,488.018,0.021942139,-0.0,0.04995472,-0.033578634,0.04164932,0.42163906,1.0807428,1.0282296,0.0,2,0,0,0
63124000,47.3977511795786,8.545607344394847,488.01562,0.019165039,-0.0,0.050495233,-0.034812745,0.042459317,0.4216339,1.0806898,1.0280539,0.0,2,0,0,0
63324000,47.3977511845932,8.545607296227548,488.0125,0.015716553,-0.0,0.047919605,-0.033837944,0.043226104,0.4215084,1.0806437,1.0282809,0.0,2,0,0,0
63524000,47.3977511766364,8.545607243852956,488.00977,0.0126953125,-0.0,0.047022525,-0.039058484,0.044658,0.42148215,1.0806041,1.0281085,0.0,2,0,0,0
63724000,47.39775117257393,8.545607197289502,488.00882,0.011505127,-0.0,0.0440646,-0.03842463,0.045434877,0.42143732,1.08057,1.0279357,0.0,2,0,0,0
63924000,47.39775117606398,8.545607150926882,488.00854,0.011230469,-0.0,0.044416234,-0.040454812,0.044533413,0.42160705,1.0902712,1.0284822,0.0,2,0,0,0
64131999,47.39775119333771,8.545607091917306,488.01093,0.0132751465,-0.0,0.04340288,-0.04405847,0.041807592,0.42168358,1.0901377,1.0284507,0.0,2,0,0,0
64332000,47.397751204430804,8.545607043521793,488.01355,0.015625,-0.0,0.045758653,-0.045232583,0.04086441,0.421728,1.0896417,1.0286634,0.0,2,0,0,0
64532000,47.39775120962578,8.545607011671116,488.01364,0.015380859,-0.0,0.044859093,-0.046935435,0.042288765,0.42151266,1.0891516,1.0284618,0.0,2,0,0,0
64732000,47.397751206911856,8.545606985923893,488.012,0.013427734,-0.0,0.040148996,-0.047075372,0.039884977,0.42136544,1.088668,1.0282675,0.0,2,0,0,0
64932000,47.39775119326709,8.54560695594528,488.01202,0.013183594,-0.0,0.037782546,-0.04867488,0.039827712,0.42134655,1.0882328,1.0284827,0.0,2,0,0,0
65131999,47.397751181415735,8.545606926336381,488.01373,0.014465332,-0.0,0.038639523,-0.049253855,0.03720801,0.42111558,1.0785599,1.0279766,0.0,2,0,0,0
65339999,47.39775116102709,8.545606921275727,488.01334,0.013763428,-0.0,0.036180988,-0.048581272,0.034512825,0.4212197,1.0789794,1.0279531,0.0,2,0,0,0
65540000,47.397751155243014,8.545606904471919,488.014,0.014160156,-0.0,0.038520694,-0.05013261,0.029791668,0.4213733,1.0790161,1.0281726,0.0,2,0,0,0
65740000,47.397751151109716,8.545606878064108,488.01483,0.014678955,-0.0,0.03247387,-0.052478123,0.0319701,0.4213444,1.0884537,1.0283214,0.0,2,0,0,0
65940000,47.39775115618663,8.545606858033276,488.01392,0.0134887695,-0.0,0.03386338,-0.052770477,0.031782985,0.42140454,1.088469,1.0285546,0.0,2,0,0,0
66140000,47.397751164320326,8.545606841893717,488.01465,0.013946533,-0.0,0.03541649,-0.050752457,0.028714979,0.42105025,1.0884874,1.0283847,0.0,2,0,0,0
66339999,47.39775117282959,8.545606828792165,488.01978,0.018707275,-0.0,0.036585327,-0.050860714,0.025045643,0.4211328,1.0884671,1.0282173,0.0,2,0,0,0
66548000,47.3977511762485,8.545606799807627,488.02368,0.022155762,-0.0,0.035661273,-0.047723193,0.018085588,0.42117155,1.0888166,1.0281962,0.0,2,0,0,0
66747999,47.3977511832653,8.545606797403929,488.02652,0.024475098,-0.0,0.036205623,-0.043705758,0.017011859,0.4214843,1.0887674,1.0284305,0.0,2,0,0,0
66948000,47.39775118869425,8.54560680583251,488.02954,0.026947021,-0.0,0.034796685,-0.040650353,0.016268102,0.4215145,1.0886832,1.0282637,0.0,2,0,0,0
67148000,47.39775119309977,8.545606827933652,488.03195,0.028778076,-0.0,0.032607224,-0.036492135,0.014844023,0.42150813,1.0885665,1.0285015,0.0,2,0,0,0
67348000,47.39775119082671,8.545606865598147,488.035,0.031188965,-0.0,0.03385196,-0.032879435,0.0069607096,0.4213008,1.0884618,1.0283369,0.0,2,0,0,0
67548000,47.397751187991,8.545606900574608,488.03967,0.03515625,-0.0,0.03472464,-0.03185869,0.004407889,0.4214523,1.0883682,1.0281683,0.0,2,0,0,0
67748000,47.39775118660498,8.54560694300854,488.04425,0.039733887,-0.0,0.03560308,-0.028315824,0.0019299672,0.42157486,1.0882845,1.0284005,0.0,2,0,0,0
67948000,47.39775119748185,8.545606964680918,488.05118,0.045410156,-0.0,0.039440576,-0.024435338,0.0031026462,0.4215558,1.0877097,1.0282242,0.0,2,0,0,0
68148000,47.39775120301573,8.545606987149721,488.05923,0.052490234,-0.0,0.04131458,-0.021443728,-0.0014009132,0.4219304,1.0871907,1.028448,0.0,2,0,0,0
68348000,47.39775120265843,8.545607000145953,488.06598,0.058135986,-0.0,0.04328833,-0.020099755,-0.006662593,0.4219263,1.0867224,1.0282665,0.0,2,0,0,0
68548000,47.39775120219004,8.545607010291238,488.0723,0.06323242,-0.0,0.042877246,-0.02012335,-0.011495297,0.42191857,1.0863,1.0284909,0.0,2,0,0,0
68748000,47.39775120620535,8.545607026779008,488.07715,0.06677246,-0.0,0.0428186,-0.017997067,-0.01605377,0.42226556,1.0859196,1.0283114,0.0,2,0,0,0
68948000,47.39775121037201,8.545607046313272,488.08176,0.070007324,-0.0,0.043367807,-0.020056777,-0.019363372,0.422271,1.0855775,1.0281312,0.0,2,0,0,0
69148000,47.39775120744756,8.545607061519558,488.08426,0.07107544,-0.0,0.04225595,-0.016998213,-0.023842013,0.4224201,1.0852703,1.0283511,0.0,2,0,0,0
69348000,47.3977512019712,8.545607086586667,488.08655,0.07192993,-0.0,0.042268276,-0.013829272,-0.025313022,0.42265612,1.0849947,1.0281736,0.0,2,0,0,0
69548000,47.3977511945443,8.545607104520585,488.08838,0.07229614,-0.0,0.037727043,-0.012562361,-0.02943969,0.42258206,1.0847481,1.0283953,0.0,2,0,0,0
69748000,47.39775118135623,8.545607118695749,488.0906,0.07305908,-0.0,0.031105744,-0.009121776,-0.03261823,0.42288002,1.0845279,1.0282141,0.0,2,0,0,0
69948000,47.39775116342009,8.545607142112129,488.09232,0.073272705,-0.0,0.030361515,-0.00747449,-0.033124976,0.42251936,1.0843318,1.0284377,0.0,2,0,0,0
70148000,47.39775114889274,8.545607168161952,488.09338,0.07287598,-0.0,0.028221264,-0.003601412,-0.037791286,0.4227506,1.0841573,1.0282596,0.0,2,0,0,0
70348000,47.39775113101689,8.545607186251775,488.0949,0.07293701,-0.0,0.02579214,-0.0009170237,-0.03769999,0.42280638,1.0840025,1.0280813,0.0,2,0,0,0
70548000,47.397751110804954,8.545607214538556,488.09903,0.07559204,-0.0,0.025684958,0.0032031918,-0.041946966,0.4229639,1.0838658,1.0283021,0.0,2,0,0,0
70748000,47.397751106587556,8.545607250570301,488.105,0.08001709,-0.0,0.026829075,0.0030194828,-0.045097157,0.4231975,1.0837452,1.0281271,0.0,2,0,0,0
70948000,47.39775110823308,8.545607274344555,488.10962,0.082977295,-0.0,0.02510962,0.0052597183,-0.047311492,0.4230139,1.0836394,1.0283504,0.0,2,0,0,0
71148000,47.39775110360722,8.545607288857896,488.11624,0.087890625,-0.0,0.021679819,0.0073140166,-0.04939975,0.4228956,1.0835465,1.0281724,0.0,2,0,0,0
71348000,47.397751090104634,8.545607313166407,488.12344,0.09326172,-0.0,0.020616697,0.0077837366,-0.051699243,0.42280695,1.0834653,1.0283982,0.0,2,0,0,0
71548000,47.39775106832362,8.545607342508596,488.12762,0.09555054,-0.0,0.01619276,0.0112231625,-0.04696365,0.4230592,1.0833946,1.0282234,0.0,2,0,0,0
71748000,47.39775105227174,8.545607367226335,488.13025,0.09625244,-0.0,0.013361867,0.012732666,-0.044539865,0.4232667,1.0833333,1.0280485,0.0,2,0,0,0
71948000,47.397751039909345,8.545607389460312,488.1284,0.09246826,-0.0,0.009786881,0.014592016,-0.04130759,0.4233403,1.0832798,1.0282718,0.0,2,0,0,0
72148000,47.39775102163135,8.545607422072175,488.12625,0.08850098,-0.0,0.009531082,0.0143156,-0.038986288,0.4235373,1.0832337,1.0281001,0.0,2,0,0,0
72348000,47.39775100273527,8.545607449670339,488.12427,0.084747314,-0.0,0.008625206,0.01564123,-0.0375813,0.42367896,1.083194,1.0283259,0.0,2,0,0,0
72548000,47.397750982744945,8.54560746425146,488.12305,0.081848145,-0.0,0.0077845594,0.017794186,-0.037866034,0.4236295,1.08316,1.028151,0.0,2,0,0,0
72748000,47.39775096038846,8.545607484419723,488.12302,0.08016968,-0.0,0.007827226,0.019077692,-0.036703024,0.42361292,1.0831312,1.0283792,0.0,2,0,0,0
72948000,47.39775094671735,8.545607505982225,488.12436,0.079071045,-0.0,0.004429155,0.016720204,-0.03830507,0.42370522,1.0932176,1.0285269,0.0,2,0,0,0
73148000,47.39775093262871,8.545607535064255,488.1239,0.07702637,-0.0,0.0038251556,0.016154112,-0.039062925,0.42370164,1.0926037,1.0283406,0.0,2,0,0,0
73348000,47.39775092032525,8.545607543721953,488.1225,0.07409668,-0.0,0.0029434704,0.013995986,-0.035514846,0.4236217,1.0920506,1.0285605,0.0,2,0,0,0
73548000,47.39775089679512,8.545607537161043,488.12234,0.07247925,-0.0,0.00477536,0.015750531,-0.03618114,0.42335188,1.0915524,1.0283773,0.0,2,0,0,0
73744000,47.39775088302138,8.545607544715274,488.12143,0.070129395,-0.0,0.0012042361,0.015564751,-0.033142038,0.42332408,1.0906876,1.0284472,0.0,2,0,0,0
73944000,47.3977508659651,8.54560753453924,488.12042,0.06774902,-0.0,0.0010934961,0.014012254,-0.035669878,0.42328832,1.0902869,1.028274,0.0,2,0,0,0
74144000,47.397750853368734,8.545607522456187,488.1209,0.06686401,-0.0,0.0015032903,0.012189381,-0.036444213,0.4229781,1.08997,1.0285033,0.0,2,0,0,0
74352000,47.39775083561957,8.545607511571557,488.11972,0.06436157,-0.0,-0.00047064762,0.007553288,-0.034959182,0.42287514,1.090097,1.0284775,0.0,2,0,0,0
74544000,47.39775082214514,8.545607496520754,488.11816,0.061553955,-0.0,-0.0021062247,0.0016037379,-0.03406727,0.4229068,1.0894326,1.0285585,0.0,2,0,0,0
74744000,47.39775081518161,8.545607472091636,488.115,0.05722046,-0.0,0.00020033095,-0.0003478059,-0.03252287,0.4229548,1.0892062,1.028383,0.0,2,0,0,0
74944000,47.39775080854268,8.545607444180874,488.1135,0.054595947,-0.0,-0.0002718626,-0.0024155907,-0.028825264,0.42314124,1.0890048,1.0282067,0.0,2,0,0,0
75144000,47.39775079763487,8.545607418507775,488.11453,0.054534912,-0.0,-0.000615842,-0.004996126,-0.025930777,0.42315343,1.0888256,1.0284348,0.0,2,0,0,0
75344000,47.3977507889163,8.545607419569588,488.11618,0.05505371,-0.0,-0.0032362377,-0.0016788524,-0.024280569,0.42285806,1.0886667,1.0282607,0.0,2,0,0,0
75544000,47.39775078901037,8.545607426824517,488.1179,0.055633545,-0.0,-0.0017645981,-0.00057353167,-0.022632753,0.42315412,1.0885261,1.0284883,0.0,2,0,0,0
75744000,47.39775078568608,8.545607429217291,488.11722,0.053863525,-0.0,-0.001735148,-0.00035418992,-0.021394052,0.4231388,1.0884024,1.0283102,0.0,2,0,0,0
75944000,47.39775078058904,8.545607425174458,488.1162,0.05178833,-0.0,-0.0033890733,-0.0012344238,-0.019513559,0.42323878,1.0882936,1.0285418,0.0,2,0,0,0
76144000,47.39775077742667,8.545607425959535,488.11505,0.049621582,-0.0,-0.003924189,0.0033183075,-0.016888486,0.42346698,1.0881983,1.0283663,0.0,2,0,0,0
76344000,47.397750763304686,8.545607432056013,488.11517,0.048736572,-0.0,-0.00594902,0.004679844,-0.015272499,0.42343092,1.0881152,1.0281904,0.0,2,0,0,0
76544000,47.39775075216914,8.545607445086299,488.1145,0.047088623,-0.0,-0.007106338,0.0074669234,-0.011899767,0.42374182,1.0880429,1.0284184,0.0,2,0,0,0
76744000,47.39775075045229,8.545607473926621,488.11017,0.041900635,-0.0,-0.008489684,0.010804737,-0.006613415,0.42360538,1.08798,1.0282451,0.0,2,0,0,0
76944000,47.397750743389885,8.545607492803791,488.10596,0.03692627,-0.0,-0.012056986,0.0127006825,-0.0037779256,0.42377782,1.0879254,1.0284733,0.0,2,0,0,0
77144000,47.39775074159452,8.545607527115164,488.1028,0.033111572,-0.0,-0.011884712,0.016059108,-0.0029829536,0.4239105,1.0878787,1.0282962,0.0,2,0,0,0
77344000,47.397750737034144,8.54560754251278,488.10037,0.030059814,-0.0,-0.0136032915,0.019282559,-0.0007483092,0.4240025,1.0878386,1.0285287,0.0,2,0,0,0
77544000,47.3977507293222,8.54560755830472,488.09622,0.025390625,-0.0,-0.015135954,0.025080964,0.00080853456,0.4238812,1.0878046,1.0283545,0.0,2,0,0,0
77744000,47.39775073258561,8.545607581689795,488.09247,0.021636963,-0.0,-0.013832767,0.027093817,0.0017008082,0.42390123,1.0877757,1.0281798,0.0,2,0,0,0
77944000,47.397750729855574,8.545607619931756,488.09058,0.019134521,-0.0,-0.015546824,0.030762909,0.00444399,0.42372346,1.0872159,1.028399,0.0,2,0,0,0
78144000,47.39775071713666,8.545607651355578,488.08743,0.015625,-0.0,-0.014437562,0.03227294,0.008403693,0.4235072,1.0867101,1.0282172,0.0,2,0,0,0
78352000,47.39775069835343,8.5456076829772,488.08185,0.009765625,-0.0,-0.012863373,0.037199363,0.012769578,0.42380127,1.0866457,1.0281848,0.0,2,0,0,0
78544000,47.397750689191305,8.545607722471543,488.07547,0.0032348633,-0.0,-0.012975728,0.04060094,0.016400225,0.42377302,1.0858413,1.0282506,0.0,2,0,0,0
78744000,47.397750683340455,8.545607765210798,488.07214,-0.00012207031,-0.0,-0.0134406,0.044209473,0.01912253,0.4239017,1.0854695,1.0284734,0.0,2,0,0,0
78944000,47.39775068389589,8.545607804264204,488.06824,-0.0039978027,-0.0,-0.012428181,0.04691919,0.021127502,0.4239288,1.0851347,1.0282911,0.0,2,0,0,0
79144000,47.39775069105085,8.54560783426348,488.0636,-0.008514404,-0.0,-0.007976166,0.048818704,0.022721952,0.42409444,1.0848336,1.0281088,0.0,2,0,0,0
79352000,47.39775070312971,8.545607856712857,488.06137,-0.010528564,-0.0,-0.0039276653,0.052034345,0.017598227,0.42410588,1.0849453,1.0284792,0.0,2,0,0,0
79544000,47.397750713142536,8.545607876638465,488.062,-0.009674072,-0.0,-0.0024642798,0.05285249,0.0137893045,0.42428625,1.0843214,1.0281494,0.0,2,0,0,0
79744000,47.39775071992663,8.545607899376684,488.0606,-0.010864258,-0.0,-0.0025761751,0.052527934,0.015977034,0.4244065,1.0841051,1.0283693,0.0,2,0,0,0
79944000,47.397750726585684,8.545607918282133,488.0594,-0.011871338,-0.0,1.3745424e-05,0.052713815,0.017446402,0.42437732,1.0839125,1.0281873,0.0,2,0,0,0
80144000,47.39775073416789,8.545607937638568,488.0582,-0.012817383,-0.0,0.0034538321,0.049930036,0.018712593,0.42439973,1.083741,1.028412,0.0,2,0,0,0
80344000,47.39775074845206,8.545607947169417,488.05743,-0.013305664,-0.0,0.007025522,0.045764774,0.019756591,0.42447776,1.0835886,1.0282335,0.0,2,0,0,0
80544000,47.397750768047445,8.545607950719036,488.05594,-0.014526367,-0.0,0.01148187,0.04299047,0.022469629,0.4242205,1.0834535,1.0280551,0.0,2,0,0,0
80744000,47.397750789742766,8.545607952764797,488.0547,-0.015472412,-0.0,0.013465458,0.03883982,0.023658505,0.42424536,1.0833343,1.0282772,0.0,2,0,0,0
80944000,47.39775081045593,8.545607956785496,488.0519,-0.017913818,-0.0,0.014658387,0.035459824,0.02630906,0.424024,1.0832293,1.0281022,0.0,2,0,0,0
81152000,47.39775083626369,8.545607941526573,488.0514,-0.018066406,-0.0,0.018971412,0.027380466,0.026988698,0.4237994,1.0835127,1.0280757,0.0,2,0,0,0
81344000,47.39775086310065,8.545607913051967,488.05075,-0.018341064,-0.0,0.019652914,0.022382801,0.027128963,0.4239197,1.0830564,1.0281469,0.0,2,0,0,0
81544000,47.39775088518603,8.54560789053518,488.0492,-0.01953125,-0.0,0.024018103,0.019176656,0.03014892,0.42400032,1.0829861,1.0283743,0.0,2,0,0,0
81744000,47.39775090234857,8.5456078747593,488.04788,-0.020446777,-0.0,0.026490416,0.01860924,0.032798905,0.4240246,1.0829251,1.0281998,0.0,2,0,0,0
81944000,47.397750921908695,8.545607860347358,488.0454,-0.022491455,-0.0,0.028999228,0.017724827,0.032362144,0.42432377,1.0828722,1.028025,0.0,2,0,0,0
82144000,47.39775094071928,8.545607845908396,488.03964,-0.027770996,-0.0,0.029504426,0.015468029,0.034546554,0.42420447,1.0828266,1.0282499,0.0,2,0,0,0
82344000,47.39775095440563,8.545607826932912,488.03476,-0.032043457,-0.0,0.028306225,0.015499734,0.03503521,0.4241092,1.0827878,1.0280782,0.0,2,0,0,0
82544000,47.397750956973454,8.545607798483177,488.0337,-0.032470703,-0.0,0.029959625,0.013341668,0.032684445,0.42426494,1.0827545,1.0283035,0.0,2,0,0,0
82744000,47.39775095934767,8.545607761551132,488.03397,-0.031555176,-0.0,0.031699236,0.011006843,0.03099422,0.4241754,1.0827265,1.0281285,0.0,2,0,0,0
82944000,47.39775097873594,8.545607740964861,488.03424,-0.030334473,-0.0,0.032627515,0.008778501,0.029431434,0.42413604,1.092748,1.0286819,0.0,2,0,0,0
83144000,47.397750997303724,8.545607728252945,488.03568,-0.028320312,-0.0,0.036792513,0.009540187,0.026477374,0.4238174,1.0921857,1.0284966,0.0,2,0,0,0
83344000,47.3977510184764,8.545607722646306,488.037,-0.02645874,-0.0,0.039849885,0.009592944,0.023427641,0.4238965,1.0916789,1.0283109,0.0,2,0,0,0
83552000,47.39775103970442,8.54560770236865,488.03757,-0.025360107,-0.0,0.040315162,0.010665135,0.026273437,0.42395863,1.0916421,1.0286857,0.0,2,0,0,0
83744000,47.39775104149909,8.545607698378838,488.0396,-0.022857666,-0.0,0.036972392,0.013226371,0.02539881,0.42387113,1.0908108,1.0283504,0.0,2,0,0,0
83944000,47.39775105415897,8.545607701845308,488.03934,-0.02267456,-0.0,0.03855903,0.01251339,0.027503902,0.4240144,1.0904406,1.0285723,0.0,2,0,0,0
84144000,47.39775105214241,8.545607697640321,488.03952,-0.022033691,-0.0,0.035490036,0.010695777,0.02719939,0.42412302,1.090108,1.0283866,0.0,2,0,0,0
84344000,47.397751049895454,8.54560768537157,488.03876,-0.022338867,-0.0,0.033433314,0.010861524,0.025135886,0.42427638,1.0898095,1.0286129,0.0,2,0,0,0
84544000,47.39775104112837,8.545607671800125,488.0383,-0.022338867,-0.0,0.030721504,0.009022638,0.02746142,0.42424828,1.0895426,1.0284305,0.0,2,0,0,0
84744000,47.39775102866274,8.545607645214064,488.03784,-0.022338867,-0.0,0.026107935,0.0077162334,0.030188233,0.42412996,1.0893037,1.028248,0.0,2,0,0,0
84944000,47.39775101880241,8.545607625352648,488.03955,-0.020202637,-0.0,0.021818768,0.010346652,0.030488065,0.4240486,1.0890905,1.0284715,0.0,2,0,0,0
85144000,47.397751016010695,8.545607618789797,488.04114,-0.018249512,-0.0,0.01950031,0.011265073,0.028963717,0.42406544,1.0889008,1.0282923,0.0,2,0,0,0
85344000,47.39775101674027,8.545607621756579,488.03983,-0.019165039,-0.0,0.019460965,0.012093986,0.029422412,0.42396006,1.0887326,1.0285162,0.0,2,0,0,0
85544000,47.397751020368794,8.545607621549625,488.03784,-0.020721436,-0.0,0.019003142,0.008367513,0.03050854,0.4238912,1.0885836,1.0283341,0.0,2,0,0,0
85744000,47.39775100301262,8.5456076030118,488.03412,-0.023956299,-0.0,0.017723445,0.005075031,0.03174493,0.42397368,1.0884521,1.0285628,0.0,2,0,0,0
85944000,47.39775098503431,8.545607575547452,488.03146,-0.02609253,-0.0,0.017638087,-0.0007850117,0.03355091,0.4238982,1.0883363,1.0283842,0.0,2,0,0,0
86144000,47.3977509784644,8.545607528750923,488.02988,-0.027130127,-0.0,0.020348307,-0.006529729,0.03526219,0.42395234,1.0882348,1.0282054,0.0,2,0,0,0
86344000,47.397750979465954,8.545607476612766,488.02798,-0.028442383,-0.0,0.020072177,-0.009012196,0.036226265,0.42365682,1.0881459,1.0284315,0.0,2,0,0,0
86544000,47.397750976271915,8.545607434298994,488.02527,-0.030548096,-0.0,0.022314763,-0.012558713,0.035632443,0.42370942,1.0880685,1.028256,0.0,2,0,0,0
86744000,47.3977509879941,8.545607401265496,488.02118,-0.033966064,-0.0,0.022868555,-0.0126244,0.038573742,0.42361963,1.0880014,1.0284827,0.0,2,0,0,0
86944000,47.39775099231361,8.545607375428856,488.01764,-0.03677368,-0.0,0.021698002,-0.014631817,0.042458396,0.42373282,1.0879433,1.0283041,0.0,2,0,0,0
87144000,47.39775100421381,8.545607344101759,488.01575,-0.037902832,-0.0,0.02050502,-0.01731149,0.044775728,0.42378753,1.0878931,1.0285354,0.0,2,0,0,0
87344000,47.397751008352884,8.545607322699478,488.01263,-0.04019165,-0.0,0.02021794,-0.015648222,0.045040675,0.4238303,1.08785,1.02836,0.0,2,0,0,0
87544000,47.39775100259018,8.54560731369042,488.01218,-0.03982544,-0.0,0.017980786,-0.012246882,0.044342548,0.42386627,1.087813,1.0281843,0.0,2,0,0,0
87744000,47.39775099084152,8.545607302780416,488.01425,-0.036987305,-0.0,0.016185638,-0.015356109,0.040683188,0.42368382,1.0877818,1.0284127,0.0,2,0,0,0
87944000,47.39775097762339,8.54560728980691,488.01627,-0.03427124,-0.0,0.015989447,-0.016319104,0.04010801,0.42357725,1.0877556,1.02824,0.0,2,0,0,0
88144000,47.3977509750371,8.54560727321483,488.01428,-0.036254883,-0.0,0.016974313,-0.017942773,0.04191876,0.42355978,1.0877336,1.0284686,0.0,2,0,0,0
88344000,47.39775098446545,8.545607255736043,488.01306,-0.036346436,-0.0,0.021035155,-0.021985495,0.04245246,0.42370155,1.08718,1.0282824,0.0,2,0,0,0
88544000,47.39775098952795,8.545607246338342,488.01404,-0.03463745,-0.0,0.023672197,-0.021858325,0.040886912,0.42366746,1.0866796,1.0285052,0.0,2,0,0,0
88744000,47.39775099728884,8.54560723873562,488.0135,-0.034484863,-0.0,0.022989081,-0.020198738,0.041836686,0.42339385,1.0862275,1.028322,0.0,2,0,0,0
88944000,47.39775100249764,8.54560723289573,488.0132,-0.034057617,-0.0,0.02490586,-0.01991016,0.040759392,0.4234267,1.0858195,1.0281384,0.0,2,0,0,0
89144000,47.39775100701284,8.545607233073609,488.0138,-0.032806396,-0.0,0.027960207,-0.019638,0.03758029,0.42359918,1.0854512,1.0283576,0.0,2,0,0,0
89344000,47.39775101514399,8.545607238565262,488.01242,-0.0335083,-0.0,0.028618878,-0.01950201,0.038885806,0.42366996,1.0851196,1.0281771,0.0,2,0,0,0
89544000,47.397751023326485,8.545607234414918,488.01138,-0.03387451,-0.0,0.030354336,-0.021363763,0.03755238,0.42373085,1.0848213,1.0283964,0.0,2,0,0,0
89744000,47.39775103012898,8.545607230311814,488.00998,-0.034606934,-0.0,0.031559274,-0.021197038,0.038842864,0.4238737,1.0845536,1.0282128,0.0,2,0,0,0
89944000,47.39775103667983,8.545607233050163,488.0074,-0.036468506,-0.0,0.030905187,-0.021068193,0.039553452,0.4239058,1.0843134,1.0284364,0.0,2,0,0,0
90144000,47.39775104708542,8.54560723046382,488.00504,-0.038085938,-0.0,0.03389815,-0.02279194,0.043421593,0.42368236,1.0840986,1.0282563,0.0,2,0,0,0
90344000,47.397751061226806,8.54560721148762,488.00284,-0.039489746,-0.0,0.03326659,-0.02743194,0.042473827,0.4237637,1.0839067,1.028076,0.0,2,0,0,0
90544000,47.39775106475161,8.545607179681525,488.00107,-0.04046631,-0.0,0.032108992,-0.02990491,0.036466975,0.42365503,1.0837356,1.0282971,0.0,2,0,0,0
