timestamp,x,y,z,yaw,yawspeed,vx,vy,vz,acc_x,acc_y,acc_z,jerk_x,jerk_y,jerk_z,thrust[0],thrust[1],thrust[2]
142764000,-0.046798274,-0.004052577,-0.05222552,0.41414583,0.0,0.00048433835,0.0038463706,-0.91517955,0.0,0.0,0.0,0.0,0.0,0.0,0.010843661,0.0012734426,-0.7089722
142864000,-0.046625935,-0.003825313,-0.15437196,0.41414583,0.0,0.002525871,0.0033117435,-1.2469013,0.0,0.0,0.0,0.0,0.0,0.0,0.012506833,-0.00040593362,-0.66796947
142960000,-0.046454977,-0.0036153616,-0.27726698,0.41414583,0.0,0.0048968913,0.002153526,-1.4659591,0.0,0.0,0.0,0.0,0.0,0.0,0.015653636,-0.0002559053,-0.6372079
143056000,-0.04627892,-0.0034115878,-0.4155288,0.41414583,0.0,0.0064050807,5.745329e-05,-1.5903031,0.0,0.0,0.0,0.0,0.0,0.0,0.015840445,-0.00087184506,-0.6149252
143152000,-0.046090025,-0.0032213365,-0.56026125,0.41414583,0.0,0.009167505,-0.0018895159,-1.6153219,0.0,0.0,0.0,0.0,0.0,0.0,0.01629184,-0.0011561307,-0.57798475
143268000,-0.045824204,-0.0029866335,-0.7340538,0.41414583,0.0,0.0150943585,-0.0057628686,-1.5996835,0.0,0.0,0.0,0.0,0.0,0.0,0.017431647,-0.0021869023,-0.58047765
143364000,-0.045656558,-0.0028736105,-0.8768943,0.41414583,0.0,0.013875391,-0.0086742155,-1.6019082,0.0,0.0,0.0,0.0,0.0,0.0,0.015772052,-0.002648895,-0.59004545
143464000,-0.04556323,-0.0028080195,-1.0255541,0.41414583,0.0,0.020039987,-0.01023012,-1.5886205,0.0,0.0,0.0,0.0,0.0,0.0,0.01633987,-0.002394531,-0.5783378
143560000,-0.045431938,-0.0027855067,-1.167748,0.41414583,0.0,0.02116119,-0.014923245,-1.5875866,0.0,0.0,0.0,0.0,0.0,0.0,0.016734347,-0.0021799814,-0.5837678
143656000,-0.045305885,-0.002643802,-1.311081,0.41414583,0.0,0.026293248,-0.017868549,-1.5811487,0.0,0.0,0.0,0.0,0.0,0.0,0.018498134,-0.0023310012,-0.5770031
143752000,-0.045245674,-0.0024630702,-1.4543436,0.41414583,0.0,0.027270004,-0.021526346,-1.580017,0.0,0.0,0.0,0.0,0.0,0.0,0.017975736,-0.0026362976,-0.5831315
143868000,-0.045029566,-0.0023576086,-1.6252707,0.41414583,0.0,0.03182143,-0.023596706,-1.5772877,0.0,0.0,0.0,0.0,0.0,0.0,0.018388549,-0.0027563705,-0.5816877
143964000,-0.044960886,-0.0021496764,-1.7683167,0.41414583,0.0,0.031015577,-0.022928523,-1.5732974,0.0,0.0,0.0,0.0,0.0,0.0,0.01813456,-0.0023274901,-0.58313596
144064000,-0.044794004,-0.0021725327,-1.9153805,0.41414583,0.0,0.035797644,-0.027280103,-1.5634233,0.0,0.0,0.0,0.0,0.0,0.0,0.018920358,-0.0028232227,-0.5788432
144160000,-0.044684667,-0.0020098304,-2.0575204,0.41414583,0.0,0.035947178,-0.026688177,-1.5545582,0.0,0.0,0.0,0.0,0.0,0.0,0.018826421,-0.003204734,-0.578706
144256000,-0.044526394,-0.0019905493,-2.1980832,0.41414583,0.0,0.03893538,-0.03130307,-1.554238,0.0,0.0,0.0,0.0,0.0,0.0,0.019725828,-0.0040115663,-0.5816418
144352000,-0.04443303,-0.0018726833,-2.3398926,0.41414583,0.0,0.040632848,-0.032365795,-1.5466323,0.0,0.0,0.0,0.0,0.0,0.0,0.020347938,-0.003999209,-0.57632774
144448000,-0.04429493,-0.0017092751,-2.4803665,0.41414583,0.0,0.042080365,-0.032229003,-1.544777,0.0,0.0,0.0,0.0,0.0,0.0,0.019957813,-0.0028551498,-0.5805381
144564000,-0.044113297,-0.0014308427,-2.6518662,0.41414583,0.0,0.0455413,-0.038376432,-1.5457755,0.0,0.0,0.0,0.0,0.0,0.0,0.020835346,-0.0036718152,-0.5808804
144664000,-0.043937735,-0.0012969031,-2.797869,0.41414583,0.0,0.04617672,-0.038264345,-1.5365043,0.0,0.0,0.0,0.0,0.0,0.0,0.020766942,-0.0042411,-0.5793124
144760000,-0.04381575,-0.0011906021,-2.9376185,0.41414583,0.0,0.047622327,-0.04045794,-1.5311997,0.0,0.0,0.0,0.0,0.0,0.0,0.02060716,-0.0044705006,-0.577149
144856000,-0.043627914,-0.0009776975,-3.0799727,0.41414583,0.0,0.04841222,-0.04440097,-1.5300514,0.0,0.0,0.0,0.0,0.0,0.0,0.020746283,-0.0043990286,-0.5792891
144952000,-0.043499637,-0.0008320043,-3.2211652,0.41414583,0.0,0.0498814,-0.043601215,-1.5297976,0.0,0.0,0.0,0.0,0.0,0.0,0.020990083,-0.0040795836,-0.5811232
145068000,-0.04338726,-0.000651785,-3.395322,0.41414583,0.0,0.049501058,-0.04663144,-1.5377829,0.0,0.0,0.0,0.0,0.0,0.0,0.020864613,-0.0045071,-0.5844499
145164000,-0.04324034,-0.00045123728,-3.5393121,0.41414583,0.0,0.049974177,-0.04743481,-1.5403514,0.0,0.0,0.0,0.0,0.0,0.0,0.020785075,-0.0036250926,-0.58480763
145264000,-0.043107137,-0.00032377912,-3.6861541,0.41414583,0.0,0.051649112,-0.047611233,-1.5311894,0.0,0.0,0.0,0.0,0.0,0.0,0.02119063,-0.0040865,-0.57826996
145360000,-0.043049853,-0.00023763625,-3.8283076,0.41414583,0.0,0.050280306,-0.04954778,-1.5299802,0.0,0.0,0.0,0.0,0.0,0.0,0.020744864,-0.0055157854,-0.57870513
145456000,-0.042922556,-7.1824456e-05,-3.9704022,0.41414583,0.0,0.05264649,-0.05124293,-1.5273472,0.0,0.0,0.0,0.0,0.0,0.0,0.020440793,-0.006577155,-0.5788936
145552000,-0.042885546,2.9903438e-05,-4.1127806,0.41414583,0.0,0.051945575,-0.052076824,-1.5241066,0.0,0.0,0.0,0.0,0.0,0.0,0.021285625,-0.0060257465,-0.5771509
145668000,-0.04271502,0.00014165883,-4.281706,0.41414583,0.0,0.051052775,-0.054866496,-1.5299556,0.0,0.0,0.0,0.0,0.0,0.0,0.020273719,-0.00658719,-0.58482313
145764000,-0.042608377,0.00026220584,-4.423901,0.41414583,0.0,0.053464964,-0.05574446,-1.5286605,0.0,0.0,0.0,0.0,0.0,0.0,0.020929491,-0.0066766525,-0.5832089
145864000,-0.042515434,0.0003570628,-4.572019,0.41414583,0.0,0.050788585,-0.058771703,-1.5249319,0.0,0.0,0.0,0.0,0.0,0.0,0.019655284,-0.006999446,-0.58018684
145960000,-0.042388488,0.0005022861,-4.712758,0.41414583,0.0,0.050073408,-0.05799591,-1.5194044,0.0,0.0,0.0,0.0,0.0,0.0,0.01915012,-0.0064926757,-0.57926536
146056000,-0.042325728,0.0005491199,-4.8530083,0.41414583,0.0,0.05018279,-0.060272932,-1.5227166,0.0,0.0,0.0,0.0,0.0,0.0,0.020640163,-0.006668677,-0.5800167
146152000,-0.04228451,0.0006923759,-4.995634,0.41414583,0.0,0.04876103,-0.06023932,-1.5209296,0.0,0.0,0.0,0.0,0.0,0.0,0.020507626,-0.006642271,-0.5792898
146268000,-0.042193726,0.0007718325,-5.1652136,0.41414583,0.0,0.045241017,-0.062416162,-1.5046301,0.0,0.0,0.0,0.0,0.0,0.0,0.018913649,-0.0074863345,-0.57057667
146364000,-0.042240426,0.0008068744,-5.305269,0.41414583,0.0,0.04729776,-0.062335115,-1.4642109,0.0,0.0,0.0,0.0,0.0,0.0,0.019447237,-0.008117892,-0.5660494
146464000,-0.04213775,0.00089459063,-5.4436016,0.41414583,0.0,0.04314985,-0.064765245,-1.4142041,0.0,0.0,0.0,0.0,0.0,0.0,0.019731453,-0.008732611,-0.565964
146560000,-0.042177398,0.00095087365,-5.5752463,0.41414583,0.0,0.04621782,-0.06456122,-1.3728241,0.0,0.0,0.0,0.0,0.0,0.0,0.019737288,-0.007924684,-0.56303823
146656000,-0.04218556,0.0009776388,-5.700266,0.41414583,0.0,0.041879244,-0.066980995,-1.3290232,0.0,0.0,0.0,0.0,0.0,0.0,0.019000355,-0.008412646,-0.56214076
146752000,-0.042151414,0.0010158648,-5.822419,0.41414583,0.0,0.042811748,-0.0659752,-1.2866489,0.0,0.0,0.0,0.0,0.0,0.0,0.020175189,-0.008484996,-0.56320524
146868000,-0.042268977,0.001060043,-5.967021,0.41414583,0.0,0.044909507,-0.06783558,-1.246931,0.0,0.0,0.0,0.0,0.0,0.0,0.020333312,-0.010146337,-0.5653262
146964000,-0.042033516,0.0011613553,-6.0771112,0.41414583,0.0,0.04505926,-0.06851681,-1.2089872,0.0,0.0,0.0,0.0,0.0,0.0,0.021422243,-0.010582692,-0.5645352
147064000,-0.042139478,0.0011710336,-6.194255,0.41414583,0.0,0.042459317,-0.07029857,-1.1684477,0.0,0.0,0.0,0.0,0.0,0.0,0.019983582,-0.011059498,-0.56219184
147160000,-0.042007506,0.0012664215,-6.303541,0.41414583,0.0,0.044938434,-0.069515646,-1.1350423,0.0,0.0,0.0,0.0,0.0,0.0,0.020448983,-0.010936019,-0.56308293
147256000,-0.04210868,0.0013171487,-6.409719,0.41414583,0.0,0.039952837,-0.07149422,-1.1051794,0.0,0.0,0.0,0.0,0.0,0.0,0.018792644,-0.010994841,-0.56399435
147352000,-0.042052437,0.0013400122,-6.5102983,0.41414583,0.0,0.042557612,-0.070423886,-1.0725168,0.0,0.0,0.0,0.0,0.0,0.0,0.019147012,-0.01049221,-0.5602726
147468000,-0.0420869,0.0013786419,-6.631126,0.41414583,0.0,0.0388161,-0.07138327,-1.0395375,0.0,0.0,0.0,0.0,0.0,0.0,0.01968716,-0.0107111,-0.5643544
147564000,-0.041976232,0.001440139,-6.72544,0.41414583,0.0,0.039392333,-0.06999779,-1.0089024,0.0,0.0,0.0,0.0,0.0,0.0,0.020408243,-0.010593919,-0.56512725
147664000,-0.04195973,0.0014607756,-6.821224,0.41414583,0.0,0.03905044,-0.068068475,-0.9777752,0.0,0.0,0.0,0.0,0.0,0.0,0.0207279,-0.00975944,-0.56410444
147760000,-0.04192428,0.001504237,-6.9124036,0.41414583,0.0,0.038438536,-0.066913374,-0.952654,0.0,0.0,0.0,0.0,0.0,0.0,0.019626401,-0.010557149,-0.564259
147856000,-0.041877862,0.0015396696,-6.999069,0.41414583,0.0,0.038856257,-0.06493966,-0.92580694,0.0,0.0,0.0,0.0,0.0,0.0,0.019443052,-0.010116236,-0.56311184
147952000,-0.041882172,0.001511459,-7.0823097,0.41414583,0.0,0.039343055,-0.061375517,-0.89785856,0.0,0.0,0.0,0.0,0.0,0.0,0.019930197,-0.009920288,-0.561418
148068000,-0.041812237,0.0016076622,-7.1830764,0.41414583,0.0,0.036918547,-0.060295295,-0.87294114,0.0,0.0,0.0,0.0,0.0,0.0,0.02009195,-0.009396105,-0.5653025
148164000,-0.04183078,0.0016473582,-7.263372,0.41414583,0.0,0.040122297,-0.055991605,-0.8503049,0.0,0.0,0.0,0.0,0.0,0.0,0.021141753,-0.008774016,-0.56467897
148264000,-0.041763365,0.0016485185,-7.342795,0.41414583,0.0,0.037458867,-0.05224475,-0.8223412,0.0,0.0,0.0,0.0,0.0,0.0,0.019777078,-0.007953934,-0.5634228
148360000,-0.041712236,0.0017011217,-7.4184127,0.41414583,0.0,0.040251296,-0.04883999,-0.8001121,0.0,0.0,0.0,0.0,0.0,0.0,0.021036662,-0.007642459,-0.5633039
148456000,-0.041661564,0.0017132545,-7.4906635,0.41414583,0.0,0.03787049,-0.043923333,-0.77690727,0.0,0.0,0.0,0.0,0.0,0.0,0.020099677,-0.006626917,-0.562095
148552000,-0.04165985,0.0017497457,-7.5619707,0.41414583,0.0,0.03749811,-0.042936623,-0.7561129,0.0,0.0,0.0,0.0,0.0,0.0,0.019634843,-0.0075763967,-0.5634691
148668000,-0.041576367,0.001862428,-7.6453395,0.41414583,0.0,0.03701529,-0.040393934,-0.73670286,0.0,0.0,0.0,0.0,0.0,0.0,0.018995546,-0.0077528306,-0.5656288
148764000,-0.041559327,0.0018371908,-7.711483,0.41414583,0.0,0.03591608,-0.037545353,-0.71748394,0.0,0.0,0.0,0.0,0.0,0.0,0.019218244,-0.007962482,-0.56413156
148864000,-0.041492403,0.0019214697,-7.7795405,0.41414583,0.0,0.035035625,-0.0380929,-0.6959433,0.0,0.0,0.0,0.0,0.0,0.0,0.01856012,-0.008715219,-0.56545734
148960000,-0.041462224,0.0019533357,-7.842547,0.41414583,0.0,0.03388141,-0.0367111,-0.67797506,0.0,0.0,0.0,0.0,0.0,0.0,0.018759912,-0.008477084,-0.5644172
149056000,-0.041431565,0.0019340526,-7.902804,0.41414583,0.0,0.03417407,-0.035041057,-0.65955216,0.0,0.0,0.0,0.0,0.0,0.0,0.017999018,-0.008238635,-0.56375444
149152000,-0.04140036,0.001947124,-7.9621935,0.41414583,0.0,0.031952657,-0.03438607,-0.64194024,0.0,0.0,0.0,0.0,0.0,0.0,0.017565608,-0.009114095,-0.5641229
149268000,-0.041365214,0.0019319635,-8.031125,0.41414583,0.0,0.03122172,-0.032713152,-0.6247429,0.0,0.0,0.0,0.0,0.0,0.0,0.018301789,-0.008839133,-0.56400424
149364000,-0.041376144,0.0019295478,-8.086978,0.41414583,0.0,0.032452095,-0.028798718,-0.60827684,0.0,0.0,0.0,0.0,0.0,0.0,0.01774259,-0.007828063,-0.5645289
149464000,-0.041374218,0.0019380411,-8.143514,0.41414583,0.0,0.030655857,-0.02835877,-0.5887961,0.0,0.0,0.0,0.0,0.0,0.0,0.017746793,-0.007815119,-0.56248915
149560000,-0.04134951,0.0019607805,-8.196153,0.41414583,0.0,0.031481724,-0.024618642,-0.5723514,0.0,0.0,0.0,0.0,0.0,0.0,0.01837816,-0.00729249,-0.5624978
149656000,-0.041356597,0.0018970168,-8.24703,0.41414583,0.0,0.032480843,-0.021342902,-0.557348,0.0,0.0,0.0,0.0,0.0,0.0,0.018977191,-0.006545656,-0.560986
149752000,-0.041287016,0.0020244818,-8.297113,0.41414583,0.0,0.033052195,-0.018284952,-0.5406799,0.0,0.0,0.0,0.0,0.0,0.0,0.018387314,-0.00688568,-0.56068474
149868000,-0.04126795,0.0019772814,-8.35501,0.41414583,0.0,0.03431883,-0.012962941,-0.5259006,0.0,0.0,0.0,0.0,0.0,0.0,0.01858671,-0.005459006,-0.5654071
149964000,-0.04122258,0.001985519,-8.401495,0.41414583,0.0,0.03379051,-0.010970566,-0.5128974,0.0,0.0,0.0,0.0,0.0,0.0,0.018888853,-0.005700119,-0.5645461
150064000,-0.041197214,0.0019687638,-8.448326,0.41414583,0.0,0.034542724,-0.0073389104,-0.4976893,0.0,0.0,0.0,0.0,0.0,0.0,0.018373303,-0.0049409745,-0.56326735
150160000,-0.041209918,0.0019610047,-8.492689,0.41414583,0.0,0.03628909,-0.0023034178,-0.48641467,0.0,0.0,0.0,0.0,0.0,0.0,0.018644817,-0.00448155,-0.56343615
150256000,-0.041183516,0.0019639987,-8.535368,0.41414583,0.0,0.035079572,-0.0015052827,-0.47297257,0.0,0.0,0.0,0.0,0.0,0.0,0.018386915,-0.004134908,-0.5614145
150352000,-0.04113493,0.0019752563,-8.576985,0.41414583,0.0,0.036699448,0.0030945118,-0.46049708,0.0,0.0,0.0,0.0,0.0,0.0,0.01918878,-0.0042463015,-0.56201726
150468000,-0.0411542,0.0019639453,-8.625679,0.41414583,0.0,0.036693882,0.005091539,-0.4488506,0.0,0.0,0.0,0.0,0.0,0.0,0.019243076,-0.004803163,-0.563763
150564000,-0.04112065,0.0019865786,-8.66431,0.41414583,0.0,0.03652513,0.005754874,-0.43791163,0.0,0.0,0.0,0.0,0.0,0.0,0.019023294,-0.0048037283,-0.56278586
150664000,-0.04110919,0.002040381,-8.703821,0.41414583,0.0,0.039071724,0.009029579,-0.42537138,0.0,0.0,0.0,0.0,0.0,0.0,0.018633243,-0.00592029,-0.56172574
150760000,-0.041133307,0.0020323116,-8.740689,0.41414583,0.0,0.036417585,0.00927348,-0.41466892,0.0,0.0,0.0,0.0,0.0,0.0,0.018029163,-0.004939667,-0.56207633
150856000,-0.041075308,0.0020677417,-8.776463,0.41414583,0.0,0.041100718,0.010844541,-0.40489206,0.0,0.0,0.0,0.0,0.0,0.0,0.020547006,-0.0046288953,-0.5626854
150952000,-0.041016523,0.0020482019,-8.81105,0.41414583,0.0,0.037971266,0.010924644,-0.3963824,0.0,0.0,0.0,0.0,0.0,0.0,0.019321065,-0.0048200097,-0.56389487
151048000,-0.041062437,0.002062094,-8.845028,0.41414583,0.0,0.041644234,0.010979105,-0.38808653,0.0,0.0,0.0,0.0,0.0,0.0,0.019511124,-0.0054667257,-0.56241393
151164000,-0.04110151,0.002062614,-8.884672,0.41414583,0.0,0.041427046,0.013162429,-0.38017967,0.0,0.0,0.0,0.0,0.0,0.0,0.018946806,-0.0044186646,-0.5639097
151264000,-0.041030712,0.00204841,-8.917393,0.41414583,0.0,0.04351041,0.012425217,-0.37019372,0.0,0.0,0.0,0.0,0.0,0.0,0.019648628,-0.0045059826,-0.56246686
151360000,-0.041044906,0.0020489064,-8.948364,0.41414583,0.0,0.044996765,0.013518261,-0.36220157,0.0,0.0,0.0,0.0,0.0,0.0,0.019922331,-0.0040780534,-0.5632846
151456000,-0.04103793,0.0020315375,-8.9781885,0.41414583,0.0,0.045800433,0.014877734,-0.3539839,0.0,0.0,0.0,0.0,0.0,0.0,0.019778881,-0.0041312804,-0.56349456
151552000,-0.041036624,0.0020203777,-9.0073395,0.41414583,0.0,0.046975825,0.014993681,-0.34589472,0.0,0.0,0.0,0.0,0.0,0.0,0.01925655,-0.003960012,-0.562207
151668000,-0.040977452,0.0020652334,-9.041119,0.41414583,0.0,0.0491002,0.015492999,-0.3366078,0.0,0.0,0.0,0.0,0.0,0.0,0.019620037,-0.0046661394,-0.56101286
151764000,-0.041053325,0.0019546414,-9.068526,0.41414583,0.0,0.049136885,0.013954145,-0.32884344,0.0,0.0,0.0,0.0,0.0,0.0,0.019187737,-0.0048299134,-0.562884
151864000,-0.041027673,0.0021014516,-9.095763,0.41414583,0.0,0.050107792,0.01741277,-0.31964296,0.0,0.0,0.0,0.0,0.0,0.0,0.019432586,-0.0038347207,-0.5638757
151960000,-0.0410724,0.002052813,-9.121431,0.41414583,0.0,0.049814384,0.013113249,-0.3127939,0.0,0.0,0.0,0.0,0.0,0.0,0.019069726,-0.005009451,-0.5626246
152056000,-0.04108833,0.0020120428,-9.146398,0.41414583,0.0,0.051435802,0.013539866,-0.305177,0.0,0.0,0.0,0.0,0.0,0.0,0.018493861,-0.0045047733,-0.5627717
152152000,-0.041119922,0.0019217562,-9.170984,0.41414583,0.0,0.052082736,0.01621104,-0.29838824,0.0,0.0,0.0,0.0,0.0,0.0,0.01825998,-0.0036075995,-0.56245685
152268000,-0.041079007,0.0019582207,-9.199017,0.41414583,0.0,0.05275039,0.013447391,-0.29043984,0.0,0.0,0.0,0.0,0.0,0.0,0.018884208,-0.0039213696,-0.56332743
152364000,-0.041093666,0.001986983,-9.221933,0.41414583,0.0,0.0543397,0.016082993,-0.28447366,0.0,0.0,0.0,0.0,0.0,0.0,0.019222986,-0.003207454,-0.5636707
152464000,-0.041115906,0.0019534572,-9.244937,0.41414583,0.0,0.053646922,0.014971735,-0.27620935,0.0,0.0,0.0,0.0,0.0,0.0,0.019443687,-0.004319139,-0.5624565
152560000,-0.041095857,0.001998573,-9.266138,0.3917182,0.0,0.056139123,0.012318995,-0.2670456,0.0,0.0,0.0,0.0,0.0,0.0,0.020150464,-0.004514102,-0.56136405
152656000,-0.041447286,-0.0011936306,-9.286038,0.31632,0.0,0.051164523,-0.06518189,-0.24444325,0.0,0.0,0.0,0.0,0.0,0.0,0.018248953,-0.019402143,-0.5546621
152752000,-0.042392727,-0.016018948,-9.304856,0.24092178,0.0,0.045927793,-0.24380066,-0.23965688,0.0,0.0,0.0,0.0,0.0,0.0,0.016157053,-0.05395147,-0.56343293
152868000,-0.0442569,-0.059968725,-9.326297,0.14981554,0.0,0.038094454,-0.58166885,-0.2348139,0.0,0.0,0.0,0.0,0.0,0.0,0.01339562,-0.110395454,-0.55376035
152964000,-0.046373285,-0.122664675,-9.343161,0.074417315,0.0,0.031201841,-0.8971284,-0.22816166,0.0,0.0,0.0,0.0,0.0,0.0,0.011150963,-0.15225889,-0.5489804
153064000,-0.04907754,-0.21180809,-9.359822,-0.004122503,0.0,0.022765536,-1.2290723,-0.22109401,0.0,0.0,0.0,0.0,0.0,0.0,0.010036709,-0.17924917,-0.54459774
153160000,-0.052085496,-0.31744507,-9.374906,-0.07952073,0.0,0.014266785,-1.5435517,-0.21247584,0.0,0.0,0.0,0.0,0.0,0.0,0.009713451,-0.19903366,-0.5423875
153256000,-0.055431925,-0.43988183,-9.38905,-0.15491897,0.0,0.006754063,-1.8487176,-0.2061193,0.0,0.0,0.0,0.0,0.0,0.0,0.010049694,-0.21505776,-0.54556173
153352000,-0.059069004,-0.5768821,-9.402286,-0.23031723,0.0,-0.00081450865,-2.1395035,-0.19938508,0.0,0.0,0.0,0.0,0.0,0.0,0.010355394,-0.23050477,-0.5463251
153448000,-0.06295461,-0.72646034,-9.414725,-0.30571544,0.0,-0.007325206,-2.4186068,-0.190179,0.0,0.0,0.0,0.0,0.0,0.0,0.008160027,-0.24569906,-0.545227
153564000,-0.06794969,-0.92231774,-9.428822,-0.39682162,0.0,-0.01579972,-2.7387865,-0.1818419,0.0,0.0,0.0,0.0,0.0,0.0,0.005877929,-0.26850757,-0.54817176
153664000,-0.07249103,-1.103024,-9.440238,-0.4753614,0.0,-0.022516306,-2.9934373,-0.17442554,0.0,0.0,0.0,0.0,0.0,0.0,0.003572003,-0.2758544,-0.5484074
153760000,-0.07706006,-1.2868152,-9.450707,-0.5507596,0.0,-0.029692352,-3.226999,-0.16793026,0.0,0.0,0.0,0.0,0.0,0.0,0.001343566,-0.28626376,-0.5484529
153856000,-0.081837475,-1.4807162,-9.460752,-0.6261578,0.0,-0.036187015,-3.4503725,-0.16203497,0.0,0.0,0.0,0.0,0.0,0.0,9.538606e-05,-0.29707867,-0.5495526
153952000,-0.086839125,-1.6852878,-9.470453,-0.701556,0.0,-0.043581188,-3.663269,-0.15538682,0.0,0.0,0.0,0.0,0.0,0.0,-0.0023701722,-0.30825058,-0.5491949
154068000,-0.09325132,-1.9476501,-9.481809,-0.7926622,0.0,-0.053196214,-3.9195426,-0.14988591,0.0,0.0,0.0,0.0,0.0,0.0,-0.0049465913,-0.32571054,-0.5512557
154168000,-0.09921345,-2.1877236,-9.491334,-0.871202,0.0,-0.06294506,-4.11936,-0.14534952,0.0,0.0,0.0,0.0,0.0,0.0,-0.007826688,-0.33053008,-0.55281323
154264000,-0.105355434,-2.4316926,-9.500299,-0.9466002,0.0,-0.071982354,-4.3146667,-0.14309493,0.0,0.0,0.0,0.0,0.0,0.0,-0.012092532,-0.34080118,-0.55320466
154360000,-0.111922644,-2.6894765,-9.509115,-1.0219985,0.0,-0.082565084,-4.5082545,-0.14069301,0.0,0.0,0.0,0.0,0.0,0.0,-0.015136096,-0.35301617,-0.5515036
154456000,-0.11893529,-2.9618304,-9.517803,-1.097397,0.0,-0.09262856,-4.7008004,-0.13926046,0.0,0.0,0.0,0.0,0.0,0.0,-0.018264571,-0.36339444,-0.5510538
154572000,-0.12802975,-3.3113189,-9.528151,-1.1885034,0.0,-0.10619241,-4.94458,-0.13682605,0.0,0.0,0.0,0.0,0.0,0.0,-0.02283106,-0.38247102,-0.55119544
154668000,-0.136112,-3.6180322,-9.536597,-1.2639018,0.0,-0.11684903,-5.1362042,-0.13547975,0.0,0.0,0.0,0.0,0.0,0.0,-0.025860736,-0.39235017,-0.552018
154768000,-0.14518091,-3.9534922,-9.545274,-1.3424419,0.0,-0.12991259,-5.289304,-0.13399622,0.0,0.0,0.0,0.0,0.0,0.0,-0.03129558,-0.3899207,-0.55254817
154864000,-0.15459204,-4.290079,-9.553553,-1.4178404,0.0,-0.14033546,-5.395426,-0.13534704,0.0,0.0,0.0,0.0,0.0,0.0,-0.034632333,-0.38350135,-0.5591284
154960000,-0.16475184,-4.638032,-9.561767,-1.4932388,0.0,-0.15446615,-5.452361,-0.13759342,0.0,0.0,0.0,0.0,0.0,0.0,-0.040094584,-0.37377387,-0.56921375
155056000,-0.17584969,-4.99589,-9.569951,-1.5686373,0.0,-0.16595359,-5.4533067,-0.1412391,0.0,0.0,0.0,0.0,0.0,0.0,-0.04278009,-0.35807502,-0.57871234
155172000,-0.19021106,-5.4378676,-9.579822,-1.6017469,0.0,-0.1700841,-5.419797,-0.14798626,0.0,0.0,0.0,0.0,0.0,0.0,-0.0463505,-0.34816194,-0.58689654
155268000,-0.20212361,-5.8119545,-9.587991,-1.6017351,0.0,-0.16629204,-5.397852,-0.1553151,0.0,0.0,0.0,0.0,0.0,0.0,-0.046876736,-0.35005748,-0.5868805
155368000,-0.21480682,-6.2084017,-9.596449,-1.6017443,0.0,-0.16858907,-5.3616786,-0.16145387,0.0,0.0,0.0,0.0,0.0,0.0,-0.05099046,-0.3539783,-0.57704985
155464000,-0.22721891,-6.595907,-9.604518,-1.6017017,0.0,-0.16281268,-5.3400016,-0.16825591,0.0,0.0,0.0,0.0,0.0,0.0,-0.05261996,-0.3569861,-0.5738478
155560000,-0.23976533,-6.9879017,-9.612488,-1.6016927,0.0,-0.16340943,-5.332386,-0.17216238,0.0,0.0,0.0,0.0,0.0,0.0,-0.055887777,-0.35678962,-0.5727864
155656000,-0.25248662,-7.384652,-9.620383,-1.601593,0.0,-0.15271232,-5.312401,-0.17804807,0.0,0.0,0.0,0.0,0.0,0.0,-0.052601773,-0.3496,-0.5794074
155772000,-0.26789504,-7.8690166,-9.629762,-1.6015166,0.0,-0.14613348,-5.314925,-0.18788303,0.0,0.0,0.0,0.0,0.0,0.0,-0.052947756,-0.3468461,-0.58768165
155868000,-0.28084415,-8.274342,-9.637391,-1.6013647,0.0,-0.13292967,-5.3026676,-0.19610676,0.0,0.0,0.0,0.0,0.0,0.0,-0.05040558,-0.34520572,-0.58921
155968000,-0.29442215,-8.699114,-9.645193,-1.6012391,0.0,-0.12023941,-5.275031,-0.20294204,0.0,0.0,0.0,0.0,0.0,0.0,-0.04989834,-0.34473422,-0.58534336
156064000,-0.30749303,-9.110216,-9.652556,-1.6010394,0.0,-0.10325664,-5.2645187,-0.20976734,0.0,0.0,0.0,0.0,0.0,0.0,-0.04728657,-0.34787402,-0.5835588
156160000,-0.3206641,-9.522507,-9.659761,-1.6008962,0.0,-0.08913002,-5.25794,-0.21542531,0.0,0.0,0.0,0.0,0.0,0.0,-0.04629077,-0.35001117,-0.58143854
156256000,-0.3338063,-9.93575,-9.666804,-1.6006329,0.0,-0.06665107,-5.246423,-0.22388202,0.0,0.0,0.0,0.0,0.0,0.0,-0.042135626,-0.34618184,-0.5857871
156372000,-0.3496552,-10.435323,-9.675091,-1.6004004,0.0,-0.04620345,-5.250749,-0.23407277,0.0,0.0,0.0,0.0,0.0,0.0,-0.040359713,-0.34493846,-0.5910834
156468000,-0.36276317,-10.847782,-9.681717,-1.6001037,0.0,-0.019850686,-5.2356787,-0.24432641,0.0,0.0,0.0,0.0,0.0,0.0,-0.03686232,-0.34100705,-0.5940222
156568000,-0.37637123,-11.27596,-9.688531,-1.5998551,0.0,0.0012581944,-5.209893,-0.25199914,0.0,0.0,0.0,0.0,0.0,0.0,-0.03708879,-0.3386155,-0.5909517
156664000,-0.38930613,-11.684674,-9.694717,-1.5995278,0.0,0.030789629,-5.1927934,-0.2604689,0.0,0.0,0.0,0.0,0.0,0.0,-0.031094117,-0.3390254,-0.59175193
156760000,-0.4021903,-12.090806,-9.700851,-1.5992908,0.0,0.050910786,-5.179324,-0.26582688,0.0,0.0,0.0,0.0,0.0,0.0,-0.030661898,-0.33903414,-0.5887923
156856000,-0.41488263,-12.492372,-9.706628,-1.5989246,0.0,0.082701564,-5.158058,-0.27333724,0.0,0.0,0.0,0.0,0.0,0.0,-0.024624448,-0.3357372,-0.591346
156972000,-0.43005386,-12.972344,-9.713491,-1.5986137,0.0,0.10964613,-5.147169,-0.27677226,0.0,0.0,0.0,0.0,0.0,0.0,-0.023210695,-0.334509,-0.5902557
157068000,-0.4423839,-13.362602,-9.71884,-1.5982546,0.0,0.13949083,-5.119384,-0.28338626,0.0,0.0,0.0,0.0,0.0,0.0,-0.018733056,-0.3310344,-0.5946694
157168000,-0.4550361,-13.7637205,-9.724297,-1.5979716,0.0,0.16460247,-5.0750694,-0.28397462,0.0,0.0,0.0,0.0,0.0,0.0,-0.017804155,-0.32542485,-0.59131545
157264000,-0.46763253,-14.16261,-9.729539,-1.5976335,0.0,0.19273062,-5.0560174,-0.28941625,0.0,0.0,0.0,0.0,0.0,0.0,-0.013771583,-0.32629082,-0.5943596
157360000,-0.48073924,-14.578862,-9.735021,-1.5974114,0.0,0.20953146,-5.0572004,-0.28862473,0.0,0.0,0.0,0.0,0.0,0.0,-0.014224501,-0.33049113,-0.58790445
157456000,-0.49448842,-15.014799,-9.740456,-1.5970744,0.0,0.23700984,-5.0699406,-0.2921594,0.0,0.0,0.0,0.0,0.0,0.0,-0.008794808,-0.33564335,-0.5877732
157572000,-0.5097134,-15.497881,-9.746313,-1.59682,0.0,0.2571015,-5.0686626,-0.2902248,0.0,0.0,0.0,0.0,0.0,0.0,-0.0071511674,-0.33428383,-0.5856176
157668000,-0.5232473,-15.928994,-9.75157,-1.5965283,0.0,0.2793175,-5.0816584,-0.29375318,0.0,0.0,0.0,0.0,0.0,0.0,-0.0044833315,-0.33489397,-0.592061
157768000,-0.5363637,-16.344816,-9.756409,-1.5963296,0.0,0.29405975,-5.0527806,-0.28727102,0.0,0.0,0.0,0.0,0.0,0.0,-0.0041017816,-0.3272293,-0.5871496
157864000,-0.549798,-16.77195,-9.761259,-1.5960784,0.0,0.31474304,-5.0640745,-0.28957632,0.0,0.0,0.0,0.0,0.0,0.0,-0.0005284167,-0.33065128,-0.5931988
157960000,-0.5631449,-17.198042,-9.766,-1.5959485,0.0,0.32222143,-5.0707192,-0.2837969,0.0,0.0,0.0,0.0,0.0,0.0,-0.002009303,-0.3320115,-0.5860539
158056000,-0.57556665,-17.591612,-9.770191,-1.5957288,0.0,0.33904085,-5.0552874,-0.28507414,0.0,0.0,0.0,0.0,0.0,0.0,0.001169671,-0.3305295,-0.59192127
158152000,-0.58879805,-18.015213,-9.774816,-1.5956835,0.0,0.34110433,-5.0664635,-0.27869463,0.0,0.0,0.0,0.0,0.0,0.0,-0.0025224169,-0.3328396,-0.58453155
158268000,-0.6043182,-18.50838,-9.779808,-1.5957162,0.0,0.334791,-5.081922,-0.27141583,0.0,0.0,0.0,0.0,0.0,0.0,-0.006327348,-0.33793867,-0.5852712
158368000,-0.61698896,-18.914476,-9.783848,-1.5956159,0.0,0.3423554,-5.057199,-0.2650761,0.0,0.0,0.0,0.0,0.0,0.0,-0.0032809856,-0.33083344,-0.58722705
158464000,-0.6303298,-19.338076,-9.7878065,-1.5955902,0.0,0.34138483,-5.0755005,-0.2633869,0.0,0.0,0.0,0.0,0.0,0.0,-0.0018302124,-0.3335478,-0.59158486
158560000,-0.64250404,-19.72934,-9.791539,-1.5954587,0.0,0.35110337,-5.067344,-0.25732666,0.0,0.0,0.0,0.0,0.0,0.0,0.0012391064,-0.33117205,-0.58871496
158656000,-0.6547524,-20.120089,-9.795002,-1.5954293,0.0,0.35153377,-5.059749,-0.2530084,0.0,0.0,0.0,0.0,0.0,0.0,0.002252847,-0.33252797,-0.5888481
158772000,-0.67006344,-20.609459,-9.799492,-1.5952876,0.0,0.35915214,-5.0789127,-0.24661337,0.0,0.0,0.0,0.0,0.0,0.0,0.0038792724,-0.33770502,-0.58658326
158868000,-0.68222183,-20.998634,-9.802843,-1.5952619,0.0,0.35944313,-5.0709286,-0.24014273,0.0,0.0,0.0,0.0,0.0,0.0,0.0035249335,-0.33670717,-0.585897
158968000,-0.69580984,-21.433048,-9.806538,-1.5951781,0.0,0.3646501,-5.072427,-0.23194668,0.0,0.0,0.0,0.0,0.0,0.0,0.00480084,-0.33701512,-0.58646846
159064000,-0.7079648,-21.82183,-9.809793,-1.5951849,0.0,0.36171508,-5.0622725,-0.22681668,0.0,0.0,0.0,0.0,0.0,0.0,0.0043141423,-0.33440408,-0.58815944
159160000,-0.7211259,-22.242802,-9.813137,-1.5951316,0.0,0.36320502,-5.0768023,-0.22034512,0.0,0.0,0.0,0.0,0.0,0.0,0.005965985,-0.33627206,-0.5886557
159256000,-0.7332468,-22.631762,-9.8162565,-1.5951768,0.0,0.35807112,-5.0660753,-0.21510723,0.0,0.0,0.0,0.0,0.0,0.0,0.0046323193,-0.3336994,-0.58915985
159352000,-0.74546784,-23.021025,-9.819235,-1.595144,0.0,0.35842967,-5.052121,-0.20958677,0.0,0.0,0.0,0.0,0.0,0.0,0.0060962867,-0.33215016,-0.5902068
159468000,-0.7617139,-23.543247,-9.823192,-1.5952135,0.0,0.34869838,-5.0916286,-0.20172897,0.0,0.0,0.0,0.0,0.0,0.0,0.004230691,-0.34092686,-0.58622426
159568000,-0.77444416,-23.9477,-9.826184,-1.5952278,0.0,0.34671867,-5.0611563,-0.19658615,0.0,0.0,0.0,0.0,0.0,0.0,0.004573103,-0.33620116,-0.5857849
159664000,-0.7876159,-24.371273,-9.829236,-1.595315,0.0,0.33766374,-5.074098,-0.18614532,0.0,0.0,0.0,0.0,0.0,0.0,0.004208717,-0.33886114,-0.5848667
159760000,-0.79990274,-24.764626,-9.831947,-1.5953538,0.0,0.33312327,-5.0614285,-0.1810886,0.0,0.0,0.0,0.0,0.0,0.0,0.00496027,-0.33542505,-0.5877884
159856000,-0.81315666,-25.189827,-9.834774,-1.5954733,0.0,0.3201726,-5.0720344,-0.17381069,0.0,0.0,0.0,0.0,0.0,0.0,0.0028775171,-0.33590245,-0.5898013
159952000,-0.8255165,-25.586226,-9.837449,-1.5955287,0.0,0.3167238,-5.0573063,-0.1685442,0.0,0.0,0.0,0.0,0.0,0.0,0.004167869,-0.3317572,-0.59006053
160068000,-0.84106076,-26.085003,-9.840659,-1.5956799,0.0,0.29923087,-5.0707173,-0.16260746,0.0,0.0,0.0,0.0,0.0,0.0,0.00093859225,-0.33564383,-0.5892863
160168000,-0.85489213,-26.527977,-9.843432,-1.5957717,0.0,0.29213405,-5.061633,-0.15863073,0.0,0.0,0.0,0.0,0.0,0.0,0.0017742226,-0.33530447,-0.5900946
160264000,-0.86832154,-26.95796,-9.846057,-1.5959157,0.0,0.2780165,-5.074309,-0.15468559,0.0,0.0,0.0,0.0,0.0,0.0,0.0006134202,-0.33841562,-0.58733976
160360000,-0.88089395,-27.361992,-9.848461,-1.5960222,0.0,0.26929724,-5.0619583,-0.15050669,0.0,0.0,0.0,0.0,0.0,0.0,0.00044860138,-0.3365616,-0.5870686
160456000,-0.89354247,-27.768888,-9.850841,-1.5961928,0.0,0.25451264,-5.054103,-0.14459477,0.0,0.0,0.0,0.0,0.0,0.0,-0.0012605594,-0.3332955,-0.5888035
160572000,-0.91015524,-28.302885,-9.853863,-1.5963326,0.0,0.24136008,-5.089636,-0.13797909,0.0,0.0,0.0,0.0,0.0,0.0,-0.000682761,-0.33970976,-0.58856815
160668000,-0.9229424,-28.714165,-9.856086,-1.5964943,0.0,0.22697335,-5.081711,-0.1353051,0.0,0.0,0.0,0.0,0.0,0.0,-0.0034008329,-0.33781773,-0.5916732
160768000,-0.9362402,-29.142769,-9.858473,-1.5966128,0.0,0.21670471,-5.0594416,-0.12748514,0.0,0.0,0.0,0.0,0.0,0.0,-0.0032383916,-0.33446616,-0.58636993
160864000,-0.9491847,-29.558569,-9.860631,-1.5967675,0.0,0.20464773,-5.056703,-0.12426318,0.0,0.0,0.0,0.0,0.0,0.0,-0.0030361004,-0.33471796,-0.5890152
160960000,-0.9628932,-29.99821,-9.862984,-1.5968825,0.0,0.19282188,-5.0692005,-0.11704476,0.0,0.0,0.0,0.0,0.0,0.0,-0.0033424385,-0.3370635,-0.5876517
161056000,-0.97588897,-30.417706,-9.864975,-1.5970489,0.0,0.18066084,-5.071672,-0.11270559,0.0,0.0,0.0,0.0,0.0,0.0,-0.0044430234,-0.3374961,-0.5883689
161172000,-0.9914435,-30.918747,-9.867546,-1.5971892,0.0,0.16704017,-5.0723076,-0.10788714,0.0,0.0,0.0,0.0,0.0,0.0,-0.0061465977,-0.3368806,-0.5888421
161268000,-1.0046501,-31.343044,-9.869382,-1.5973507,0.0,0.15420781,-5.077133,-0.10299679,0.0,0.0,0.0,0.0,0.0,0.0,-0.005999981,-0.33774266,-0.5903134
161368000,-1.0183804,-31.785557,-9.871516,-1.5974859,0.0,0.14335454,-5.05957,-0.10368141,0.0,0.0,0.0,0.0,0.0,0.0,-0.0061201206,-0.33452672,-0.59089136
161464000,-1.031729,-32.213997,-9.873474,-1.5976437,0.0,0.13023622,-5.063235,-0.09706964,0.0,0.0,0.0,0.0,0.0,0.0,-0.007622549,-0.33599707,-0.5880787
161560000,-1.0450336,-32.644215,-9.875383,-1.597763,0.0,0.121382326,-5.0689554,-0.09773375,0.0,0.0,0.0,0.0,0.0,0.0,-0.0077847606,-0.33723804,-0.5935034
161656000,-1.0579065,-33.05975,-9.877164,-1.5979242,0.0,0.107543856,-5.056407,-0.091880254,0.0,0.0,0.0,0.0,0.0,0.0,-0.008941637,-0.33511752,-0.58844787
161772000,-1.0739952,-33.578022,-9.879295,-1.5980561,0.0,0.09744613,-5.076282,-0.08964478,0.0,0.0,0.0,0.0,0.0,0.0,-0.009183614,-0.33973795,-0.5895356
161868000,-1.0875405,-34.014477,-9.881038,-1.5982014,0.0,0.08420755,-5.081587,-0.08692017,0.0,0.0,0.0,0.0,0.0,0.0,-0.009935636,-0.34106618,-0.58954835
161968000,-1.1011564,-34.454563,-9.882672,-1.5983227,0.0,0.07651569,-5.0644875,-0.081938945,0.0,0.0,0.0,0.0,0.0,0.0,-0.0093983095,-0.33738056,-0.5877439
162064000,-1.114433,-34.880474,-9.884304,-1.5984626,0.0,0.06423327,-5.062459,-0.07870132,0.0,0.0,0.0,0.0,0.0,0.0,-0.010398426,-0.33694434,-0.589071
162160000,-1.1276075,-35.308456,-9.8857975,-1.5985688,0.0,0.058010027,-5.0627756,-0.0774424,0.0,0.0,0.0,0.0,0.0,0.0,-0.010536988,-0.33614454,-0.5903587
162256000,-1.141022,-35.738857,-9.887486,-1.5987111,0.0,0.043563917,-5.0623846,-0.07502582,0.0,0.0,0.0,0.0,0.0,0.0,-0.012746836,-0.3365148,-0.58943295
162372000,-1.1571348,-36.259277,-9.889237,-1.5988373,0.0,0.036597207,-5.078385,-0.071956426,0.0,0.0,0.0,0.0,0.0,0.0,-0.012800707,-0.34053648,-0.5900845
162468000,-1.170697,-36.69441,-9.890711,-1.5989741,0.0,0.022774145,-5.0822167,-0.06982483,0.0,0.0,0.0,0.0,0.0,0.0,-0.013574798,-0.34164324,-0.5899277
162568000,-1.1844708,-37.13835,-9.892178,-1.5990931,0.0,0.017623022,-5.061946,-0.06798953,0.0,0.0,0.0,0.0,0.0,0.0,-0.0131161865,-0.33673579,-0.5898402
162664000,-1.1977702,-37.567657,-9.893547,-1.599222,0.0,0.006487623,-5.060891,-0.066410415,0.0,0.0,0.0,0.0,0.0,0.0,-0.014164833,-0.33596992,-0.59101063
162760000,-1.2114464,-38.009106,-9.894909,-1.5993116,0.0,-0.0005541444,-5.0672226,-0.06515661,0.0,0.0,0.0,0.0,0.0,0.0,-0.013906703,-0.33732733,-0.5920554
162856000,-1.2248852,-38.442955,-9.896254,-1.5994304,0.0,-0.009088382,-5.067735,-0.064396255,0.0,0.0,0.0,0.0,0.0,0.0,-0.014649253,-0.33749422,-0.5906352
162972000,-1.2412058,-38.96999,-9.897741,-1.5995294,0.0,-0.016427293,-5.08334,-0.0629315,0.0,0.0,0.0,0.0,0.0,0.0,-0.014061155,-0.34240025,-0.5910512
163068000,-1.2547984,-39.40857,-9.89917,-1.5996617,0.0,-0.027045906,-5.0903873,-0.0613366,0.0,0.0,0.0,0.0,0.0,0.0,-0.015554325,-0.34434527,-0.5904605
163168000,-1.2690051,-39.868076,-9.900472,-1.5998087,0.0,-0.036360003,-5.084227,-0.05866964,0.0,0.0,0.0,0.0,0.0,0.0,-0.016358657,-0.3432235,-0.5887479
163264000,-1.2827022,-40.310078,-9.901652,-1.5998899,0.0,-0.04331498,-5.1044264,-0.05488491,0.0,0.0,0.0,0.0,0.0,0.0,-0.016571911,-0.34680167,-0.58804435
163360000,-1.2963619,-40.752148,-9.902866,-1.5999906,0.0,-0.051026694,-5.116521,-0.057755772,0.0,0.0,0.0,0.0,0.0,0.0,-0.016546343,-0.34661555,-0.5901606
163456000,-1.310022,-41.19245,-9.904037,-1.6000357,0.0,-0.05482859,-5.138077,-0.05321403,0.0,0.0,0.0,0.0,0.0,0.0,-0.016644565,-0.34909433,-0.5884975
163572000,-1.3263887,-41.72281,-9.905355,-1.6001202,0.0,-0.062074117,-5.166159,-0.055375744,0.0,0.0,0.0,0.0,0.0,0.0,-0.016880758,-0.35199314,-0.59065837
163668000,-1.3399099,-42.158943,-9.906486,-1.6001662,0.0,-0.06558143,-5.180405,-0.05066349,0.0,0.0,0.0,0.0,0.0,0.0,-0.016441924,-0.3532188,-0.58686703
163768000,-1.3538908,-42.61163,-9.907602,-1.6002418,0.0,-0.07125332,-5.172734,-0.048905626,0.0,0.0,0.0,0.0,0.0,0.0,-0.017049091,-0.35066608,-0.58735913
163864000,-1.3673097,-43.045002,-9.908521,-1.6002898,0.0,-0.07367571,-5.182435,-0.04876293,0.0,0.0,0.0,0.0,0.0,0.0,-0.016105756,-0.3517658,-0.59021646
163960000,-1.380696,-43.477764,-9.909623,-1.600361,0.0,-0.08118695,-5.1847706,-0.04905159,0.0,0.0,0.0,0.0,0.0,0.0,-0.016624343,-0.3515851,-0.5910634
164056000,-1.3940873,-43.909824,-9.910472,-1.6003981,0.0,-0.08225504,-5.1898184,-0.049009893,0.0,0.0,0.0,0.0,0.0,0.0,-0.0147259785,-0.35087076,-0.5925081
164172000,-1.4102393,-44.43235,-9.91172,-1.6004674,0.0,-0.08765827,-5.2054563,-0.052645136,0.0,0.0,0.0,0.0,0.0,0.0,-0.01685257,-0.35310566,-0.59378946
164268000,-1.4236151,-44.864662,-9.912497,-1.600508,0.0,-0.09083743,-5.205836,-0.05098069,0.0,0.0,0.0,0.0,0.0,0.0,-0.01627657,-0.35483202,-0.59152
164368000,-1.4375553,-45.31531,-9.91344,-1.6005753,0.0,-0.09555356,-5.1901116,-0.05499572,0.0,0.0,0.0,0.0,0.0,0.0,-0.017475838,-0.3525753,-0.59412855
164464000,-1.4509326,-45.74887,-9.914187,-1.60062,0.0,-0.097805455,-5.190229,-0.05408962,0.0,0.0,0.0,0.0,0.0,0.0,-0.016149947,-0.3529451,-0.59156144
164560000,-1.4644161,-46.183212,-9.915041,-1.6006858,0.0,-0.10245618,-5.18773,-0.056260668,0.0,0.0,0.0,0.0,0.0,0.0,-0.01712291,-0.3532159,-0.5923292
164656000,-1.4778558,-46.61858,-9.915807,-1.6007302,0.0,-0.105778486,-5.18515,-0.05711406,0.0,0.0,0.0,0.0,0.0,0.0,-0.016623292,-0.35091347,-0.5928315
164772000,-1.4941977,-47.14673,-9.91685,-1.6008077,0.0,-0.110055745,-5.1974807,-0.055123374,0.0,0.0,0.0,0.0,0.0,0.0,-0.016821103,-0.35403,-0.59175783
164868000,-1.507784,-47.584885,-9.917579,-1.6008621,0.0,-0.115018845,-5.1936007,-0.05572728,0.0,0.0,0.0,0.0,0.0,0.0,-0.017350124,-0.35352427,-0.59327036
164968000,-1.5218449,-48.042374,-9.918358,-1.6009405,0.0,-0.11751099,-5.1753125,-0.05523928,0.0,0.0,0.0,0.0,0.0,0.0,-0.017139208,-0.3510154,-0.5930174
165064000,-1.5355225,-48.483204,-9.919076,-1.6010064,0.0,-0.122949265,-5.1725397,-0.055654258,0.0,0.0,0.0,0.0,0.0,0.0,-0.017277557,-0.35159096,-0.59395117
165160000,-1.5491364,-48.925175,-9.919779,-1.6010854,0.0,-0.12773941,-5.170055,-0.055398703,0.0,0.0,0.0,0.0,0.0,0.0,-0.018627644,-0.3526088,-0.59276396
165256000,-1.5629116,-49.36817,-9.920469,-1.6011533,0.0,-0.13085711,-5.1675386,-0.05509165,0.0,0.0,0.0,0.0,0.0,0.0,-0.018239208,-0.351889,-0.59145784
165372000,-1.579361,-49.90524,-9.921283,-1.6012452,0.0,-0.1378228,-5.1802354,-0.0537734,0.0,0.0,0.0,0.0,0.0,0.0,-0.019263558,-0.3557674,-0.5925234
165452000,-1.5908676,-50.274117,-9.921831,-1.6012973,0.0,-0.14156787,-5.1765437,-0.055221003,0.0,0.0,0.0,0.0,0.0,0.0,-0.01939696,-0.35486266,-0.5952359
165568000,-1.6073763,-50.80907,-9.922625,-1.6013829,0.0,-0.14581583,-5.185688,-0.055184014,0.0,0.0,0.0,0.0,0.0,0.0,-0.019598866,-0.35669422,-0.59246695
165668000,-1.6217401,-51.271183,-9.923261,-1.6014438,0.0,-0.14795482,-5.1661925,-0.053545367,0.0,0.0,0.0,0.0,0.0,0.0,-0.018925535,-0.35295165,-0.5905138
165764000,-1.6353464,-51.716667,-9.923851,-1.6015105,0.0,-0.15157391,-5.162465,-0.05183053,0.0,0.0,0.0,0.0,0.0,0.0,-0.019283324,-0.35336077,-0.591345
165860000,-1.6492968,-52.163536,-9.924461,-1.6015744,0.0,-0.1576413,-5.156695,-0.050637215,0.0,0.0,0.0,0.0,0.0,0.0,-0.020251323,-0.35226494,-0.59299433
165956000,-1.6630825,-52.611538,-9.925021,-1.6016434,0.0,-0.15752262,-5.155222,-0.05011758,0.0,0.0,0.0,0.0,0.0,0.0,-0.019228498,-0.3518979,-0.5926024
166072000,-1.6799514,-53.155178,-9.925692,-1.6016979,0.0,-0.16516303,-5.163683,-0.05001262,0.0,0.0,0.0,0.0,0.0,0.0,-0.019401344,-0.35473895,-0.5957447
166168000,-1.6938958,-53.60572,-9.926271,-1.6017498,0.0,-0.16416661,-5.162082,-0.049849443,0.0,0.0,0.0,0.0,0.0,0.0,-0.019199334,-0.3545018,-0.5942753
166268000,-1.7083797,-54.07599,-9.9267435,-1.6018044,0.0,-0.16825321,-5.1398525,-0.049840145,0.0,0.0,0.0,0.0,0.0,0.0,-0.019248476,-0.35171053,-0.59322774
166364000,-1.7223581,-54.52859,-9.927444,-1.60186,0.0,-0.17033827,-5.1386685,-0.0494106,0.0,0.0,0.0,0.0,0.0,0.0,-0.019242123,-0.35213435,-0.59259623
166460000,-1.7363548,-54.982044,-9.927951,-1.6019166,0.0,-0.17397606,-5.1357784,-0.049177073,0.0,0.0,0.0,0.0,0.0,0.0,-0.019742396,-0.35319233,-0.593309
166556000,-1.7503209,-55.435772,-9.928397,-1.601978,0.0,-0.17688213,-5.133767,-0.04597115,0.0,0.0,0.0,0.0,0.0,0.0,-0.020654969,-0.35367712,-0.5922386
166652000,-1.764424,-55.89029,-9.928872,-1.6020343,0.0,-0.17894094,-5.1310987,-0.04917098,0.0,0.0,0.0,0.0,0.0,0.0,-0.020254878,-0.3528719,-0.59475887
166768000,-1.781436,-56.440407,-9.929401,-1.6021072,0.0,-0.18530317,-5.1438107,-0.04872066,0.0,0.0,0.0,0.0,0.0,0.0,-0.021081876,-0.35571423,-0.5955009
166868000,-1.7960495,-56.914253,-9.929966,-1.6021881,0.0,-0.18495339,-5.1255527,-0.048811767,0.0,0.0,0.0,0.0,0.0,0.0,-0.021038672,-0.35225517,-0.5953361
166964000,-1.810095,-57.369514,-9.930257,-1.6022577,0.0,-0.19237326,-5.124671,-0.048624303,0.0,0.0,0.0,0.0,0.0,0.0,-0.022197306,-0.35347936,-0.592839
167060000,-1.8242538,-57.825283,-9.930687,-1.6023127,0.0,-0.19165997,-5.1205425,-0.048153672,0.0,0.0,0.0,0.0,0.0,0.0,-0.020695977,-0.353267,-0.5928528
167156000,-1.8382939,-58.281128,-9.931103,-1.6023672,0.0,-0.19640003,-5.120806,-0.049604505,0.0,0.0,0.0,0.0,0.0,0.0,-0.021349244,-0.3538895,-0.5956804
167272000,-1.8553503,-58.83296,-9.931528,-1.6024343,0.0,-0.19862603,-5.1305223,-0.04899622,0.0,0.0,0.0,0.0,0.0,0.0,-0.021176662,-0.3557943,-0.595083
167368000,-1.8694707,-59.289448,-9.931964,-1.6024898,0.0,-0.20164227,-5.130454,-0.047131132,0.0,0.0,0.0,0.0,0.0,0.0,-0.021864142,-0.35597384,-0.59228915
167468000,-1.8841087,-59.764652,-9.932305,-1.6025518,0.0,-0.2029832,-5.1090093,-0.0502647,0.0,0.0,0.0,0.0,0.0,0.0,-0.022275392,-0.35253924,-0.594525
167564000,-1.8982265,-60.22128,-9.932768,-1.6026131,0.0,-0.2063272,-5.1089315,-0.048427887,0.0,0.0,0.0,0.0,0.0,0.0,-0.02241451,-0.35275197,-0.5936204
167660000,-1.9123424,-60.67809,-9.933102,-1.6026884,0.0,-0.20947738,-5.105196,-0.050149452,0.0,0.0,0.0,0.0,0.0,0.0,-0.023239395,-0.35260975,-0.5955459
167756000,-1.9264076,-61.13474,-9.93345,-1.6027572,0.0,-0.21150748,-5.1015058,-0.051700965,0.0,0.0,0.0,0.0,0.0,0.0,-0.023449196,-0.35142463,-0.59509546
167872000,-1.9434524,-61.68699,-9.9338875,-1.6028415,0.0,-0.21487501,-5.113308,-0.0522463,0.0,0.0,0.0,0.0,0.0,0.0,-0.023709055,-0.3547592,-0.59473896
167968000,-1.9575247,-62.14349,-9.934124,-1.60291,0.0,-0.21923047,-5.1109405,-0.053298112,0.0,0.0,0.0,0.0,0.0,0.0,-0.024407718,-0.35512277,-0.59511924
168068000,-1.9721133,-62.61865,-9.934635,-1.6029898,0.0,-0.22076353,-5.091787,-0.054143667,0.0,0.0,0.0,0.0,0.0,0.0,-0.023354972,-0.3532404,-0.5938835
168164000,-1.9862401,-63.074898,-9.934835,-1.603046,0.0,-0.22298285,-5.089235,-0.05181585,0.0,0.0,0.0,0.0,0.0,0.0,-0.02420731,-0.35359073,-0.592831
168260000,-2.0002203,-63.530685,-9.935274,-1.6030939,0.0,-0.22535095,-5.0916066,-0.054938555,0.0,0.0,0.0,0.0,0.0,0.0,-0.024213796,-0.35470784,-0.59503204
168356000,-2.0142608,-63.98524,-9.93559,-1.6031362,0.0,-0.22621796,-5.098278,-0.053526435,0.0,0.0,0.0,0.0,0.0,0.0,-0.024038166,-0.35654476,-0.59382236
168452000,-2.0282393,-64.4385,-9.935906,-1.6031699,0.0,-0.22815815,-5.1020026,-0.051070802,0.0,0.0,0.0,0.0,0.0,0.0,-0.024116797,-0.3569618,-0.5932792
168568000,-2.0450823,-64.984604,-9.93623,-1.6032101,0.0,-0.22957319,-5.127131,-0.05286783,0.0,0.0,0.0,0.0,0.0,0.0,-0.024241686,-0.3620252,-0.5936896
168668000,-2.0595627,-65.453064,-9.936557,-1.603242,0.0,-0.23100093,-5.1161723,-0.04885823,0.0,0.0,0.0,0.0,0.0,0.0,-0.023880899,-0.359281,-0.5902931
168764000,-2.0733964,-65.90182,-9.936843,-1.6032835,0.0,-0.23105738,-5.1222553,-0.04858542,0.0,0.0,0.0,0.0,0.0,0.0,-0.024345582,-0.35978156,-0.5924361
168860000,-2.0872195,-66.34956,-9.937024,-1.6033205,0.0,-0.23278043,-5.1246314,-0.049318217,0.0,0.0,0.0,0.0,0.0,0.0,-0.025380291,-0.35939842,-0.59515864
168956000,-2.1010292,-66.79649,-9.937284,-1.6033736,0.0,-0.23451549,-5.126357,-0.04771868,0.0,0.0,0.0,0.0,0.0,0.0,-0.024806136,-0.3584826,-0.5934327
169072000,-2.1176982,-67.33645,-9.937569,-1.603426,0.0,-0.23660062,-5.1398764,-0.051988184,0.0,0.0,0.0,0.0,0.0,0.0,-0.025297515,-0.36196423,-0.5962624
169168000,-2.1314816,-67.782936,-9.937851,-1.6034768,0.0,-0.23820582,-5.1387343,-0.047770444,0.0,0.0,0.0,0.0,0.0,0.0,-0.025122795,-0.36132303,-0.591578
169268000,-2.145846,-68.248,-9.938036,-1.6035182,0.0,-0.23905227,-5.119804,-0.049270835,0.0,0.0,0.0,0.0,0.0,0.0,-0.024945877,-0.35976762,-0.59451276
169364000,-2.1596231,-68.69516,-9.938394,-1.6035593,0.0,-0.23998918,-5.116871,-0.045458928,0.0,0.0,0.0,0.0,0.0,0.0,-0.024841674,-0.35950232,-0.5915213
169460000,-2.173432,-69.142784,-9.93863,-1.603591,0.0,-0.24053986,-5.1134458,-0.046376638,0.0,0.0,0.0,0.0,0.0,0.0,-0.025087815,-0.3585502,-0.59490776
169556000,-2.1872714,-69.59094,-9.938748,-1.6036414,0.0,-0.24140486,-5.107544,-0.044494156,0.0,0.0,0.0,0.0,0.0,0.0,-0.025081359,-0.3568025,-0.5948579
169672000,-2.203991,-70.13359,-9.939103,-1.6036872,0.0,-0.2427037,-5.1174293,-0.046045635,0.0,0.0,0.0,0.0,0.0,0.0,-0.024944205,-0.35932696,-0.59591365
169768000,-2.2178912,-70.583,-9.939262,-1.603739,0.0,-0.2433928,-5.1135416,-0.04539483,0.0,0.0,0.0,0.0,0.0,0.0,-0.024711132,-0.36136818,-0.5951881
169868000,-2.2323186,-71.051476,-9.939454,-1.6037726,0.0,-0.24540827,-5.09104,-0.04373629,0.0,0.0,0.0,0.0,0.0,0.0,-0.024348753,-0.358917,-0.5944035
169964000,-2.2462718,-71.50202,-9.9396515,-1.603798,0.0,-0.24213347,-5.086668,-0.042571023,0.0,0.0,0.0,0.0,0.0,0.0,-0.023712706,-0.36027175,-0.59298056
170060000,-2.2600539,-71.95329,-9.939842,-1.6038092,0.0,-0.24421963,-5.082055,-0.042210534,0.0,0.0,0.0,0.0,0.0,0.0,-0.024238424,-0.35945198,-0.59536535
170156000,-2.2739875,-72.40512,-9.940026,-1.6038356,0.0,-0.24478948,-5.0755463,-0.042042855,0.0,0.0,0.0,0.0,0.0,0.0,-0.025070429,-0.35786092,-0.5946695
170272000,-2.2909665,-72.95193,-9.940232,-1.6038566,0.0,-0.24238843,-5.0845,-0.041751955,0.0,0.0,0.0,0.0,0.0,0.0,-0.024242852,-0.36028486,-0.59581953
170368000,-2.304887,-73.4047,-9.9404,-1.6038902,0.0,-0.24476647,-5.0764465,-0.04141149,0.0,0.0,0.0,0.0,0.0,0.0,-0.025218341,-0.35939115,-0.5960228
170468000,-2.319403,-73.876495,-9.940568,-1.6039121,0.0,-0.24149412,-5.0558767,-0.03944502,0.0,0.0,0.0,0.0,0.0,0.0,-0.023665959,-0.35730457,-0.5942541
170564000,-2.3336918,-74.3404,-9.940725,-1.603942,0.0,-0.24364783,-5.055708,-0.038119204,0.0,0.0,0.0,0.0,0.0,0.0,-0.024866425,-0.35973573,-0.59224766
170660000,-2.3480067,-74.80429,-9.940873,-1.6039599,0.0,-0.24361035,-5.058386,-0.035392217,0.0,0.0,0.0,0.0,0.0,0.0,-0.024556462,-0.36103195,-0.59142876
170756000,-2.362331,-75.268135,-9.940969,-1.6039996,0.0,-0.24425864,-5.0582843,-0.03853417,0.0,0.0,0.0,0.0,0.0,0.0,-0.024412625,-0.36037683,-0.5957029
170872000,-2.3795168,-75.82644,-9.941243,-1.6040276,0.0,-0.24243313,-5.072321,-0.035247304,0.0,0.0,0.0,0.0,0.0,0.0,-0.02425965,-0.36096418,-0.59354836
170968000,-2.3938546,-76.29014,-9.941326,-1.6040705,0.0,-0.24775115,-5.0727477,-0.038641382,0.0,0.0,0.0,0.0,0.0,0.0,-0.025573816,-0.36129773,-0.59727705
171068000,-2.4088416,-76.77263,-9.941385,-1.6040989,0.0,-0.24254479,-5.055213,-0.03894998,0.0,0.0,0.0,0.0,0.0,0.0,-0.02511125,-0.35792685,-0.59512925
171164000,-2.4233742,-77.24177,-9.941564,-1.6041371,0.0,-0.24516627,-5.0578165,-0.03845558,0.0,0.0,0.0,0.0,0.0,0.0,-0.024692085,-0.35926372,-0.59499186
171260000,-2.4374871,-77.705414,-9.941689,-1.6041535,0.0,-0.24324167,-5.056207,-0.038978487,0.0,0.0,0.0,0.0,0.0,0.0,-0.023660563,-0.36043948,-0.59436166
171356000,-2.4519284,-78.174614,-9.941763,-1.6041915,0.0,-0.2428762,-5.057336,-0.04118874,0.0,0.0,0.0,0.0,0.0,0.0,-0.023832353,-0.3604143,-0.59384
171472000,-2.4692476,-78.738235,-9.941853,-1.6042194,0.0,-0.24686947,-5.07386,-0.040499248,0.0,0.0,0.0,0.0,0.0,0.0,-0.02521354,-0.36292404,-0.5938226
171568000,-2.483741,-79.207375,-9.942035,-1.6042616,0.0,-0.2452803,-5.071467,-0.04233103,0.0,0.0,0.0,0.0,0.0,0.0,-0.025068268,-0.3627379,-0.59590596
171668000,-2.4988298,-79.695305,-9.942047,-1.6042902,0.0,-0.24560554,-5.058501,-0.04427538,0.0,0.0,0.0,0.0,0.0,0.0,-0.025082584,-0.36054882,-0.59572226
171764000,-2.5133162,-80.16432,-9.942298,-1.6043355,0.0,-0.24562551,-5.055084,-0.045901276,0.0,0.0,0.0,0.0,0.0,0.0,-0.02412599,-0.35921478,-0.5973643
171860000,-2.5278037,-80.63357,-9.942361,-1.6043594,0.0,-0.245804,-5.0600533,-0.047034997,0.0,0.0,0.0,0.0,0.0,0.0,-0.024119131,-0.3616833,-0.5962679
171956000,-2.5422733,-81.10267,-9.942483,-1.6044197,0.0,-0.24603873,-5.053669,-0.048264153,0.0,0.0,0.0,0.0,0.0,0.0,-0.024867183,-0.359778,-0.594234
172072000,-2.559838,-81.67177,-9.942543,-1.6044608,0.0,-0.24733253,-5.0737014,-0.046839304,0.0,0.0,0.0,0.0,0.0,0.0,-0.024225041,-0.36419538,-0.593226
172168000,-2.5744588,-82.1464,-9.94278,-1.6045116,0.0,-0.24707636,-5.073019,-0.050252385,0.0,0.0,0.0,0.0,0.0,0.0,-0.023886979,-0.36343166,-0.5961626
172268000,-2.5895255,-82.634155,-9.9428425,-1.6045471,0.0,-0.24694574,-5.055001,-0.04631813,0.0,0.0,0.0,0.0,0.0,0.0,-0.02351563,-0.3594808,-0.59414566
172364000,-2.6041286,-83.108696,-9.942988,-1.6046193,0.0,-0.24802327,-5.0562625,-0.05011218,0.0,0.0,0.0,0.0,0.0,0.0,-0.024097417,-0.36022058,-0.59783995
172460000,-2.6186376,-83.57772,-9.942938,-1.6046621,0.0,-0.2482944,-5.054098,-0.05014632,0.0,0.0,0.0,0.0,0.0,0.0,-0.024229579,-0.36040515,-0.59645545
172556000,-2.6332338,-84.052246,-9.943114,-1.6047364,0.0,-0.2490209,-5.051791,-0.05301916,0.0,0.0,0.0,0.0,0.0,0.0,-0.02454341,-0.36019102,-0.59594727
172652000,-2.6479023,-84.52688,-9.943191,-1.6047733,0.0,-0.24872524,-5.054747,-0.053607967,0.0,0.0,0.0,0.0,0.0,0.0,-0.024545152,-0.36141008,-0.5953905
172768000,-2.6655672,-85.1014,-9.943293,-1.604854,0.0,-0.25123936,-5.071188,-0.055598833,0.0,0.0,0.0,0.0,0.0,0.0,-0.024945255,-0.36429054,-0.5959595
172868000,-2.6808028,-85.5947,-9.943392,-1.6048979,0.0,-0.24858633,-5.0536036,-0.056862954,0.0,0.0,0.0,0.0,0.0,0.0,-0.024045367,-0.36099684,-0.59568703
172964000,-2.695422,-86.06923,-9.943494,-1.6049728,0.0,-0.2534194,-5.054106,-0.05869984,0.0,0.0,0.0,0.0,0.0,0.0,-0.024294384,-0.36063093,-0.5968984
173060000,-2.7100048,-86.54378,-9.9435425,-1.605006,0.0,-0.2488485,-5.056401,-0.059618954,0.0,0.0,0.0,0.0,0.0,0.0,-0.023354154,-0.36127228,-0.5962501
173156000,-2.7246926,-87.018295,-9.943605,-1.605082,0.0,-0.2530077,-5.0534225,-0.05950831,0.0,0.0,0.0,0.0,0.0,0.0,-0.024857871,-0.36027896,-0.59604645
173252000,-2.739302,-87.49284,-9.943658,-1.6051145,0.0,-0.25001967,-5.0551114,-0.059035268,0.0,0.0,0.0,0.0,0.0,0.0,-0.023715792,-0.3616946,-0.5962363
173368000,-2.7570713,-88.067276,-9.943719,-1.605222,0.0,-0.25280678,-5.069773,-0.05880065,0.0,0.0,0.0,0.0,0.0,0.0,-0.024306133,-0.36427572,-0.5951762
173468000,-2.7722943,-88.5604,-9.943762,-1.6052495,0.0,-0.2514945,-5.0555444,-0.058748692,0.0,0.0,0.0,0.0,0.0,0.0,-0.024421558,-0.3615193,-0.5961793
173564000,-2.7867548,-89.02899,-9.943847,-1.6052617,0.0,-0.25053096,-5.0562844,-0.058363337,0.0,0.0,0.0,0.0,0.0,0.0,-0.024631876,-0.36178344,-0.59540254
173660000,-2.801029,-89.4916,-9.943916,-1.6053225,0.0,-0.2522758,-5.057494,-0.057663817,0.0,0.0,0.0,0.0,0.0,0.0,-0.02398858,-0.36378416,-0.5954988
173756000,-2.815133,-89.94847,-9.943987,-1.6053481,0.0,-0.24860415,-5.0540495,-0.057802908,0.0,0.0,0.0,0.0,0.0,0.0,-0.02324121,-0.3621943,-0.59528893
173872000,-2.8323574,-90.505104,-9.944072,-1.6054441,0.0,-0.2540053,-5.0728974,-0.059732065,0.0,0.0,0.0,0.0,0.0,0.0,-0.025141869,-0.36642516,-0.59633625
173968000,-2.8464837,-90.961845,-9.9440775,-1.6055074,0.0,-0.25019535,-5.069518,-0.057710137,0.0,0.0,0.0,0.0,0.0,0.0,-0.024020014,-0.36581758,-0.59573746
174068000,-2.8613656,-91.442856,-9.94413,-1.6056367,0.0,-0.25528482,-5.058341,-0.06088763,0.0,0.0,0.0,0.0,0.0,0.0,-0.025378421,-0.36405674,-0.59787077
174164000,-2.8754911,-91.89909,-9.944169,-1.6057212,0.0,-0.2518727,-5.0558167,-0.058350746,0.0,0.0,0.0,0.0,0.0,0.0,-0.02431323,-0.3635887,-0.5943773
174260000,-2.889706,-92.361115,-9.944327,-1.6058466,0.0,-0.25632414,-5.059051,-0.05959996,0.0,0.0,0.0,0.0,0.0,0.0,-0.025732249,-0.36532903,-0.5947873
174356000,-2.903772,-92.81693,-9.944268,-1.6059222,0.0,-0.25307614,-5.053317,-0.056874387,0.0,0.0,0.0,0.0,0.0,0.0,-0.024507545,-0.3643511,-0.5940735
174472000,-2.9210525,-93.37864,-9.94432,-1.6060553,0.0,-0.2577531,-5.0746307,-0.057260223,0.0,0.0,0.0,0.0,0.0,0.0,-0.025037058,-0.3671594,-0.5952689
174568000,-2.9353104,-93.840515,-9.94439,-1.6061202,0.0,-0.25573245,-5.0699315,-0.059237417,0.0,0.0,0.0,0.0,0.0,0.0,-0.024728939,-0.36590207,-0.59822094
174668000,-2.9503021,-94.327034,-9.944373,-1.606216,0.0,-0.25703955,-5.059469,-0.054481316,0.0,0.0,0.0,0.0,0.0,0.0,-0.024754565,-0.3635433,-0.5941743
174764000,-2.9645197,-94.7888,-9.944353,-1.6062716,0.0,-0.25454557,-5.054145,-0.058396902,0.0,0.0,0.0,0.0,0.0,0.0,-0.024376627,-0.3629106,-0.59846246
174860000,-2.9789538,-95.256836,-9.944423,-1.6063848,0.0,-0.25720316,-5.0592523,-0.05427803,0.0,0.0,0.0,0.0,0.0,0.0,-0.024856254,-0.3642122,-0.59418774
174956000,-2.9934216,-95.72489,-9.944537,-1.6064513,0.0,-0.2552504,-5.0565615,-0.05930195,0.0,0.0,0.0,0.0,0.0,0.0,-0.024004668,-0.36498627,-0.5974982
175072000,-3.010757,-96.286446,-9.944612,-1.606625,0.0,-0.2586735,-5.071119,-0.05429906,0.0,0.0,0.0,0.0,0.0,0.0,-0.024948305,-0.36787882,-0.59298193
175168000,-3.0251644,-96.75424,-9.94466,-1.6067207,0.0,-0.2574485,-5.068978,-0.05834197,0.0,0.0,0.0,0.0,0.0,0.0,-0.02452864,-0.36734992,-0.597005
175268000,-3.0403342,-97.24706,-9.944771,-1.6068639,0.0,-0.25802392,-5.054994,-0.05536299,0.0,0.0,0.0,0.0,0.0,0.0,-0.024169194,-0.3624501,-0.59615785
175364000,-3.0547605,-97.71484,-9.944856,-1.6069558,0.0,-0.25800627,-5.0581026,-0.054820254,0.0,0.0,0.0,0.0,0.0,0.0,-0.024675682,-0.36385977,-0.5975765
175460000,-3.0693972,-98.1891,-9.944801,-1.6071099,0.0,-0.2586115,-5.0562844,-0.054504182,0.0,0.0,0.0,0.0,0.0,0.0,-0.025437292,-0.3642289,-0.59715956
175556000,-3.0837684,-98.65668,-9.945036,-1.6072048,0.0,-0.2577948,-5.054997,-0.053144205,0.0,0.0,0.0,0.0,0.0,0.0,-0.025348272,-0.36440894,-0.5951147
175672000,-3.101521,-99.23072,-9.944949,-1.6073666,0.0,-0.26000917,-5.0740113,-0.05216095,0.0,0.0,0.0,0.0,0.0,0.0,-0.025189636,-0.36816528,-0.59652585
175768000,-3.1159654,-99.69848,-9.945172,-1.6074545,0.0,-0.2586494,-5.0681076,-0.053029437,0.0,0.0,0.0,0.0,0.0,0.0,-0.025384836,-0.36739933,-0.59725475
175868000,-3.1311479,-100.19123,-9.945225,-1.6075999,0.0,-0.25895688,-5.0562167,-0.052311543,0.0,0.0,0.0,0.0,0.0,0.0,-0.025279649,-0.36520943,-0.5962347
175964000,-3.145809,-100.6655,-9.9452305,-1.6076872,0.0,-0.25750166,-5.055109,-0.048088327,0.0,0.0,0.0,0.0,0.0,0.0,-0.024747457,-0.36462295,-0.5942123
176060000,-3.1604862,-101.13981,-9.9453125,-1.6078466,0.0,-0.25824457,-5.055657,-0.052088577,0.0,0.0,0.0,0.0,0.0,0.0,-0.0257664,-0.3651853,-0.5975765
176156000,-3.1750557,-101.613884,-9.9453745,-1.6079355,0.0,-0.25735793,-5.0551233,-0.046805974,0.0,0.0,0.0,0.0,0.0,0.0,-0.024564113,-0.3644534,-0.5941437
176272000,-3.1927512,-102.18812,-9.945373,-1.6080835,0.0,-0.25661594,-5.069843,-0.048802525,0.0,0.0,0.0,0.0,0.0,0.0,-0.025577903,-0.3669231,-0.59736496
176368000,-3.2074313,-102.662415,-9.945463,-1.6081727,0.0,-0.2556862,-5.07003,-0.0434666,0.0,0.0,0.0,0.0,0.0,0.0,-0.025134737,-0.3679451,-0.593574
176468000,-3.222627,-103.15542,-9.945425,-1.608351,0.0,-0.2550547,-5.0512667,-0.045083098,0.0,0.0,0.0,0.0,0.0,0.0,-0.024739163,-0.36470997,-0.59808505
176564000,-3.2372556,-103.62985,-9.945412,-1.6084728,0.0,-0.2551366,-5.0505924,-0.0415583,0.0,0.0,0.0,0.0,0.0,0.0,-0.024952117,-0.36454996,-0.59407777
176660000,-3.2518888,-104.104294,-9.945492,-1.6086929,0.0,-0.25510857,-5.0485497,-0.042797085,0.0,0.0,0.0,0.0,0.0,0.0,-0.025300896,-0.3651036,-0.59503114
176756000,-3.2664773,-104.57872,-9.94536,-1.6088302,0.0,-0.25459477,-5.047507,-0.03977495,0.0,0.0,0.0,0.0,0.0,0.0,-0.024923733,-0.36444017,-0.5954086
176852000,-3.281249,-105.05327,-9.945458,-1.6090473,0.0,-0.25423142,-5.0442767,-0.039135125,0.0,0.0,0.0,0.0,0.0,0.0,-0.024120532,-0.36343747,-0.5970037
176968000,-3.2986708,-105.624825,-9.945484,-1.6092082,0.0,-0.24771217,-4.982442,-0.036809996,0.0,0.0,0.0,0.0,0.0,0.0,-0.023135982,-0.35135576,-0.5971265
177068000,-3.3131306,-106.10439,-9.945457,-1.6094528,0.0,-0.24167153,-4.815385,-0.03799409,0.0,0.0,0.0,0.0,0.0,0.0,-0.023459587,-0.32245457,-0.60820085
177164000,-3.3266404,-106.554085,-9.945441,-1.6096468,0.0,-0.23557195,-4.660699,-0.037873637,0.0,0.0,0.0,0.0,0.0,0.0,-0.022584556,-0.30232462,-0.61699027
177260000,-3.3399622,-106.99418,-9.945525,-1.60994,0.0,-0.23380958,-4.497676,-0.043197114,0.0,0.0,0.0,0.0,0.0,0.0,-0.022935532,-0.2903614,-0.61957496
177356000,-3.3532097,-107.42064,-9.945405,-1.6101476,0.0,-0.23155189,-4.3232775,-0.04327791,0.0,0.0,0.0,0.0,0.0,0.0,-0.022884468,-0.2848767,-0.6097505
177472000,-3.3690531,-107.917656,-9.945393,-1.6105015,0.0,-0.22827305,-4.1341634,-0.04192485,0.0,0.0,0.0,0.0,0.0,0.0,-0.023001067,-0.27885947,-0.60303515
177568000,-3.381735,-108.31494,-9.945413,-1.6106875,0.0,-0.22196198,-3.9754891,-0.043048058,0.0,0.0,0.0,0.0,0.0,0.0,-0.021739282,-0.27296808,-0.603136
177668000,-3.3944771,-108.716034,-9.945416,-1.6109061,0.0,-0.21488982,-3.8042262,-0.04308378,0.0,0.0,0.0,0.0,0.0,0.0,-0.021426814,-0.26340994,-0.604379
177764000,-3.40626,-109.08979,-9.945432,-1.6110368,0.0,-0.20779613,-3.6580205,-0.042707533,0.0,0.0,0.0,0.0,0.0,0.0,-0.020518038,-0.2537522,-0.60462445
177860000,-3.4176023,-109.45235,-9.9454975,-1.6112661,0.0,-0.2014589,-3.5083165,-0.041309666,0.0,0.0,0.0,0.0,0.0,0.0,-0.019520288,-0.24304509,-0.60507935
177956000,-3.4285042,-109.80387,-9.945425,-1.6113797,0.0,-0.19398049,-3.3651536,-0.041139483,0.0,0.0,0.0,0.0,0.0,0.0,-0.019009192,-0.23417309,-0.6065
178072000,-3.4410899,-110.21462,-9.945411,-1.611592,0.0,-0.18593392,-3.2084458,-0.03836541,0.0,0.0,0.0,0.0,0.0,0.0,-0.017685702,-0.22639291,-0.60246825
178168000,-3.451022,-110.54341,-9.945437,-1.6116546,0.0,-0.17823943,-3.074852,-0.04058182,0.0,0.0,0.0,0.0,0.0,0.0,-0.017037738,-0.2222673,-0.60184985
178268000,-3.4611368,-110.87558,-9.945505,-1.6117898,0.0,-0.17400265,-2.927099,-0.0344911,0.0,0.0,0.0,0.0,0.0,0.0,-0.01717276,-0.21614166,-0.5984499
178364000,-3.4707737,-111.18509,-9.945538,-1.6118081,0.0,-0.16980043,-2.8097863,-0.03249082,0.0,0.0,0.0,0.0,0.0,0.0,-0.017113864,-0.21101613,-0.59851813
178460000,-3.4803095,-111.486015,-9.945581,-1.6118459,0.0,-0.1643996,-2.6872652,-0.030886095,0.0,0.0,0.0,0.0,0.0,0.0,-0.01686265,-0.2033835,-0.59787
178556000,-3.4894729,-111.77776,-9.945509,-1.6117296,0.0,-0.15563868,-2.5669782,-0.02759426,0.0,0.0,0.0,0.0,0.0,0.0,-0.015960796,-0.19567668,-0.59888905
178672000,-3.4999578,-112.1186,-9.945718,-1.6115313,0.0,-0.14516616,-2.4417145,-0.02769135,0.0,0.0,0.0,0.0,0.0,0.0,-0.014313228,-0.18869668,-0.597459
178768000,-3.5082164,-112.39146,-9.945631,-1.6114963,0.0,-0.13948819,-2.3353815,-0.022990916,0.0,0.0,0.0,0.0,0.0,0.0,-0.014648175,-0.1843811,-0.5958222
178868000,-3.516712,-112.66717,-9.94572,-1.6114247,0.0,-0.13479763,-2.220269,-0.020523435,0.0,0.0,0.0,0.0,0.0,0.0,-0.014257148,-0.17981951,-0.59655446
178964000,-3.524795,-112.92453,-9.945633,-1.611581,0.0,-0.13236353,-2.1279972,-0.020494012,0.0,0.0,0.0,0.0,0.0,0.0,-0.015268319,-0.17621823,-0.59581006
179060000,-3.5327284,-113.17431,-9.945629,-1.6116216,0.0,-0.12681656,-2.0300713,-0.015895681,0.0,0.0,0.0,0.0,0.0,0.0,-0.014596776,-0.16978656,-0.5939531
179156000,-3.540245,-113.41686,-9.945656,-1.6117454,0.0,-0.12025271,-1.9358459,-0.013679938,0.0,0.0,0.0,0.0,0.0,0.0,-0.013593694,-0.16410394,-0.5924534
179272000,-3.5488086,-113.700386,-9.945665,-1.6117864,0.0,-0.11422938,-1.8312862,-0.0109601915,0.0,0.0,0.0,0.0,0.0,0.0,-0.013923435,-0.15707114,-0.594512
179368000,-3.55576,-113.92717,-9.945683,-1.6119663,0.0,-0.1117844,-1.7382498,-0.0085776,0.0,0.0,0.0,0.0,0.0,0.0,-0.01422475,-0.15076856,-0.5939691
179468000,-3.5629246,-114.15659,-9.945703,-1.6120481,0.0,-0.10846389,-1.6473231,-0.0058186203,0.0,0.0,0.0,0.0,0.0,0.0,-0.014777748,-0.14705293,-0.5908041
179564000,-3.5696995,-114.370476,-9.945722,-1.6121988,0.0,-0.10454258,-1.5587103,-0.0032475141,0.0,0.0,0.0,0.0,0.0,0.0,-0.014234921,-0.14263006,-0.590079
179660000,-3.5761025,-114.578186,-9.945741,-1.6122234,0.0,-0.09757325,-1.4815966,-0.0014450697,0.0,0.0,0.0,0.0,0.0,0.0,-0.011757881,-0.13867617,-0.5913199
179756000,-3.5821424,-114.78021,-9.94576,-1.6124067,0.0,-0.093717724,-1.4041839,-0.0009644178,0.0,0.0,0.0,0.0,0.0,0.0,-0.012186941,-0.13397762,-0.59045255
179872000,-3.589316,-115.01669,-9.945783,-1.6124123,0.0,-0.090129204,-1.3161595,-0.0006306318,0.0,0.0,0.0,0.0,0.0,0.0,-0.011372233,-0.12753384,-0.59004104
179968000,-3.5951736,-115.20563,-9.945802,-1.6124557,0.0,-0.08719155,-1.23534,0.001504645,0.0,0.0,0.0,0.0,0.0,0.0,-0.012340083,-0.1213593,-0.58825755
180068000,-3.601199,-115.39644,-9.945821,-1.6123816,0.0,-0.084060825,-1.1661768,0.003381476,0.0,0.0,0.0,0.0,0.0,0.0,-0.0117612425,-0.11767028,-0.58923763
180168000,-3.6070693,-115.58152,-9.945841,-1.6124454,0.0,-0.07849721,-1.0777736,0.005635962,0.0,0.0,0.0,0.0,0.0,0.0,-0.011515794,-0.11259177,-0.5861601
180264000,-3.6122878,-115.753494,-9.94586,-1.6123894,0.0,-0.07195856,-1.0058941,0.0077302307,0.0,0.0,0.0,0.0,0.0,0.0,-0.01023521,-0.108223125,-0.5857591
180360000,-3.6172993,-115.92045,-9.945879,-1.6124619,0.0,-0.06922289,-0.9372899,0.010474905,0.0,0.0,0.0,0.0,0.0,0.0,-0.010350429,-0.10386534,-0.5861329
180456000,-3.622239,-116.08259,-9.945898,-1.6124141,0.0,-0.06618434,-0.87218374,0.014044508,0.0,0.0,0.0,0.0,0.0,0.0,-0.010437807,-0.10072178,-0.58358383
180572000,-3.6281126,-116.272766,-9.945921,-1.6126366,0.0,-0.06384838,-0.80798453,0.017204985,0.0,0.0,0.0,0.0,0.0,0.0,-0.012601798,-0.09655717,-0.5838743
180668000,-3.632894,-116.42517,-9.94594,-1.6127712,0.0,-0.061643153,-0.74430996,0.019162878,0.0,0.0,0.0,0.0,0.0,0.0,-0.011802588,-0.092020184,-0.58311874
180768000,-3.637794,-116.579185,-9.94596,-1.612944,0.0,-0.058721468,-0.67239577,0.021842703,0.0,0.0,0.0,0.0,0.0,0.0,-0.012203656,-0.088228524,-0.5830769
180864000,-3.642191,-116.7226,-9.945979,-1.6129276,0.0,-0.052192345,-0.6211781,0.024397597,0.0,0.0,0.0,0.0,0.0,0.0,-0.010506191,-0.085946545,-0.5818292
180960000,-3.646296,-116.86249,-9.945998,-1.6128694,0.0,-0.04888693,-0.56982833,0.027209029,0.0,0.0,0.0,0.0,0.0,0.0,-0.010438217,-0.08285195,-0.5807579
181056000,-3.650327,-116.99853,-9.946017,-1.6126949,0.0,-0.04579936,-0.51598746,0.029619917,0.0,0.0,0.0,0.0,0.0,0.0,-0.010272233,-0.07902327,-0.58173794
181152000,-3.654286,-117.1304,-9.946011,-1.6126474,0.0,-0.043159638,-0.4599709,0.033729903,0.0,0.0,0.0,0.0,0.0,0.0,-0.010196261,-0.07524818,-0.57861817
181268000,-3.6589737,-117.28413,-9.946023,-1.612461,0.0,-0.040005233,-0.39743406,0.036948018,0.0,0.0,0.0,0.0,0.0,0.0,-0.010265488,-0.06957959,-0.5790887
181368000,-3.662931,-117.4122,-9.946042,-1.6124192,0.0,-0.037334368,-0.34593952,0.040600665,0.0,0.0,0.0,0.0,0.0,0.0,-0.009566011,-0.06666754,-0.5785422
181464000,-3.6666565,-117.531555,-9.946027,-1.6121309,0.0,-0.034500666,-0.2987497,0.044573672,0.0,0.0,0.0,0.0,0.0,0.0,-0.008980751,-0.064970866,-0.57650757
181560000,-3.6703107,-117.647545,-9.946012,-1.6117884,0.0,-0.03168776,-0.2507426,0.047982104,0.0,0.0,0.0,0.0,0.0,0.0,-0.00914125,-0.061962828,-0.5769472
181656000,-3.6738927,-117.760025,-9.945996,-1.6112677,0.0,-0.028679915,-0.20932156,0.05142487,0.0,0.0,0.0,0.0,0.0,0.0,-0.008720801,-0.060503587,-0.5760707
181772000,-3.677924,-117.8918,-9.946019,-1.6105868,0.0,-0.022293609,-0.17100972,0.05519169,0.0,0.0,0.0,0.0,0.0,0.0,-0.007528398,-0.058542892,-0.5762237
181868000,-3.6810713,-117.998,-9.945997,-1.6100916,0.0,-0.019490235,-0.13352281,0.058002293,0.0,0.0,0.0,0.0,0.0,0.0,-0.008528916,-0.056254968,-0.5756803
