timestamp,roll_body,pitch_body,yaw_body,yaw_sp_move_rate,q_d[0],q_d[1],q_d[2],q_d[3],thrust_body[0],thrust_body[1],thrust_body[2],q_d_valid,roll_reset_integral,pitch_reset_integral,yaw_reset_integral,fw_control_yaw,apply_flaps
3208000,0.0,0.0,0.4087593,0.0,0.9791871,0.0,0.0,0.20295976,0.0,0.0,-0.08,1,0,0,0,0,0
3312000,0.0,0.0,0.40886253,0.0,0.9791766,0.0,0.0,0.2030103,0.0,0.0,-0.08,1,0,0,0,0,0
3412000,0.0,0.0,0.40878165,0.0,0.9791848,0.0,0.0,0.2029707,0.0,0.0,-0.08,1,0,0,0,0,0
3512000,0.0,0.0,0.40864703,0.0,0.97919846,0.0,0.0,0.20290479,0.0,0.0,-0.08,1,0,0,0,0,0
3608000,0.0,0.0,0.40854982,0.0,0.97920835,0.0,0.0,0.2028572,0.0,0.0,-0.08,1,0,0,0,0,0
3716000,0.0,0.0,0.40876663,0.0,0.97918636,0.0,0.0,0.20296335,0.0,0.0,-0.08,1,0,0,0,0,0
3816000,0.0,0.0,0.4087709,0.0,0.9791859,0.0,0.0,0.20296544,0.0,0.0,-0.08,1,0,0,0,0,0
3908000,0.0,0.0,0.40853167,0.0,0.9792102,0.0,0.0,0.20284832,0.0,0.0,-0.08,1,0,0,0,0,0
4015999,0.0,0.0,0.4083783,0.0,0.9792257,0.0,0.0,0.20277323,0.0,0.0,-0.08,1,0,0,0,0,0
4119999,0.0,0.0,0.4079879,0.0,0.9792653,0.0,0.0,0.20258208,0.0,0.0,-0.08,1,0,0,0,0,0
4220000,0.0,0.0,0.40768093,0.0,0.9792964,0.0,0.0,0.20243177,0.0,0.0,-0.08,1,0,0,0,0,0
4324000,0.0,0.0,0.40754828,0.0,0.9793098,0.0,0.0,0.20236681,0.0,0.0,-0.08,1,0,0,0,0,0
4420000,0.0,0.0,0.4078207,0.0,0.9792822,0.0,0.0,0.20250021,0.0,0.0,-0.08,1,0,0,0,0,0
4520000,0.0,0.0,0.40791342,0.0,0.97927284,0.0,0.0,0.2025456,0.0,0.0,-0.08,1,0,0,0,0,0
4624000,0.0,0.0,0.40792248,0.0,0.9792719,0.0,0.0,0.20255004,0.0,0.0,-0.08,1,0,0,0,0,0
4720000,0.0,0.0,0.40814623,0.0,0.97924924,0.0,0.0,0.20265959,0.0,0.0,-0.08,1,0,0,0,0,0
4820000,0.0,0.0,0.40833136,0.0,0.97923046,0.0,0.0,0.20275024,0.0,0.0,-0.08,1,0,0,0,0,0
4920000,0.0,0.0,0.40845424,0.0,0.979218,0.0,0.0,0.2028104,0.0,0.0,-0.08,1,0,0,0,0,0
5020000,0.0,0.0,0.4087154,0.0,0.97919154,0.0,0.0,0.20293826,0.0,0.0,-0.08,1,0,0,0,0,0
5120000,0.0,0.0,0.40892392,0.0,0.9791704,0.0,0.0,0.20304036,0.0,0.0,-0.08,1,0,0,0,0,0
5220000,0.0,0.0,0.40935123,0.0,0.979127,0.0,0.0,0.20324956,0.0,0.0,-0.08,1,0,0,0,0,0
5320000,0.0,0.0,0.40952307,0.0,0.9791095,0.0,0.0,0.20333368,0.0,0.0,-0.08,1,0,0,0,0,0
5420000,0.0,0.0,0.40955666,0.0,0.97910607,0.0,0.0,0.20335013,0.0,0.0,-0.08,1,0,0,0,0,0
5520000,0.0,0.0,0.40963814,0.0,0.9790978,0.0,0.0,0.20339002,0.0,0.0,-0.08,1,0,0,0,0,0
5620000,0.0,0.0,0.40984526,0.0,0.97907674,0.0,0.0,0.2034914,0.0,0.0,-0.08,1,0,0,0,0,0
5720000,0.0,0.0,0.4099504,0.0,0.979066,0.0,0.0,0.20354289,0.0,0.0,-0.08,1,0,0,0,0,0
5820000,0.0,0.0,0.4101735,0.0,0.9790433,0.0,0.0,0.2036521,0.0,0.0,-0.08,1,0,0,0,0,0
5924000,0.0,0.0,0.41021723,0.0,0.9790389,0.0,0.0,0.2036735,0.0,0.0,-0.08,1,0,0,0,0,0
6024000,0.0,0.0,0.41006145,0.0,0.97905475,0.0,0.0,0.20359725,0.0,0.0,-0.08,1,0,0,0,0,0
6120000,0.0,0.0,0.4102669,0.0,0.9790338,0.0,0.0,0.20369782,0.0,0.0,-0.08,1,0,0,0,0,0
6224000,0.0,0.0,0.41033563,0.0,0.9790268,0.0,0.0,0.20373146,0.0,0.0,-0.08,1,0,0,0,0,0
6320000,0.0,0.0,0.41029122,0.0,0.9790313,0.0,0.0,0.20370972,0.0,0.0,-0.08,1,0,0,0,0,0
6420000,0.0,0.0,0.4104548,0.0,0.9790147,0.0,0.0,0.2037898,0.0,0.0,-0.08,1,0,0,0,0,0
6520000,0.0,0.0,0.41061348,0.0,0.9789985,0.0,0.0,0.20386747,0.0,0.0,-0.08,1,0,0,0,0,0
6620000,0.0,0.0,0.41066298,0.0,0.9789935,0.0,0.0,0.2038917,0.0,0.0,-0.08,1,0,0,0,0,0
6720000,0.0,0.0,0.41089427,0.0,0.9789699,0.0,0.0,0.20400491,0.0,0.0,-0.08,1,0,0,0,0,0
6820000,0.0,0.0,0.41087654,0.0,0.97897166,0.0,0.0,0.20399624,0.0,0.0,-0.08,1,0,0,0,0,0
6916000,0.0,0.0,0.41067836,0.0,0.97899187,0.0,0.0,0.20389922,0.0,0.0,-0.08,1,0,0,0,0,0
7024000,0.0,0.0,0.41068304,0.0,0.9789914,0.0,0.0,0.20390151,0.0,0.0,-0.08,1,0,0,0,0,0
7120000,0.0,0.0,0.41072586,0.0,0.97898704,0.0,0.0,0.20392248,0.0,0.0,-0.08,1,0,0,0,0,0
7216000,0.0,0.0,0.41090405,0.0,0.97896886,0.0,0.0,0.2040097,0.0,0.0,-0.08,1,0,0,0,0,0
7324000,0.0,0.0,0.41082698,0.0,0.9789767,0.0,0.0,0.20397198,0.0,0.0,-0.08,1,0,0,0,0,0
7420000,0.0,0.0,0.41059798,0.0,0.9790001,0.0,0.0,0.20385988,0.0,0.0,-0.08,1,0,0,0,0,0
7524000,0.0,0.0,0.41084802,0.0,0.9789746,0.0,0.0,0.20398228,0.0,0.0,-0.08,1,0,0,0,0,0
7616000,0.0,0.0,0.41103533,0.0,0.97895545,0.0,0.0,0.20407395,0.0,0.0,-0.08,1,0,0,0,0,0
7720000,0.0,0.0,0.41111073,0.0,0.97894776,0.0,0.0,0.20411086,0.0,0.0,-0.08,1,0,0,0,0,0
7820000,0.0,0.0,0.41127327,0.0,0.9789312,0.0,0.0,0.20419042,0.0,0.0,-0.08,1,0,0,0,0,0
7920000,0.0,0.0,0.41117802,0.0,0.9789409,0.0,0.0,0.2041438,0.0,0.0,-0.08,1,0,0,0,0,0
8019999,0.0,0.0,0.41124314,0.0,0.9789343,0.0,0.0,0.20417568,0.0,0.0,-0.08,1,0,0,0,0,0
8120000,0.0,0.0,0.4113055,0.0,0.9789279,0.0,0.0,0.2042062,0.0,0.0,-0.08,1,0,0,0,0,0
8220000,0.0,0.0,0.41117302,0.0,0.97894144,0.0,0.0,0.20414135,0.0,0.0,-0.08,1,0,0,0,0,0
8323999,0.0,0.0,0.41144428,0.0,0.9789137,0.0,0.0,0.20427412,0.0,0.0,-0.08,1,0,0,0,0,0
8428000,0.0,0.0,0.41164386,0.0,0.97889334,0.0,0.0,0.20437181,0.0,0.0,-0.08,1,0,0,0,0,0
8524000,0.0,0.0,0.41175425,0.0,0.9788821,0.0,0.0,0.20442584,0.0,0.0,-0.08,1,0,0,0,0,0
8624000,0.0,0.0,0.4117946,0.0,0.9788779,0.0,0.0,0.20444559,0.0,0.0,-0.08,1,0,0,0,0,0
8724000,0.0,0.0,0.4118599,0.0,0.9788712,0.0,0.0,0.20447755,0.0,0.0,-0.08,1,0,0,0,0,0
8828000,0.0,0.0,0.41198048,0.0,0.97885895,0.0,0.0,0.20453657,0.0,0.0,-0.08,1,0,0,0,0,0
8924000,0.0,0.0,0.4119992,0.0,0.978857,0.0,0.0,0.20454572,0.0,0.0,-0.08,1,0,0,0,0,0
9024000,0.0,0.0,0.41173705,0.0,0.9788838,0.0,0.0,0.20441742,0.0,0.0,-0.08,1,0,0,0,0,0
9124000,0.0,0.0,0.41185546,0.0,0.9788717,0.0,0.0,0.20447537,0.0,0.0,-0.08,1,0,0,0,0,0
9228000,0.0,0.0,0.41191635,0.0,0.9788655,0.0,0.0,0.20450518,0.0,0.0,-0.08,1,0,0,0,0,0
9324000,0.0,0.0,0.41180494,0.0,0.9788769,0.0,0.0,0.20445065,0.0,0.0,-0.08,1,0,0,0,0,0
9424000,0.0,0.0,0.41176024,0.0,0.9788814,0.0,0.0,0.20442878,0.0,0.0,-0.08,1,0,0,0,0,0
9524000,0.0,0.0,0.4116811,0.0,0.9788895,0.0,0.0,0.20439003,0.0,0.0,-0.08,1,0,0,0,0,0
9628000,0.0,0.0,0.41153252,0.0,0.9789047,0.0,0.0,0.20431732,0.0,0.0,-0.08,1,0,0,0,0,0
9728000,0.0,0.0,0.41151723,0.0,0.9789063,0.0,0.0,0.20430984,0.0,0.0,-0.08,1,0,0,0,0,0
9824000,0.0,0.0,0.41160822,0.0,0.978897,0.0,0.0,0.20435436,0.0,0.0,-0.08,1,0,0,0,0,0
9924000,0.0,0.0,0.41137525,0.0,0.97892076,0.0,0.0,0.20424034,0.0,0.0,-0.08,1,0,0,0,0,0
10024000,0.0,0.0,0.41120133,0.0,0.9789385,0.0,0.0,0.2041552,0.0,0.0,-0.08,1,0,0,0,0,0
10124000,0.0,0.0,0.4108596,0.0,0.9789734,0.0,0.0,0.20398796,0.0,0.0,-0.08,1,0,0,0,0,0
10228000,0.0,0.0,0.41077572,0.0,0.978982,0.0,0.0,0.20394689,0.0,0.0,-0.08,1,0,0,0,0,0
10328000,0.0,0.0,0.41072685,0.0,0.9789869,0.0,0.0,0.20392296,0.0,0.0,-0.08,1,0,0,0,0,0
10424000,0.0,0.0,0.41050526,0.0,0.9790095,0.0,0.0,0.20381449,0.0,0.0,-0.08,1,0,0,0,0,0
10528000,0.0,0.0,0.4099634,0.0,0.9790647,0.0,0.0,0.20354924,0.0,0.0,-0.08,1,0,0,0,0,0
10624000,0.0,0.0,0.4097659,0.0,0.9790848,0.0,0.0,0.20345256,0.0,0.0,-0.08,1,0,0,0,0,0
10724000,0.0,0.0,0.40938413,0.0,0.97912365,0.0,0.0,0.20326567,0.0,0.0,-0.08,1,0,0,0,0,0
10824000,0.0,0.0,0.4088525,0.0,0.9791776,0.0,0.0,0.20300539,0.0,0.0,-0.08,1,0,0,0,0,0
10928000,0.0,0.0,0.4085511,0.0,0.97920823,0.0,0.0,0.20285782,0.0,0.0,-0.08,1,0,0,0,0,0
11024000,0.0,0.0,0.40813264,0.0,0.9792506,0.0,0.0,0.20265295,0.0,0.0,-0.08,1,0,0,0,0,0
11124000,0.0,0.0,0.40335658,0.0,0.9797318,0.0,0.0,0.20031388,0.0,0.0,-0.08,1,0,0,0,0,0
11224000,0.0,0.0,0.4034746,0.0,0.97971994,0.0,0.0,0.2003717,0.0,0.0,-0.08,1,0,0,0,0,0
11320000,0.0,0.0,0.4041004,0.0,0.97965723,0.0,0.0,0.20067824,0.0,0.0,-0.08,1,0,0,0,0,0
11428000,0.0,0.0,0.40463695,0.0,0.97960335,0.0,0.0,0.20094106,0.0,0.0,-0.08,1,0,0,0,0,0
11528000,0.0,0.0,0.40525386,0.0,0.9795413,0.0,0.0,0.2012432,0.0,0.0,-0.08,1,0,0,0,0,0
11624000,0.0,0.0,0.40596122,0.0,0.9794701,0.0,0.0,0.20158964,0.0,0.0,-0.08,1,0,0,0,0,0
11724000,0.0,0.0,0.40679428,0.0,0.97938603,0.0,0.0,0.20199761,0.0,0.0,-0.08,1,0,0,0,0,0
11828000,0.0,0.0,0.40706322,0.0,0.97935885,0.0,0.0,0.20212929,0.0,0.0,-0.08,1,0,0,0,0,0
11928000,0.0,0.0,0.40736437,0.0,0.9793284,0.0,0.0,0.20227677,0.0,0.0,-0.08,1,0,0,0,0,0
12024000,0.0,0.0,0.4072564,0.0,0.9793393,0.0,0.0,0.2022239,0.0,0.0,-0.08,1,0,0,0,0,0
12124000,0.0,0.0,0.40699494,0.0,0.97936577,0.0,0.0,0.20209587,0.0,0.0,-0.08,1,0,0,0,0,0
12160000,0.0,0.0,0.4069385,0.0,0.9793714,0.0,0.0,0.20206822,0.0,0.0,-0.08,1,0,0,0,0,0
142332000,0.0,0.0,0.41353095,0.0,0.97870004,0.0,0.0,0.20529535,0.0,0.0,-0.0,1,0,0,0,0,0
142432000,-0.0007143371,-0.017878558,0.41414583,0.0,0.9785984,0.0014883333,-0.008821622,0.20558488,0.0,0.0,-0.530324,1,0,0,0,0,0
142528000,-0.0005665877,-0.021825928,0.41414583,0.0,0.9785792,0.0019663943,-0.010737858,0.20558096,0.0,0.0,-0.6150367,1,0,0,0,0,0
142624000,-0.00087038975,-0.01563807,0.41414583,0.0,0.9786076,0.0011816628,-0.007741389,0.2055866,0.0,0.0,-0.66509694,1,0,0,0,0,0
142720000,-0.004970023,-0.014630256,0.41414583,0.0,0.9786114,-0.00092791184,-0.007669663,0.2055723,0.0,0.0,-0.6851594,1,0,0,0,0,0
142816000,-0.0084916195,-0.016369754,0.41414583,0.0,0.97860247,-0.002472208,-0.008882751,0.20555349,0.0,0.0,-0.68907946,1,0,0,0,0,0
142932000,-0.009276898,-0.02033859,0.41414583,0.0,0.9785855,-0.0024483963,-0.010905363,0.20553721,0.0,0.0,-0.65252274,1,0,0,0,0,0
143032000,-0.011840869,-0.02243574,0.41414583,0.0,0.9785719,-0.003487294,-0.012194933,0.20551468,0.0,0.0,-0.62267184,1,0,0,0,0,0
143128000,-0.013077652,-0.02410298,0.41414583,0.0,0.9785611,-0.003920999,-0.013137747,0.2054998,0.0,0.0,-0.5872674,1,0,0,0,0,0
143224000,-0.01514382,-0.025118902,0.41414583,0.0,0.9785512,-0.004827461,-0.013847085,0.20548105,0.0,0.0,-0.56887764,1,0,0,0,0,0
143320000,-0.015355611,-0.023290625,0.41414583,0.0,0.9785601,-0.0051190928,-0.012974344,0.20548873,0.0,0.0,-0.58602846,1,0,0,0,0,0
143436000,-0.015337418,-0.023719676,0.41414583,0.0,0.978558,-0.0050660707,-0.013182393,0.20548671,0.0,0.0,-0.583054,1,0,0,0,0,0
143532000,-0.01602487,-0.025191687,0.41414583,0.0,0.9785486,-0.005251053,-0.013973215,0.20547454,0.0,0.0,-0.58589727,1,0,0,0,0,0
143632000,-0.016860448,-0.026563834,0.41414583,0.0,0.9785388,-0.0055187684,-0.014730379,0.20546125,0.0,0.0,-0.57965696,1,0,0,0,0,0
143728000,-0.015718913,-0.027292402,0.41414583,0.0,0.9785376,-0.004885325,-0.014969556,0.20546578,0.0,0.0,-0.5821367,1,0,0,0,0,0
143824000,-0.017056696,-0.027543068,0.41414583,0.0,0.9785327,-0.0055140816,-0.015229624,0.20545432,0.0,0.0,-0.57903767,1,0,0,0,0,0
143920000,-0.0153821455,-0.027604517,0.41414583,0.0,0.97853655,-0.0046884585,-0.01508766,0.20546669,0.0,0.0,-0.58090854,1,0,0,0,0,0
144036000,-0.01803715,-0.028184677,0.41414583,0.0,0.97852606,-0.005927796,-0.015644241,0.20544308,0.0,0.0,-0.583963,1,0,0,0,0,0
144132000,-0.016786776,-0.027471308,0.41414583,0.0,0.97853386,-0.005389398,-0.015166786,0.20545676,0.0,0.0,-0.5807085,1,0,0,0,0,0
144232000,-0.020803405,-0.0271941,0.41414583,0.0,0.9785226,-0.0073831007,-0.01544376,0.20542769,0.0,0.0,-0.58249015,1,0,0,0,0,0
144328000,-0.019438082,-0.029040713,0.41414583,0.0,0.9785165,-0.006525175,-0.016206942,0.20542675,0.0,0.0,-0.5781193,1,0,0,0,0,0
144424000,-0.019208366,-0.029745,0.41414583,0.0,0.9785129,-0.0063403477,-0.016527906,0.20542423,0.0,0.0,-0.57840097,1,0,0,0,0,0
144520000,-0.020225484,-0.031102963,0.41414583,0.0,0.97850084,-0.0066983043,-0.017296717,0.20540695,0.0,0.0,-0.58188564,1,0,0,0,0,0
144636000,-0.020083008,-0.029865723,0.41414583,0.0,0.9785093,-0.006755855,-0.016676798,0.2054162,0.0,0.0,-0.58048373,1,0,0,0,0,0
144732000,-0.022099238,-0.029362898,0.41414583,0.0,0.978505,-0.007794022,-0.016637886,0.20540278,0.0,0.0,-0.58114433,1,0,0,0,0,0
144832000,-0.020486383,-0.028832588,0.41414583,0.0,0.9785142,-0.0070594708,-0.016212795,0.2054196,0.0,0.0,-0.5811695,1,0,0,0,0,0
144928000,-0.020246126,-0.030018307,0.41414583,0.0,0.97850776,-0.0068199662,-0.016768202,0.20541388,0.0,0.0,-0.578939,1,0,0,0,0,0
145024000,-0.022166338,-0.028738104,0.41414583,0.0,0.97850853,-0.007891117,-0.016339112,0.20540653,0.0,0.0,-0.58309615,1,0,0,0,0,0
145120000,-0.020008214,-0.029034846,0.41414583,0.0,0.9785147,-0.00680472,-0.016262632,0.20542216,0.0,0.0,-0.5809075,1,0,0,0,0,0
145236000,-0.021882394,-0.030107789,0.41414583,0.0,0.9785013,-0.0076113106,-0.016980028,0.20539945,0.0,0.0,-0.58155537,1,0,0,0,0,0
145332000,-0.02201123,-0.030222313,0.41414583,0.0,0.9785001,-0.0076625636,-0.017049287,0.20539755,0.0,0.0,-0.5818379,1,0,0,0,0,0
145432000,-0.02450241,-0.028218614,0.41414583,0.0,0.97850156,-0.009087482,-0.016324881,0.20539118,0.0,0.0,-0.579782,1,0,0,0,0,0
145528000,-0.02350757,-0.029322296,0.41414583,0.0,0.9784996,-0.008487226,-0.016762653,0.20539129,0.0,0.0,-0.5773674,1,0,0,0,0,0
145624000,-0.023973048,-0.028752876,0.41414583,0.0,0.9785009,-0.008773534,-0.016531887,0.2053916,0.0,0.0,-0.58135796,1,0,0,0,0,0
145720000,-0.024734957,-0.028146548,0.41414583,0.0,0.97850096,-0.009208668,-0.016313506,0.20538981,0.0,0.0,-0.5802815,1,0,0,0,0,0
145816000,-0.02440524,-0.02775203,0.41414583,0.0,0.97850466,-0.009087934,-0.016086642,0.20539545,0.0,0.0,-0.5799071,1,0,0,0,0,0
145932000,-0.023215922,-0.026756313,0.41414583,0.0,0.9785153,-0.008608476,-0.015477371,0.205412,0.0,0.0,-0.5809372,1,0,0,0,0,0
146032000,-0.024415156,-0.026532503,0.41414583,0.0,0.97851115,-0.009218231,-0.015491045,0.20540433,0.0,0.0,-0.58095765,1,0,0,0,0,0
146128000,-0.023424134,-0.028082605,0.41414583,0.0,0.9785071,-0.008573923,-0.016147608,0.20540094,0.0,0.0,-0.57918644,1,0,0,0,0,0
146224000,-0.025579637,-0.026610268,0.41414583,0.0,0.97850525,-0.009779958,-0.01564868,0.20539469,0.0,0.0,-0.5748069,1,0,0,0,0,0
146320000,-0.026190087,-0.024744198,0.41414583,0.0,0.9785114,-0.010270573,-0.014798455,0.20540431,0.0,0.0,-0.56361187,1,0,0,0,0,0
146436000,-0.028802468,-0.025757307,0.41414583,0.0,0.9784924,-0.011444469,-0.015562363,0.20537634,0.0,0.0,-0.5672766,1,0,0,0,0,0
146532000,-0.027239906,-0.025544355,0.41414583,0.0,0.9785021,-0.010701893,-0.015297721,0.20539017,0.0,0.0,-0.5671777,1,0,0,0,0,0
146632000,-0.02672073,-0.02503419,0.41414583,0.0,0.9785073,-0.010500362,-0.014994821,0.20539811,0.0,0.0,-0.56204355,1,0,0,0,0,0
146728000,-0.029105674,-0.026509702,0.41414583,0.0,0.978487,-0.01151541,-0.015961574,0.20536762,0.0,0.0,-0.56390816,1,0,0,0,0,0
146824000,-0.031201942,-0.024820393,0.41414583,0.0,0.97848225,-0.012714776,-0.01535041,0.2053659,0.0,0.0,-0.5634655,1,0,0,0,0,0
146920000,-0.030843223,-0.027444217,0.41414583,0.0,0.9784719,-0.01226935,-0.016597146,0.20534535,0.0,0.0,-0.564098,1,0,0,0,0,0
147036000,-0.03229131,-0.025226269,0.41414583,0.0,0.97847337,-0.013205985,-0.01566082,0.20535381,0.0,0.0,-0.5646106,1,0,0,0,0,0
147132000,-0.03166447,-0.0253295,0.41414583,0.0,0.978477,-0.0128886895,-0.015646957,0.20535775,0.0,0.0,-0.5646567,1,0,0,0,0,0
147232000,-0.031392314,-0.022283211,0.41414583,0.0,0.9784916,-0.01306891,-0.014128754,0.205387,0.0,0.0,-0.56473887,1,0,0,0,0,0
147328000,-0.031156333,-0.023713885,0.41414583,0.0,0.9784874,-0.01280629,-0.014804419,0.20537609,0.0,0.0,-0.5614972,1,0,0,0,0,0
147424000,-0.03172583,-0.022807736,0.41414583,0.0,0.9784874,-0.013178127,-0.014419606,0.20537998,0.0,0.0,-0.5619951,1,0,0,0,0,0
147520000,-0.03194302,-0.02578567,0.41414583,0.0,0.9784731,-0.012978038,-0.015898712,0.20535141,0.0,0.0,-0.5639036,1,0,0,0,0,0
147616000,-0.03236529,-0.025579995,0.41414583,0.0,0.9784712,-0.013205788,-0.015841456,0.20534995,0.0,0.0,-0.565356,1,0,0,0,0,0
147732000,-0.030162882,-0.025544984,0.41414583,0.0,0.9784854,-0.012131886,-0.015598187,0.20536757,0.0,0.0,-0.5655979,1,0,0,0,0,0
147832000,-0.03031936,-0.0250079,0.41414583,0.0,0.97848696,-0.012263691,-0.015351511,0.20537104,0.0,0.0,-0.5636685,1,0,0,0,0,0
147928000,-0.031511635,-0.025034506,0.41414583,0.0,0.9784793,-0.012844265,-0.015486954,0.20536162,0.0,0.0,-0.5614604,1,0,0,0,0,0
148024000,-0.03089218,-0.026004981,0.41414583,0.0,0.9784788,-0.012441366,-0.015898103,0.2053578,0.0,0.0,-0.5636957,1,0,0,0,0,0
148120000,-0.028435085,-0.02686477,0.41414583,0.0,0.978489,-0.0111508025,-0.016066415,0.20537002,0.0,0.0,-0.5643059,1,0,0,0,0,0
148236000,-0.027467163,-0.026902562,0.41414583,0.0,0.97849405,-0.010673364,-0.01598551,0.20537747,0.0,0.0,-0.5644294,1,0,0,0,0,0
148332000,-0.027431728,-0.02885377,0.41414583,0.0,0.97848374,-0.0104553,-0.016936412,0.20536186,0.0,0.0,-0.56505436,1,0,0,0,0,0
148432000,-0.025544187,-0.026914038,0.41414583,0.0,0.9785038,-0.009731367,-0.015793648,0.20539266,0.0,0.0,-0.56223863,1,0,0,0,0,0
148528000,-0.026839823,-0.026311146,0.41414583,0.0,0.9785004,-0.010427273,-0.015631758,0.20538715,0.0,0.0,-0.5635964,1,0,0,0,0,0
148624000,-0.024869675,-0.02546257,0.41414583,0.0,0.9785145,-0.00955066,-0.015014289,0.20540875,0.0,0.0,-0.5650224,1,0,0,0,0,0
148720000,-0.025876757,-0.025728595,0.41414583,0.0,0.97850823,-0.010016019,-0.015247864,0.20539914,0.0,0.0,-0.56300336,1,0,0,0,0,0
148836000,-0.028348334,-0.026088431,0.41414583,0.0,0.97849333,-0.011188222,-0.015677715,0.20537716,0.0,0.0,-0.5667312,1,0,0,0,0,0
148932000,-0.027167939,-0.023556719,0.41414583,0.0,0.9785117,-0.010871135,-0.014317938,0.20540644,0.0,0.0,-0.5661773,1,0,0,0,0,0
149032000,-0.025913335,-0.022975117,0.41414583,0.0,0.9785208,-0.010317134,-0.01390455,0.20541975,0.0,0.0,-0.5644349,1,0,0,0,0,0
149128000,-0.026676953,-0.022104613,0.41414583,0.0,0.9785204,-0.010780276,-0.013557104,0.2054211,0.0,0.0,-0.5650252,1,0,0,0,0,0
149224000,-0.02748021,-0.023458922,0.41414583,0.0,0.9785104,-0.011033975,-0.014302167,0.20540498,0.0,0.0,-0.56325895,1,0,0,0,0,0
149320000,-0.027649403,-0.023713047,0.41414583,0.0,0.9785083,-0.011090615,-0.014443866,0.20540173,0.0,0.0,-0.5636641,1,0,0,0,0,0
149416000,-0.026212022,-0.023732243,0.41414583,0.0,0.978516,-0.010385392,-0.014305635,0.20541193,0.0,0.0,-0.56286687,1,0,0,0,0,0
149532000,-0.025579616,-0.02512962,0.41414583,0.0,0.97851264,-0.009932251,-0.014924316,0.2054059,0.0,0.0,-0.563996,1,0,0,0,0,0
149632000,-0.025063071,-0.026098263,0.41414583,0.0,0.9785104,-0.009579892,-0.015345146,0.20540255,0.0,0.0,-0.56198436,1,0,0,0,0,0
149728000,-0.024340356,-0.025353013,0.41414583,0.0,0.97851753,-0.009302954,-0.014906324,0.20541349,0.0,0.0,-0.561483,1,0,0,0,0,0
149824000,-0.02149382,-0.025917804,0.41414583,0.0,0.9785269,-0.007852164,-0.014890267,0.20543079,0.0,0.0,-0.5629183,1,0,0,0,0,0
149920000,-0.02309956,-0.027651988,0.41414583,0.0,0.9785109,-0.008459417,-0.015903603,0.2054066,0.0,0.0,-0.5648646,1,0,0,0,0,0
150036000,-0.021385463,-0.027031923,0.41414583,0.0,0.9785213,-0.007684559,-0.015424202,0.20542425,0.0,0.0,-0.5644516,1,0,0,0,0,0
150132000,-0.020763423,-0.027544213,0.41414583,0.0,0.97852075,-0.0073275287,-0.015610941,0.20542572,0.0,0.0,-0.5642294,1,0,0,0,0,0
150232000,-0.020146027,-0.027781218,0.41414583,0.0,0.9785216,-0.007001085,-0.015663477,0.20542905,0.0,0.0,-0.5618089,1,0,0,0,0,0
150328000,-0.020200508,-0.02829936,0.41414583,0.0,0.9785184,-0.0069744475,-0.01592256,0.2054253,0.0,0.0,-0.561962,1,0,0,0,0,0
150424000,-0.02067872,-0.027444223,0.41414583,0.0,0.97852165,-0.0072963713,-0.015553321,0.20542702,0.0,0.0,-0.5629629,1,0,0,0,0,0
150520000,-0.021080403,-0.027487878,0.41414583,0.0,0.9785199,-0.007488409,-0.015615936,0.20542358,0.0,0.0,-0.56340086,1,0,0,0,0,0
150616000,-0.022366052,-0.026798459,0.41414583,0.0,0.97851866,-0.008188336,-0.015410702,0.20541826,0.0,0.0,-0.561849,1,0,0,0,0,0
150732000,-0.021284012,-0.02609282,0.41414583,0.0,0.9785268,-0.0077315113,-0.01495434,0.20543121,0.0,0.0,-0.5622269,1,0,0,0,0,0
150832000,-0.022195678,-0.029212497,0.41414583,0.0,0.97850555,-0.007856675,-0.01657421,0.20540302,0.0,0.0,-0.5632115,1,0,0,0,0,0
150928000,-0.022166597,-0.028716864,0.41414583,0.0,0.97850865,-0.007893429,-0.016328748,0.2054067,0.0,0.0,-0.5643925,1,0,0,0,0,0
151024000,-0.021318898,-0.028087554,0.41414583,0.0,0.97851557,-0.0075434153,-0.015933812,0.20541778,0.0,0.0,-0.5631737,1,0,0,0,0,0
151120000,-0.021523168,-0.026955992,0.41414583,0.0,0.97852117,-0.0077597434,-0.0154011985,0.20542371,0.0,0.0,-0.56293803,1,0,0,0,0,0
151236000,-0.02133143,-0.027576014,0.41414583,0.0,0.9785185,-0.007602161,-0.01568484,0.20542108,0.0,0.0,-0.5632527,1,0,0,0,0,0
151332000,-0.019845013,-0.02966663,0.41414583,0.0,0.97851133,-0.0066598924,-0.016554955,0.20541947,0.0,0.0,-0.56389046,1,0,0,0,0,0
151432000,-0.022080552,-0.029001823,0.41414583,0.0,0.9785073,-0.00782202,-0.016459318,0.20540543,0.0,0.0,-0.5636304,1,0,0,0,0,0
151528000,-0.019984143,-0.029070823,0.41414583,0.0,0.97851455,-0.006789242,-0.016277758,0.2054221,0.0,0.0,-0.56290185,1,0,0,0,0,0
151624000,-0.022024719,-0.029511604,0.41414583,0.0,0.9785044,-0.0077422666,-0.01670298,0.20540237,0.0,0.0,-0.5612544,1,0,0,0,0,0
151720000,-0.021541385,-0.027726369,0.41414583,0.0,0.9785168,-0.0076894183,-0.01577996,0.20541842,0.0,0.0,-0.5630707,1,0,0,0,0,0
151836000,-0.01937559,-0.02859984,0.41414583,0.0,0.9785194,-0.006539944,-0.015984835,0.20543002,0.0,0.0,-0.5644086,1,0,0,0,0,0
151932000,-0.0211844,-0.027585698,0.41414583,0.0,0.9785189,-0.007529229,-0.015674476,0.20542215,0.0,0.0,-0.5634286,1,0,0,0,0,0
152032000,-0.02013787,-0.02682351,0.41414583,0.0,0.97852707,-0.007095596,-0.015194095,0.20543516,0.0,0.0,-0.5623523,1,0,0,0,0,0
152128000,-0.018712128,-0.026415648,0.41414583,0.0,0.9785341,-0.0064399764,-0.014848098,0.20544837,0.0,0.0,-0.5632279,1,0,0,0,0,0
152224000,-0.019548807,-0.027653221,0.41414583,0.0,0.9785244,-0.006722053,-0.01553951,0.20543452,0.0,0.0,-0.5614496,1,0,0,0,0,0
152320000,-0.018691417,-0.028528722,0.41414583,0.0,0.978522,-0.0062125195,-0.015879765,0.20543587,0.0,0.0,-0.5650306,1,0,0,0,0,0
152436000,-0.020381853,-0.027614063,0.41414583,0.0,0.9785217,-0.007133657,-0.015605919,0.20542826,0.0,0.0,-0.5615084,1,0,0,0,0,0
152532000,-0.020321574,-0.030574156,0.41370934,0.0,0.9785488,-0.0068034274,-0.017046398,0.20519604,0.0,0.0,-0.5648367,1,0,0,0,0,0
152632000,-0.0352622,-0.02362137,0.33516955,0.0,0.98580325,-0.015412297,-0.014583677,0.16655861,0.0,0.0,-0.5525074,1,0,0,0,0,0
152728000,-0.08237621,-0.008444752,0.25977135,0.0,0.9907494,-0.040282838,-0.009516406,0.12923738,0.0,0.0,-0.56565595,1,0,0,0,0,0
152824000,-0.158028,0.0038514547,0.18437308,0.0,0.99263126,-0.07877323,-0.005354569,0.09191999,0.0,0.0,-0.56468314,1,0,0,0,0,0
152920000,-0.23757501,0.00470864,0.10897483,0.0,0.9914615,-0.11845946,-0.004119743,0.054355122,0.0,0.0,-0.5650735,1,0,0,0,0,0
153036000,-0.31168535,-0.013292513,0.017868647,0.0,0.987829,-0.15514433,-0.007952072,0.0077942023,0.0,0.0,-0.57268107,1,0,0,0,0,0
153132000,-0.3494144,-0.039213754,-0.057529584,0.0,0.9840829,-0.17426978,-0.014300945,-0.031724006,0.0,0.0,-0.5781183,1,0,0,0,0,0
153232000,-0.3635959,-0.0711098,-0.1360694,0.0,0.9801878,-0.18264268,-0.022597415,-0.07323168,0.0,0.0,-0.5847667,1,0,0,0,0,0
153328000,-0.38009873,-0.10487682,-0.21146767,0.0,0.9741236,-0.19302623,-0.031273916,-0.113340445,0.0,0.0,-0.5914007,1,0,0,0,0,0
153424000,-0.39520147,-0.14004074,-0.2868659,0.0,0.96613,-0.2036313,-0.039904095,-0.15341054,0.0,0.0,-0.59709615,1,0,0,0,0,0
153520000,-0.40349248,-0.17603989,-0.3622641,0.0,0.95678645,-0.21185385,-0.048757046,-0.19313288,0.0,0.0,-0.60368687,1,0,0,0,0,0
153636000,-0.4168056,-0.22566432,-0.45337027,0.0,0.9420353,-0.22508003,-0.06113425,-0.24118675,0.0,0.0,-0.6153926,1,0,0,0,0,0
153732000,-0.41207075,-0.26338074,-0.5287685,0.0,0.9296373,-0.22935002,-0.071069635,-0.2795034,0.0,0.0,-0.6202502,1,0,0,0,0,0
153832000,-0.39794272,-0.2981482,-0.60730827,0.0,0.9162705,-0.23005958,-0.0804845,-0.31787294,0.0,0.0,-0.62413,1,0,0,0,0,0
153928000,-0.38861293,-0.33598188,-0.6827065,0.0,0.900747,-0.23430383,-0.09086182,-0.35426068,0.0,0.0,-0.6274274,1,0,0,0,0,0
154024000,-0.3736987,-0.37296247,-0.7581047,0.0,0.8842748,-0.23699784,-0.101695284,-0.3892919,0.0,0.0,-0.6340644,1,0,0,0,0,0
154120000,-0.35615414,-0.40487167,-0.8335029,0.0,0.8671548,-0.23876722,-0.110700466,-0.42282176,0.0,0.0,-0.6401899,1,0,0,0,0,0
154236000,-0.33700228,-0.4497984,-0.92460907,0.0,0.8434497,-0.24437596,-0.12385672,-0.46209574,0.0,0.0,-0.65272194,1,0,0,0,0,0
154332000,-0.3160601,-0.48604113,-1.0000073,0.0,0.82302386,-0.24797942,-0.13531353,-0.49277607,0.0,0.0,-0.65612924,1,0,0,0,0,0
154432000,-0.2865351,-0.51176155,-1.0785474,0.0,0.80308163,-0.24716349,-0.14402229,-0.5227118,0.0,0.0,-0.658842,1,0,0,0,0,0
154528000,-0.26018134,-0.5422703,-1.1539458,0.0,0.7817238,-0.24961342,-0.15439446,-0.5502394,0.0,0.0,-0.6646452,1,0,0,0,0,0
154624000,-0.22703575,-0.56752646,-1.2293442,0.0,0.7609544,-0.24925712,-0.1645414,-0.57597345,0.0,0.0,-0.67079264,1,0,0,0,0,0
154720000,-0.19547234,-0.5891609,-1.3047427,0.0,0.7395881,-0.2496172,-0.17292854,-0.6006633,0.0,0.0,-0.67582923,1,0,0,0,0,0
154836000,-0.14822088,-0.5992107,-1.3958491,0.0,0.7159938,-0.24334955,-0.18004903,-0.6290598,0.0,0.0,-0.6818012,1,0,0,0,0,0
154932000,-0.11239588,-0.5880501,-1.4712476,0.0,0.69755113,-0.23402461,-0.17845297,-0.65330654,0.0,0.0,-0.6836627,1,0,0,0,0,0
155032000,-0.07325056,-0.55874085,-1.5497876,0.0,0.6792688,-0.21794517,-0.17226481,-0.679278,0.0,0.0,-0.6822452,1,0,0,0,0,0
155128000,-0.05209584,-0.53966045,-1.601747,0.0,0.66568077,-0.20879465,-0.16746677,-0.6965837,0.0,0.0,-0.68279976,1,0,0,0,0,0
155224000,-0.05171145,-0.5316442,-1.6017331,0.0,0.66653556,-0.20591049,-0.16489282,-0.6972385,0.0,0.0,-0.6831875,1,0,0,0,0,0
155320000,-0.057453673,-0.5463444,-1.6017536,0.0,0.66442674,-0.21287045,-0.16785802,-0.69645315,0.0,0.0,-0.6815912,1,0,0,0,0,0
155436000,-0.05877553,-0.5583879,-1.601708,0.0,0.66303706,-0.21742977,-0.17146826,-0.6954889,0.0,0.0,-0.67938495,1,0,0,0,0,0
155532000,-0.06544599,-0.5646626,-1.6017113,0.0,0.6616314,-0.22178355,-0.17126504,-0.6955029,0.0,0.0,-0.6782858,1,0,0,0,0,0
155632000,-0.061963886,-0.5480474,-1.6016101,0.0,0.6638167,-0.2149396,-0.16687796,-0.6966349,0.0,0.0,-0.67845166,1,0,0,0,0,0
155728000,-0.06521489,-0.5381839,-1.6015701,0.0,0.6645119,-0.21263613,-0.16241308,-0.6977333,0.0,0.0,-0.6837759,1,0,0,0,0,0
155824000,-0.058404367,-0.5274254,-1.6014161,0.0,0.66638017,-0.20666449,-0.16116321,-0.6980356,0.0,0.0,-0.68239886,1,0,0,0,0,0
155920000,-0.060284387,-0.53289604,-1.601319,0.0,0.66566366,-0.20916197,-0.16236965,-0.69769573,0.0,0.0,-0.68291414,1,0,0,0,0,0
156036000,-0.053912416,-0.53986055,-1.6010933,0.0,0.6656981,-0.20941333,-0.16697009,-0.6965006,0.0,0.0,-0.68225235,1,0,0,0,0,0
156132000,-0.054822613,-0.5478634,-1.6009655,0.0,0.6648233,-0.21245034,-0.16937067,-0.6958364,0.0,0.0,-0.6817876,1,0,0,0,0,0
156232000,-0.046456635,-0.53531253,-1.6006866,0.0,0.66707265,-0.20533276,-0.16807093,-0.6961355,0.0,0.0,-0.6806537,1,0,0,0,0,0
156328000,-0.048300166,-0.5319636,-1.6005166,0.0,0.66727775,-0.20478205,-0.16631432,-0.69652295,0.0,0.0,-0.68321675,1,0,0,0,0,0
156424000,-0.04035607,-0.5203122,-1.6002092,0.0,0.66932935,-0.19809043,-0.16517083,-0.69676185,0.0,0.0,-0.6839116,1,0,0,0,0,0
156520000,-0.042911205,-0.5204267,-1.5999961,0.0,0.66913885,-0.19896731,-0.16434051,-0.69689125,0.0,0.0,-0.684599,1,0,0,0,0,0
156616000,-0.032743894,-0.52096444,-1.5996712,0.0,0.6702035,-0.19572136,-0.16809471,-0.69589114,0.0,0.0,-0.68088824,1,0,0,0,0,0
156732000,-0.03390252,-0.52688885,-1.5993938,0.0,0.6696172,-0.19812877,-0.16972175,-0.6953793,0.0,0.0,-0.68335146,1,0,0,0,0,0
156832000,-0.023651335,-0.51905394,-1.5989995,0.0,0.6714988,-0.19195504,-0.17067586,-0.6950629,0.0,0.0,-0.67942184,1,0,0,0,0,0
156928000,-0.02532274,-0.51568514,-1.5987597,0.0,0.67173666,-0.19133227,-0.16897897,-0.6954192,0.0,0.0,-0.67974067,1,0,0,0,0,0
157024000,-0.015845705,-0.50823087,-1.5983813,0.0,0.67344564,-0.18553524,-0.16978844,-0.69514,0.0,0.0,-0.6779825,1,0,0,0,0,0
157120000,-0.016136378,-0.5055876,-1.5981265,0.0,0.6737457,-0.1846964,-0.16881692,-0.6953093,0.0,0.0,-0.6781385,1,0,0,0,0,0
157236000,-0.007108671,-0.50688636,-1.5977249,0.0,0.67459697,-0.18206891,-0.17242911,-0.6942896,0.0,0.0,-0.67843074,1,0,0,0,0,0
157332000,-0.009565066,-0.5157888,-1.597508,0.0,0.6736481,-0.18596049,-0.17460418,-0.69363564,0.0,0.0,-0.6788847,1,0,0,0,0,0
157432000,0.00048089644,-0.51573145,-1.5971403,0.0,0.67470616,-0.18252183,-0.17810029,-0.692631,0.0,0.0,-0.67546564,1,0,0,0,0,0
157528000,-0.0022422727,-0.5191744,-1.5969425,0.0,0.6742168,-0.18461454,-0.17833681,-0.69249207,0.0,0.0,-0.6723124,1,0,0,0,0,0
157624000,0.0068089906,-0.51277316,-1.596626,0.0,0.67571723,-0.17931437,-0.17933981,-0.6921631,0.0,0.0,-0.6790228,1,0,0,0,0,0
157720000,0.0033376908,-0.50990266,-1.5964438,0.0,0.6757198,-0.17947581,-0.17718588,-0.6926733,0.0,0.0,-0.67428803,1,0,0,0,0,0
157836000,0.011061012,-0.5106901,-1.5961407,0.0,0.67644477,-0.17711103,-0.18015178,-0.6918089,0.0,0.0,-0.6786029,1,0,0,0,0,0
157932000,0.008024919,-0.517094,-1.5960107,0.0,0.67566097,-0.18034554,-0.18127261,-0.69144624,0.0,0.0,-0.6762807,1,0,0,0,0,0
158032000,0.013152434,-0.51400876,-1.5957656,0.0,0.6764733,-0.17752065,-0.18202695,-0.6911848,0.0,0.0,-0.6781363,1,0,0,0,0,0
158128000,0.010594948,-0.5131125,-1.5956801,0.0,0.67635316,-0.17806712,-0.18084837,-0.6914712,0.0,0.0,-0.675293,1,0,0,0,0,0
158224000,0.0006708711,-0.5228759,-1.5957459,0.0,0.6745666,-0.18480523,-0.18070364,-0.6914861,0.0,0.0,-0.6711837,1,0,0,0,0,0
158320000,0.008049368,-0.51502675,-1.5956374,0.0,0.6759735,-0.17958729,-0.18061763,-0.6915096,0.0,0.0,-0.67685145,1,0,0,0,0,0
158416000,0.00478851,-0.511432,-1.5956315,0.0,0.67599744,-0.17944336,-0.17827727,-0.6921306,0.0,0.0,-0.6738391,1,0,0,0,0,0
158532000,0.014669166,-0.51280594,-1.5954833,0.0,0.6768089,-0.1765647,-0.18217064,-0.6910633,0.0,0.0,-0.67815745,1,0,0,0,0,0
158632000,0.012507263,-0.51728517,-1.5954647,0.0,0.67623544,-0.17884712,-0.18293503,-0.69083583,0.0,0.0,-0.676333,1,0,0,0,0,0
158728000,0.019491035,-0.51587856,-1.5953112,0.0,0.6770295,-0.17598265,-0.18488617,-0.69027406,0.0,0.0,-0.67786103,1,0,0,0,0,0
158824000,0.01584042,-0.51917714,-1.595299,0.0,0.67642564,-0.17836042,-0.18473805,-0.6902954,0.0,0.0,-0.67357606,1,0,0,0,0,0
158920000,0.020887958,-0.5219174,-1.5951926,0.0,0.676674,-0.17759289,-0.18741104,-0.6895288,0.0,0.0,-0.67719555,1,0,0,0,0,0
159036000,0.015836548,-0.5181544,-1.5952162,0.0,0.6765427,-0.17799962,-0.18439963,-0.69036436,0.0,0.0,-0.6770514,1,0,0,0,0,0
159132000,0.020590562,-0.5215218,-1.5951316,0.0,0.6767028,-0.17755066,-0.18718083,-0.6895741,0.0,0.0,-0.67727405,1,0,0,0,0,0
159232000,0.017528376,-0.5116608,-1.5951877,0.0,0.6772605,-0.17517261,-0.18279845,-0.69080925,0.0,0.0,-0.67665994,1,0,0,0,0,0
159328000,0.020507697,-0.51713055,-1.5951378,0.0,0.67707145,-0.17605667,-0.18567379,-0.69000256,0.0,0.0,-0.67832786,1,0,0,0,0,0
159424000,0.018378528,-0.5151088,-1.595212,0.0,0.6770318,-0.17608306,-0.18425164,-0.69041574,0.0,0.0,-0.67673355,1,0,0,0,0,0
159520000,0.019397873,-0.5216834,-1.5952,0.0,0.67655927,-0.17801654,-0.18681785,-0.6896932,0.0,0.0,-0.6761082,1,0,0,0,0,0
159636000,0.016216712,-0.52742803,-1.5953135,0.0,0.6757321,-0.18109263,-0.18764345,-0.68947923,0.0,0.0,-0.6761898,1,0,0,0,0,0
159732000,0.019221827,-0.52552015,-1.5953261,0.0,0.6761661,-0.17941739,-0.18803655,-0.6893846,0.0,0.0,-0.6802054,1,0,0,0,0,0
159832000,0.015860032,-0.51717794,-1.5954616,0.0,0.67654467,-0.17767578,-0.18405703,-0.6905373,0.0,0.0,-0.676539,1,0,0,0,0,0
159928000,0.01797896,-0.5153998,-1.5955031,0.0,0.6768711,-0.17634606,-0.18418607,-0.6905238,0.0,0.0,-0.67869055,1,0,0,0,0,0
160024000,0.013328442,-0.5139606,-1.5956459,0.0,0.6765345,-0.17743354,-0.18208218,-0.6911328,0.0,0.0,-0.6772347,1,0,0,0,0,0
160120000,0.01581514,-0.51720124,-1.5957122,0.0,0.6764521,-0.17772214,-0.18402712,-0.69062394,0.0,0.0,-0.67967784,1,0,0,0,0,0
160236000,0.011434048,-0.5241526,-1.5958893,0.0,0.6753891,-0.18162766,-0.18483913,-0.6904314,0.0,0.0,-0.6792917,1,0,0,0,0,0
160332000,0.013702044,-0.52285737,-1.595975,0.0,0.67567897,-0.18042095,-0.18517832,-0.6903733,0.0,0.0,-0.6770723,1,0,0,0,0,0
160432000,0.00934997,-0.52011305,-1.5961655,0.0,0.6754615,-0.18095788,-0.18273398,-0.6910965,0.0,0.0,-0.6779545,1,0,0,0,0,0
160528000,0.012524874,-0.5136828,-1.5962679,0.0,0.67627215,-0.17766553,-0.18165559,-0.69144213,0.0,0.0,-0.6771899,1,0,0,0,0,0
160624000,0.00783129,-0.51852316,-1.596447,0.0,0.6753669,-0.18094563,-0.18164791,-0.6914783,0.0,0.0,-0.6786675,1,0,0,0,0,0
160720000,0.009018331,-0.51626235,-1.5965438,0.0,0.67563903,-0.17977005,-0.18128778,-0.6916137,0.0,0.0,-0.6780035,1,0,0,0,0,0
160836000,0.006687084,-0.5246966,-1.5967363,0.0,0.6746149,-0.18349601,-0.18330541,-0.6911028,0.0,0.0,-0.6788157,1,0,0,0,0,0
160932000,0.007660843,-0.52183527,-1.5968344,0.0,0.6749247,-0.18218577,-0.18266955,-0.69131535,0.0,0.0,-0.67931426,1,0,0,0,0,0
161032000,0.00547677,-0.5194893,-1.5970211,0.0,0.67486924,-0.18212718,-0.18110712,-0.69179577,0.0,0.0,-0.6765857,1,0,0,0,0,0
161128000,0.0059297793,-0.5155553,-1.5971258,0.0,0.67522144,-0.18062061,-0.1799286,-0.69215465,0.0,0.0,-0.6781567,1,0,0,0,0,0
161224000,0.0039818366,-0.51628155,-1.5972985,0.0,0.6749213,-0.1815453,-0.17948355,-0.6923209,0.0,0.0,-0.67717505,1,0,0,0,0,0
161320000,0.0041018613,-0.5160593,-1.5974123,0.0,0.67491233,-0.18143801,-0.17943984,-0.6923691,0.0,0.0,-0.68008816,1,0,0,0,0,0
161436000,0.0017710801,-0.5246315,-1.5976093,0.0,0.67386574,-0.18521044,-0.18150342,-0.6918516,0.0,0.0,-0.6793423,1,0,0,0,0,0
161532000,0.0022203617,-0.5203527,-1.5977149,0.0,0.6742546,-0.1835872,-0.18020783,-0.6922439,0.0,0.0,-0.68192583,1,0,0,0,0,0
161632000,-0.0009735678,-0.51875055,-1.5978972,0.0,0.6740412,-0.18412535,-0.17854525,-0.6927395,0.0,0.0,-0.6780613,1,0,0,0,0,0
161728000,6.7665997e-06,-0.5197811,-1.5979978,0.0,0.67400426,-0.18416083,-0.17922287,-0.69259095,0.0,0.0,-0.6802444,1,0,0,0,0,0
161824000,-0.0009493277,-0.52096367,-1.5981544,0.0,0.67375565,-0.18490647,-0.17927581,-0.6926205,0.0,0.0,-0.6790775,1,0,0,0,0,0
161920000,-0.00041627494,-0.5201204,-1.5982572,0.0,0.67384505,-0.18444408,-0.17916678,-0.6926851,0.0,0.0,-0.6767586,1,0,0,0,0,0
162036000,-0.0029206988,-0.5241561,-1.5984316,0.0,0.673188,-0.18670017,-0.17964293,-0.6925962,0.0,0.0,-0.68084395,1,0,0,0,0,0
162132000,-0.001754409,-0.52334553,-1.5985264,0.0,0.6733373,-0.18603554,-0.17976496,-0.69259816,0.0,0.0,-0.68053263,1,0,0,0,0,0
162232000,-0.004893332,-0.51856977,-1.5986857,0.0,0.6734221,-0.1854533,-0.17705312,-0.69337004,0.0,0.0,-0.6798675,1,0,0,0,0,0
162328000,-0.0037554451,-0.52100044,-1.5987828,0.0,0.6732745,-0.18592034,-0.17825784,-0.6930796,0.0,0.0,-0.67848456,1,0,0,0,0,0
162424000,-0.005693658,-0.52040046,-1.5989279,0.0,0.67309815,-0.18637796,-0.17737034,-0.69335556,0.0,0.0,-0.6797732,1,0,0,0,0,0
162520000,-0.0049645337,-0.5202043,-1.5990303,0.0,0.67314833,-0.1860737,-0.17754743,-0.6933433,0.0,0.0,-0.68025804,1,0,0,0,0,0
162616000,-0.0070113284,-0.5189223,-1.5991677,0.0,0.6730262,-0.18633085,-0.17639276,-0.6936874,0.0,0.0,-0.6794627,1,0,0,0,0,0
162732000,-0.0058380105,-0.5224787,-1.599276,0.0,0.6727752,-0.18717682,-0.17798816,-0.6932954,0.0,0.0,-0.6824429,1,0,0,0,0,0
162832000,-0.007585717,-0.51918936,-1.59941,0.0,0.6728644,-0.186638,-0.17626095,-0.69379526,0.0,0.0,-0.6805246,1,0,0,0,0,0
162928000,-0.0061819237,-0.5230927,-1.5994864,0.0,0.67261416,-0.18752371,-0.17805606,-0.69334054,0.0,0.0,-0.6805738,1,0,0,0,0,0
163024000,-0.0074248314,-0.5225679,-1.5996023,0.0,0.6725052,-0.18777035,-0.17743744,-0.693538,0.0,0.0,-0.68247515,1,0,0,0,0,0
163120000,-0.009385633,-0.52758914,-1.5997541,0.0,0.671806,-0.19017994,-0.17843471,-0.6933033,0.0,0.0,-0.6793128,1,0,0,0,0,0
163216000,-0.0096134925,-0.5311981,-1.5998431,0.0,0.6714185,-0.1915121,-0.17956237,-0.69302064,0.0,0.0,-0.6825661,1,0,0,0,0,0
163332000,-0.0101384865,-0.5354165,-1.599967,0.0,0.6709306,-0.19315703,-0.18078819,-0.6927179,0.0,0.0,-0.6858147,1,0,0,0,0,0
163432000,-0.008894937,-0.5352107,-1.6000195,0.0,0.67105174,-0.19267343,-0.18114458,-0.69264215,0.0,0.0,-0.68439627,1,0,0,0,0,0
163528000,-0.008621502,-0.53487474,-1.6001002,0.0,0.67108154,-0.19247293,-0.18111849,-0.69267595,0.0,0.0,-0.6860851,1,0,0,0,0,0
163624000,-0.009096769,-0.535541,-1.600141,0.0,0.67095923,-0.1928663,-0.18117405,-0.6926704,0.0,0.0,-0.68486416,1,0,0,0,0,0
163720000,-0.009864992,-0.5374395,-1.6002136,0.0,0.6706815,-0.19378637,-0.18153948,-0.692587,0.0,0.0,-0.6854135,1,0,0,0,0,0
163836000,-0.009336269,-0.5419316,-1.6002688,0.0,0.67028916,-0.19516519,-0.18322723,-0.69213504,0.0,0.0,-0.68785405,1,0,0,0,0,0
163932000,-0.008386094,-0.5401075,-1.6003436,0.0,0.6705284,-0.19422375,-0.18293577,-0.6922452,0.0,0.0,-0.6894811,1,0,0,0,0,0
164032000,-0.0068171057,-0.5363095,-1.6003851,0.0,0.67102236,-0.19238922,-0.18219838,-0.69247323,0.0,0.0,-0.68759537,1,0,0,0,0,0
164128000,-0.008077753,-0.53186166,-1.6004503,0.0,0.6712934,-0.19128059,-0.18025973,-0.6930249,0.0,0.0,-0.6915227,1,0,0,0,0,0
164224000,-0.008026003,-0.53641605,-1.6004862,0.0,0.67086095,-0.19284078,-0.18180585,-0.6926072,0.0,0.0,-0.6873034,1,0,0,0,0,0
164320000,-0.009647946,-0.5350914,-1.6005493,0.0,0.67080677,-0.19293278,-0.18079254,-0.6928992,0.0,0.0,-0.69081813,1,0,0,0,0,0
164436000,-0.008868559,-0.542055,-1.6006011,0.0,0.67020816,-0.19508155,-0.18339814,-0.6921917,0.0,0.0,-0.69030964,1,0,0,0,0,0
164532000,-0.009281934,-0.54083586,-1.6006683,0.0,0.67026,-0.19480525,-0.18283886,-0.69236726,0.0,0.0,-0.69153744,1,0,0,0,0,0
164632000,-0.009131222,-0.5365447,-1.6007159,0.0,0.67066264,-0.19327676,-0.18144414,-0.69277257,0.0,0.0,-0.68829626,1,0,0,0,0,0
164728000,-0.009596187,-0.53555405,-1.6007847,0.0,0.67068684,-0.19309656,-0.18094334,-0.69293034,0.0,0.0,-0.6897544,1,0,0,0,0,0
164824000,-0.008743471,-0.53468716,-1.6008358,0.0,0.6708325,-0.19251563,-0.18094239,-0.69295126,0.0,0.0,-0.6890921,1,0,0,0,0,0
164920000,-0.0091051785,-0.53452,-1.6009067,0.0,0.67078876,-0.19258554,-0.18075399,-0.6930234,0.0,0.0,-0.6896358,1,0,0,0,0,0
165036000,-0.010300928,-0.53860974,-1.6009821,0.0,0.67026263,-0.19440655,-0.18170738,-0.69277453,0.0,0.0,-0.69176996,1,0,0,0,0,0
165132000,-0.009968003,-0.53969765,-1.6010617,0.0,0.6701647,-0.19467795,-0.18218052,-0.69266874,0.0,0.0,-0.6921668,1,0,0,0,0,0
165232000,-0.011711143,-0.537314,-1.6011342,0.0,0.6701952,-0.19444525,-0.18076839,-0.69307446,0.0,0.0,-0.6883259,1,0,0,0,0,0
165328000,-0.012783217,-0.5369749,-1.601217,0.0,0.67009425,-0.1946948,-0.18027475,-0.6932305,0.0,0.0,-0.69078845,1,0,0,0,0,0
165428000,-0.012186899,-0.53896606,-1.6012805,0.0,0.6699419,-0.19518855,-0.18114467,-0.69301224,0.0,0.0,-0.69299024,1,0,0,0,0,0
165524000,-0.012790156,-0.5383359,-1.6013546,0.0,0.66991705,-0.19517972,-0.18071656,-0.6931505,0.0,0.0,-0.6910612,1,0,0,0,0,0
165620000,-0.013582847,-0.53819406,-1.6014129,0.0,0.6698329,-0.19540147,-0.18038842,-0.6932548,0.0,0.0,-0.6896386,1,0,0,0,0,0
165736000,-0.0126260435,-0.54296947,-1.6014905,0.0,0.6694451,-0.19673699,-0.18231727,-0.69274694,0.0,0.0,-0.6901067,1,0,0,0,0,0
165832000,-0.0132982945,-0.540329,-1.6015517,0.0,0.6696097,-0.19605601,-0.1811911,-0.6930763,0.0,0.0,-0.691766,1,0,0,0,0,0
165932000,-0.01285637,-0.53699225,-1.601631,0.0,0.66994196,-0.19476263,-0.18021491,-0.6933743,0.0,0.0,-0.69096017,1,0,0,0,0,0
166028000,-0.013871981,-0.534042,-1.6016765,0.0,0.670106,-0.19408748,-0.1788662,-0.69375426,0.0,0.0,-0.69042873,1,0,0,0,0,0
166124000,-0.0116919065,-0.5339992,-1.6017299,0.0,0.6703026,-0.19334693,-0.17960276,-0.6935807,0.0,0.0,-0.69240314,1,0,0,0,0,0
166220000,-0.0130624985,-0.53600407,-1.6017774,0.0,0.6699645,-0.1945034,-0.179797,-0.6935338,0.0,0.0,-0.6882283,1,0,0,0,0,0
166336000,-0.012123114,-0.5397823,-1.6018426,0.0,0.6696759,-0.19550008,-0.18138619,-0.6931183,0.0,0.0,-0.6924078,1,0,0,0,0,0
166432000,-0.013426944,-0.54170924,-1.6018969,0.0,0.6693459,-0.19660692,-0.18157643,-0.6930741,0.0,0.0,-0.6907962,1,0,0,0,0,0
166532000,-0.014005115,-0.5394572,-1.6019634,0.0,0.6694807,-0.19602877,-0.18061276,-0.6933595,0.0,0.0,-0.69025046,1,0,0,0,0,0
166628000,-0.013788086,-0.5362791,-1.6020198,0.0,0.66978383,-0.19486326,-0.17961422,-0.69365454,0.0,0.0,-0.6914474,1,0,0,0,0,0
166724000,-0.0134390285,-0.5359415,-1.6020788,0.0,0.66982925,-0.19463499,-0.17961605,-0.6936743,0.0,0.0,-0.69094336,1,0,0,0,0,0
166820000,-0.014672302,-0.53353727,-1.6021506,0.0,0.6699113,-0.19422354,-0.17837276,-0.6940311,0.0,0.0,-0.6939736,1,0,0,0,0,0
166936000,-0.015055426,-0.54244214,-1.6022376,0.0,0.66899735,-0.19743575,-0.18122467,-0.6932671,0.0,0.0,-0.6912504,1,0,0,0,0,0
167032000,-0.013561436,-0.5409237,-1.6022948,0.0,0.6692697,-0.19641675,-0.18122682,-0.6932932,0.0,0.0,-0.69258153,1,0,0,0,0,0
167132000,-0.014371702,-0.53688395,-1.6023527,0.0,0.6695542,-0.19529757,-0.17958266,-0.69376236,0.0,0.0,-0.6932466,1,0,0,0,0,0
167228000,-0.0139847705,-0.5372312,-1.6024109,0.0,0.66953886,-0.1952933,-0.17982791,-0.69371474,0.0,0.0,-0.6903371,1,0,0,0,0,0
167324000,-0.015224636,-0.5358258,-1.6024661,0.0,0.6695318,-0.19522762,-0.17891994,-0.6939748,0.0,0.0,-0.69202286,1,0,0,0,0,0
167420000,-0.015464624,-0.5371243,-1.6025236,0.0,0.6693652,-0.19576178,-0.17926759,-0.6938952,0.0,0.0,-0.6894506,1,0,0,0,0,0
167536000,-0.01582093,-0.5402757,-1.6025883,0.0,0.66900754,-0.19697542,-0.18019679,-0.693656,0.0,0.0,-0.69380695,1,0,0,0,0,0
167632000,-0.016505793,-0.53907883,-1.6026644,0.0,0.6690281,-0.19679801,-0.17954952,-0.6938544,0.0,0.0,-0.69367254,1,0,0,0,0,0
167732000,-0.016701972,-0.5338919,-1.6027386,0.0,0.6694762,-0.19507806,-0.17773028,-0.69437605,0.0,0.0,-0.6921117,1,0,0,0,0,0
167828000,-0.017579308,-0.5338246,-1.6028131,0.0,0.66937107,-0.19535507,-0.17739575,-0.6944851,0.0,0.0,-0.69282234,1,0,0,0,0,0
167924000,-0.018327862,-0.5363928,-1.6028788,0.0,0.6690308,-0.1964988,-0.17799312,-0.69433737,0.0,0.0,-0.6918682,1,0,0,0,0,0
168020000,-0.017900212,-0.53543967,-1.6029556,0.0,0.6691369,-0.19603325,-0.17781354,-0.6944127,0.0,0.0,-0.692554,1,0,0,0,0,0
168136000,-0.018147435,-0.54319525,-1.6030284,0.0,0.6683444,-0.198801,-0.18032719,-0.69374067,0.0,0.0,-0.69108474,1,0,0,0,0,0
168232000,-0.018165896,-0.54109126,-1.6030782,0.0,0.66852784,-0.1980853,-0.17960896,-0.6939548,0.0,0.0,-0.69482124,1,0,0,0,0,0
168332000,-0.01841361,-0.541682,-1.6031265,0.0,0.6684297,-0.19837636,-0.17971672,-0.6939384,0.0,0.0,-0.6906997,1,0,0,0,0,0
168428000,-0.018221814,-0.54164684,-1.6031615,0.0,0.66844,-0.1983033,-0.179768,-0.6939361,0.0,0.0,-0.6923192,1,0,0,0,0,0
168524000,-0.017875042,-0.54511327,-1.6031975,0.0,0.66812766,-0.19938724,-0.18104899,-0.69359314,0.0,0.0,-0.6942117,1,0,0,0,0,0
168620000,-0.017188882,-0.5461923,-1.6032246,0.0,0.66808224,-0.19953291,-0.18164653,-0.69343877,0.0,0.0,-0.69166005,1,0,0,0,0,0
168736000,-0.018063249,-0.55077493,-1.6032711,0.0,0.667533,-0.20140997,-0.18287678,-0.6931015,0.0,0.0,-0.6955747,1,0,0,0,0,0
168832000,-0.018589506,-0.5491834,-1.6033049,0.0,0.66762364,-0.20103987,-0.18215692,-0.6933112,0.0,0.0,-0.6959853,1,0,0,0,0,0
168932000,-0.019125776,-0.5431734,-1.6033621,0.0,0.66813344,-0.19915037,-0.17994723,-0.6939422,0.0,0.0,-0.6950464,1,0,0,0,0,0
169028000,-0.020228108,-0.54294175,-1.603404,0.0,0.6680314,-0.1994424,-0.17948273,-0.69407696,0.0,0.0,-0.69647086,1,0,0,0,0,0
169124000,-0.019338382,-0.54363286,-1.603458,0.0,0.6680345,-0.19938861,-0.18001825,-0.6939506,0.0,0.0,-0.6944589,1,0,0,0,0,0
169220000,-0.01925862,-0.5471399,-1.6034977,0.0,0.6676886,-0.20057581,-0.18121961,-0.6936286,0.0,0.0,-0.69353956,1,0,0,0,0,0
169316000,-0.019234752,-0.5453634,-1.6035411,0.0,0.66784847,-0.1999588,-0.1806271,-0.69380754,0.0,0.0,-0.69470817,1,0,0,0,0,0
169432000,-0.018945074,-0.5486206,-1.6035769,0.0,0.6675485,-0.20098914,-0.18181738,-0.6934874,0.0,0.0,-0.6958693,1,0,0,0,0,0
169532000,-0.019395167,-0.54285246,-1.6036307,0.0,0.6680444,-0.19915372,-0.17971921,-0.694086,0.0,0.0,-0.69386923,1,0,0,0,0,0
169628000,-0.018892787,-0.5389683,-1.6036656,0.0,0.6684558,-0.19764762,-0.1785852,-0.6944131,0.0,0.0,-0.6963004,1,0,0,0,0,0
169724000,-0.019105505,-0.542421,-1.6037205,0.0,0.66808367,-0.19891609,-0.17966586,-0.69413024,0.0,0.0,-0.6936691,1,0,0,0,0,0
169820000,-0.018266577,-0.54449594,-1.603757,0.0,0.6679542,-0.19935556,-0.18065014,-0.69387317,0.0,0.0,-0.6948264,1,0,0,0,0,0
169916000,-0.017352266,-0.54543555,-1.6037884,0.0,0.66794366,-0.19937743,-0.18127961,-0.69371295,0.0,0.0,-0.69488245,1,0,0,0,0,0
170032000,-0.016738653,-0.5473981,-1.6038027,0.0,0.6678101,-0.19985126,-0.18214959,-0.69347733,0.0,0.0,-0.69746214,1,0,0,0,0,0
170132000,-0.017676592,-0.5426638,-1.6038308,0.0,0.66816396,-0.19853249,-0.18023236,-0.694016,0.0,0.0,-0.6950553,1,0,0,0,0,0
170228000,-0.018879592,-0.5419562,-1.6038437,0.0,0.66810817,-0.19869113,-0.1795759,-0.6941943,0.0,0.0,-0.69435734,1,0,0,0,0,0
170324000,-0.018219266,-0.5403197,-1.6038789,0.0,0.66831875,-0.19790845,-0.17925195,-0.694299,0.0,0.0,-0.69436544,1,0,0,0,0,0
170420000,-0.017397508,-0.5414082,-1.6038991,0.0,0.6682886,-0.19801173,-0.17990081,-0.6941308,0.0,0.0,-0.6945848,1,0,0,0,0,0
170536000,-0.017650127,-0.5495979,-1.6039346,0.0,0.6674593,-0.20092675,-0.18255837,-0.6933966,0.0,0.0,-0.6947618,1,0,0,0,0,0
170632000,-0.018095931,-0.5507844,-1.6039494,0.0,0.6672936,-0.20148617,-0.18280032,-0.69333005,0.0,0.0,-0.6957731,1,0,0,0,0,0
170732000,-0.017971126,-0.54545325,-1.6039927,0.0,0.66780937,-0.19960867,-0.18105048,-0.69383556,0.0,0.0,-0.69467884,1,0,0,0,0,0
170828000,-0.017528139,-0.5433243,-1.604011,0.0,0.6680526,-0.19872722,-0.18048769,-0.69400096,0.0,0.0,-0.6943896,1,0,0,0,0,0
170924000,-0.01861047,-0.5421504,-1.6040561,0.0,0.6680425,-0.19868743,-0.17971344,-0.694223,0.0,0.0,-0.6962516,1,0,0,0,0,0
171020000,-0.018088177,-0.54307836,-1.6040821,0.0,0.667996,-0.19883578,-0.18020374,-0.69409823,0.0,0.0,-0.6943822,1,0,0,0,0,0
171136000,-0.018972145,-0.54645574,-1.6041281,0.0,0.6675651,-0.20030117,-0.18102615,-0.69387734,0.0,0.0,-0.69768304,1,0,0,0,0,0
171232000,-0.016335206,-0.54868555,-1.6041441,0.0,0.66760725,-0.20019211,-0.18268724,-0.69343287,0.0,0.0,-0.69814366,1,0,0,0,0,0
171332000,-0.017784745,-0.54590017,-1.6041851,0.0,0.66771793,-0.19971815,-0.18124594,-0.69384104,0.0,0.0,-0.6944293,1,0,0,0,0,0
171428000,-0.0191916,-0.54617685,-1.6042025,0.0,0.6675444,-0.20028491,-0.18084894,-0.69394815,0.0,0.0,-0.6950715,1,0,0,0,0,0
171524000,-0.01870271,-0.54410756,-1.6042482,0.0,0.66777784,-0.19941139,-0.18031944,-0.69411284,0.0,0.0,-0.6966465,1,0,0,0,0,0
171620000,-0.018803358,-0.54511905,-1.6042715,0.0,0.66766185,-0.19979636,-0.18062171,-0.6940352,0.0,0.0,-0.69556904,1,0,0,0,0,0
171736000,-0.018251067,-0.54601777,-1.6043253,0.0,0.66761136,-0.19992715,-0.18110959,-0.69391906,0.0,0.0,-0.69927377,1,0,0,0,0,0
171832000,-0.01747583,-0.54870087,-1.6043446,0.0,0.66742194,-0.20059639,-0.18227676,-0.6936024,0.0,0.0,-0.69874036,1,0,0,0,0,0
171932000,-0.017910339,-0.54497457,-1.6044087,0.0,0.66771734,-0.19946077,-0.18086943,-0.6940137,0.0,0.0,-0.6951111,1,0,0,0,0,0
172028000,-0.017791664,-0.5476553,-1.6044389,0.0,0.66745913,-0.20034947,-0.18180704,-0.69376117,0.0,0.0,-0.6948587,1,0,0,0,0,0
172124000,-0.016858334,-0.5440679,-1.6044962,0.0,0.66787916,-0.19880424,-0.18092151,-0.69403297,0.0,0.0,-0.6968701,1,0,0,0,0,0
172220000,-0.01644664,-0.5450214,-1.6045207,0.0,0.6678198,-0.19899838,-0.18138188,-0.6939143,0.0,0.0,-0.6950598,1,0,0,0,0,0
172336000,-0.01728106,-0.5465386,-1.6046008,0.0,0.6675623,-0.1998082,-0.18159336,-0.693874,0.0,0.0,-0.6995202,1,0,0,0,0,0
172432000,-0.01770599,-0.5500023,-1.6046414,0.0,0.6671692,-0.20114945,-0.18260357,-0.6935994,0.0,0.0,-0.6985845,1,0,0,0,0,0
172532000,-0.017735401,-0.543121,-1.6047226,0.0,0.6678046,-0.19879046,-0.18027681,-0.69427633,0.0,0.0,-0.69732535,1,0,0,0,0,0
172628000,-0.01859595,-0.5458117,-1.6047617,0.0,0.66744536,-0.20001063,-0.18087716,-0.69411516,0.0,0.0,-0.6965238,1,0,0,0,0,0
172724000,-0.016820757,-0.5446868,-1.6048342,0.0,0.667706,-0.1990361,-0.18110861,-0.69408435,0.0,0.0,-0.69720614,1,0,0,0,0,0
172820000,-0.01769759,-0.5464874,-1.6048683,0.0,0.6674328,-0.19995381,-0.18140493,-0.6940059,0.0,0.0,-0.6969338,1,0,0,0,0,0
172936000,-0.017921023,-0.54860806,-1.6049552,0.0,0.6671745,-0.2007685,-0.18202993,-0.6938554,0.0,0.0,-0.6999393,1,0,0,0,0,0
173032000,-0.014558276,-0.54994595,-1.6049874,0.0,0.6673705,-0.20011148,-0.1836415,-0.6934319,0.0,0.0,-0.6990841,1,0,0,0,0,0
173132000,-0.017637154,-0.5441213,-1.6050684,0.0,0.66759795,-0.19913445,-0.1806122,-0.6942894,0.0,0.0,-0.69724876,1,0,0,0,0,0
173228000,-0.016457168,-0.5460316,-1.6051024,0.0,0.66751945,-0.19940363,-0.18165913,-0.6940144,0.0,0.0,-0.69721645,1,0,0,0,0,0
173324000,-0.018155355,-0.54588103,-1.6051937,0.0,0.66733277,-0.19992658,-0.18101014,-0.694213,0.0,0.0,-0.69744253,1,0,0,0,0,0
173420000,-0.017404214,-0.5458318,-1.6052443,0.0,0.667395,-0.19966355,-0.1812493,-0.6941665,0.0,0.0,-0.6963844,1,0,0,0,0,0
173536000,-0.016103871,-0.5503627,-1.6052389,0.0,0.6670879,-0.20079407,-0.18321998,-0.693618,0.0,0.0,-0.6993894,1,0,0,0,0,0
173632000,-0.01644752,-0.55178404,-1.6053096,0.0,0.6668905,-0.20140588,-0.18356998,-0.6935379,0.0,0.0,-0.69874066,1,0,0,0,0,0
173732000,-0.015329767,-0.5484362,-1.6053274,0.0,0.66732156,-0.19987857,-0.18283397,-0.6937595,0.0,0.0,-0.69738895,1,0,0,0,0,0
173828000,-0.016876288,-0.548584,-1.60542,0.0,0.66712034,-0.20045403,-0.18233772,-0.6939176,0.0,0.0,-0.69691265,1,0,0,0,0,0
173924000,-0.016448561,-0.548126,-1.6054621,0.0,0.667193,-0.20015697,-0.18232837,-0.693936,0.0,0.0,-0.6980293,1,0,0,0,0,0
174020000,-0.017586157,-0.5468327,-1.6055882,0.0,0.66716063,-0.2001012,-0.18148741,-0.69420356,0.0,0.0,-0.69903696,1,0,0,0,0,0
174136000,-0.01677732,-0.5538002,-1.6056741,0.0,0.66653395,-0.20224527,-0.1840942,-0.6934974,0.0,0.0,-0.69855076,1,0,0,0,0,0
174232000,-0.01842717,-0.5535693,-1.6058137,0.0,0.6663411,-0.20272814,-0.18343054,-0.69371754,0.0,0.0,-0.7004016,1,0,0,0,0,0
174332000,-0.01716177,-0.5524117,-1.6058898,0.0,0.66655606,-0.2019139,-0.183474,-0.6937371,0.0,0.0,-0.6973678,1,0,0,0,0,0
174428000,-0.016571146,-0.54965174,-1.6060221,0.0,0.6668384,-0.20077604,-0.18274102,-0.69398934,0.0,0.0,-0.6990521,1,0,0,0,0,0
174524000,-0.01635972,-0.5479914,-1.6060802,0.0,0.6670004,-0.2001372,-0.18225224,-0.69414675,0.0,0.0,-0.69893247,1,0,0,0,0,0
174620000,-0.016802361,-0.5477216,-1.6061841,0.0,0.6669462,-0.20020103,-0.18199779,-0.6942472,0.0,0.0,-0.69796425,1,0,0,0,0,0
174736000,-0.015466672,-0.5501423,-1.6062293,0.0,0.66682976,-0.20059615,-0.18326777,-0.6939107,0.0,0.0,-0.7019046,1,0,0,0,0,0
174832000,-0.017315922,-0.5530467,-1.6063569,0.0,0.6663164,-0.20222743,-0.18358603,-0.69384634,0.0,0.0,-0.7005801,1,0,0,0,0,0
174932000,-0.016056633,-0.5477586,-1.6064136,0.0,0.66693753,-0.19998603,-0.18224607,-0.6942523,0.0,0.0,-0.7007453,1,0,0,0,0,0
175028000,-0.016975036,-0.55199337,-1.6065787,0.0,0.66637677,-0.2017704,-0.18332915,-0.6939893,0.0,0.0,-0.6978449,1,0,0,0,0,0
175124000,-0.015694978,-0.54996943,-1.6066633,0.0,0.666673,-0.20065232,-0.18308711,-0.69409287,0.0,0.0,-0.69865525,1,0,0,0,0,0
175220000,-0.016603967,-0.5493926,-1.6068122,0.0,0.66658604,-0.20076957,-0.1825635,-0.6942804,0.0,0.0,-0.6994727,1,0,0,0,0,0
175336000,-0.016441144,-0.550212,-1.6068971,0.0,0.6664934,-0.2010062,-0.1828859,-0.694216,0.0,0.0,-0.7017197,1,0,0,0,0,0
175432000,-0.01742848,-0.55299747,-1.6070697,0.0,0.6660625,-0.2023133,-0.18345839,-0.6940987,0.0,0.0,-0.7008533,1,0,0,0,0,0
175532000,-0.017000122,-0.54889405,-1.6071657,0.0,0.66647196,-0.20076151,-0.18222351,-0.69448143,0.0,0.0,-0.69903976,1,0,0,0,0,0
175628000,-0.017869622,-0.5501178,-1.6073253,0.0,0.6662102,-0.20148869,-0.18231532,-0.69449794,0.0,0.0,-0.69740826,1,0,0,0,0,0
175724000,-0.017301798,-0.54784405,-1.6073971,0.0,0.6664631,-0.20052017,-0.18174389,-0.6946854,0.0,0.0,-0.7011298,1,0,0,0,0,0
175820000,-0.016933601,-0.5495875,-1.6075482,0.0,0.6662785,-0.20101397,-0.18244039,-0.6945372,0.0,0.0,-0.6980881,1,0,0,0,0,0
175936000,-0.015451628,-0.55510545,-1.607629,0.0,0.6658624,-0.2024347,-0.1847931,-0.6939013,0.0,0.0,-0.69976956,1,0,0,0,0,0
176036000,-0.017353743,-0.5499823,-1.6078167,0.0,0.6661046,-0.20131488,-0.18239965,-0.69462746,0.0,0.0,-0.70004034,1,0,0,0,0,0
176132000,-0.016137417,-0.5512119,-1.6078992,0.0,0.66607887,-0.20134237,-0.18322526,-0.69442695,0.0,0.0,-0.698192,1,0,0,0,0,0
176228000,-0.016065778,-0.5485507,-1.6080472,0.0,0.6662927,-0.2004119,-0.18234465,-0.69472265,0.0,0.0,-0.6986433,1,0,0,0,0,0
176324000,-0.016157014,-0.5492027,-1.6081085,0.0,0.6661992,-0.2006733,-0.18252502,-0.69468945,0.0,0.0,-0.697728,1,0,0,0,0,0
176420000,-0.016808892,-0.5504048,-1.6082857,0.0,0.66595554,-0.20132229,-0.18268308,-0.69469374,0.0,0.0,-0.6985962,1,0,0,0,0,0
176536000,-0.01564138,-0.55512905,-1.6083943,0.0,0.6655753,-0.20257671,-0.18465763,-0.6941712,0.0,0.0,-0.70033187,1,0,0,0,0,0
176632000,-0.01629115,-0.55428636,-1.6086341,0.0,0.66550857,-0.20252375,-0.18412605,-0.69439185,0.0,0.0,-0.70173633,1,0,0,0,0,0
176732000,-0.014957755,-0.5515694,-1.6087744,0.0,0.6658589,-0.20115343,-0.18366642,-0.69457597,0.0,0.0,-0.6975903,1,0,0,0,0,0
176828000,-0.014976386,-0.54703385,-1.609007,0.0,0.6662146,-0.19961156,-0.18211958,-0.69508696,0.0,0.0,-0.7003072,1,0,0,0,0,0
176924000,-0.014043428,-0.5405489,-1.6091198,0.0,0.66688806,-0.19706489,-0.18026239,-0.69565165,0.0,0.0,-0.6950469,1,0,0,0,0,0
177020000,-0.014683739,-0.50884885,-1.6093581,0.0,0.669673,-0.18629034,-0.16938134,-0.698673,0.0,0.0,-0.6886517,1,0,0,0,0,0
177136000,-0.015688796,-0.4681491,-1.6095399,0.0,0.673039,-0.17243938,-0.15529671,-0.7022579,0.0,0.0,-0.6882131,1,0,0,0,0,0
177232000,-0.016259208,-0.44310725,-1.6098592,0.0,0.6749092,-0.1638807,-0.14659785,-0.704379,0.0,0.0,-0.6878098,1,0,0,0,0,0
177332000,-0.017312761,-0.43902037,-1.6100683,0.0,0.67507136,-0.16281688,-0.14482488,-0.70483696,0.0,0.0,-0.6750952,1,0,0,0,0,0
177428000,-0.018595576,-0.4356667,-1.610402,0.0,0.67511225,-0.16209616,-0.1432088,-0.70529395,0.0,0.0,-0.6685794,1,0,0,0,0,0
177524000,-0.016861454,-0.43110016,-1.6105917,0.0,0.6755393,-0.15991949,-0.14225698,-0.7055746,0.0,0.0,-0.6652665,1,0,0,0,0,0
177620000,-0.017150728,-0.4179838,-1.6108294,0.0,0.67642915,-0.1554194,-0.13768594,-0.70663357,0.0,0.0,-0.6601905,1,0,0,0,0,0
177736000,-0.015572947,-0.40180132,-1.6109476,0.0,0.677695,-0.14919002,-0.13273707,-0.70770943,0.0,0.0,-0.6577524,1,0,0,0,0,0
177832000,-0.01582216,-0.38680252,-1.6112105,0.0,0.6786428,-0.14399596,-0.12752703,-0.70883423,0.0,0.0,-0.6533862,1,0,0,0,0,0
177932000,-0.014648761,-0.3725472,-1.6113255,0.0,0.67965496,-0.13856335,-0.12307948,-0.70973295,0.0,0.0,-0.6502702,1,0,0,0,0,0
178028000,-0.013513914,-0.36291215,-1.6115464,0.0,0.68028814,-0.13477887,-0.120182544,-0.7103512,0.0,0.0,-0.64719385,1,0,0,0,0,0
178124000,-0.012091649,-0.35858154,-1.6116012,0.0,0.68064266,-0.13276333,-0.11920709,-0.71055543,0.0,0.0,-0.64351636,1,0,0,0,0,0
178220000,-0.013330316,-0.35148573,-1.6117532,0.0,0.6809569,-0.13067748,-0.11633568,-0.7111168,0.0,0.0,-0.63784945,1,0,0,0,0,0
178336000,-0.01296206,-0.3410001,-1.6117768,0.0,0.6816221,-0.12683174,-0.1128847,-0.71173173,0.0,0.0,-0.6365916,1,0,0,0,0,0
178432000,-0.013903986,-0.33201444,-1.6118512,0.0,0.682079,-0.12396495,-0.10947397,-0.71233165,0.0,0.0,-0.6334049,1,0,0,0,0,0
178532000,-0.013207618,-0.3192422,-1.611771,0.0,0.6828975,-0.1191816,-0.1053584,-0.71298414,0.0,0.0,-0.6290788,1,0,0,0,0,0
178628000,-0.011276609,-0.3087078,-1.6115599,0.0,0.683679,-0.114761405,-0.10245302,-0.71338373,0.0,0.0,-0.63085073,1,0,0,0,0,0
178724000,-0.010888124,-0.30413553,-1.6115295,0.0,0.6839626,-0.11299856,-0.10102724,-0.7135966,0.0,0.0,-0.6231402,1,0,0,0,0,0
178820000,-0.011341728,-0.2953421,-1.6114069,0.0,0.6844531,-0.11001425,-0.097858645,-0.71403396,0.0,0.0,-0.6267551,1,0,0,0,0,0
178916000,-0.012063947,-0.2919876,-1.6115253,0.0,0.68454826,-0.10907137,-0.096444115,-0.71427983,0.0,0.0,-0.6208048,1,0,0,0,0,0
179032000,-0.012609046,-0.28029054,-1.611587,0.0,0.68510026,-0.10508874,-0.09223341,-0.7149035,0.0,0.0,-0.6186666,1,0,0,0,0,0
179132000,-0.011612324,-0.2727006,-1.611734,0.0,0.68547785,-0.10204455,-0.08997695,-0.71527004,0.0,0.0,-0.61632633,1,0,0,0,0,0
179228000,-0.0117151495,-0.26419622,-1.6117237,0.0,0.68588823,-0.09904162,-0.08702023,-0.71566445,0.0,0.0,-0.6144259,1,0,0,0,0,0
179324000,-0.012708906,-0.25330293,-1.6119145,0.0,0.6862819,-0.09549698,-0.082912154,-0.7162563,0.0,0.0,-0.61352277,1,0,0,0,0,0
179420000,-0.013405829,-0.24704199,-1.6119848,0.0,0.68650883,-0.09349985,-0.080506764,-0.71657664,0.0,0.0,-0.61082333,1,0,0,0,0,0
179516000,-0.014318564,-0.24179147,-1.61215,0.0,0.686642,-0.0919412,-0.07836637,-0.7168879,0.0,0.0,-0.60749686,1,0,0,0,0,0
179632000,-0.011982776,-0.23301484,-1.6121849,0.0,0.68711495,-0.08799854,-0.076183036,-0.7171649,0.0,0.0,-0.6077984,1,0,0,0,0,0
179732000,-0.010854529,-0.22570014,-1.6123837,0.0,0.6873971,-0.08499812,-0.07406211,-0.71747845,0.0,0.0,-0.6064625,1,0,0,0,0,0
179828000,-0.010494326,-0.21850798,-1.6123881,0.0,0.6877003,-0.08229682,-0.0717156,-0.7177412,0.0,0.0,-0.6052501,1,0,0,0,0,0
179924000,-0.01262387,-0.2083668,-1.612459,0.0,0.6879837,-0.079395436,-0.067455985,-0.7182092,0.0,0.0,-0.601987,1,0,0,0,0,0
180024000,-0.011882563,-0.19971009,-1.612395,0.0,0.6883596,-0.076032765,-0.06474216,-0.7184626,0.0,0.0,-0.601227,1,0,0,0,0,0
180120000,-0.012235362,-0.19422558,-1.6124487,0.0,0.6885256,-0.07418767,-0.06272317,-0.7186755,0.0,0.0,-0.5977874,1,0,0,0,0,0
180236000,-0.009816705,-0.18522651,-1.6123475,0.0,0.6889621,-0.07012077,-0.060493615,-0.71885663,0.0,0.0,-0.59671193,1,0,0,0,0,0
180336000,-0.010098027,-0.17769566,-1.6124654,0.0,0.68915963,-0.0675162,-0.057791363,-0.71913886,0.0,0.0,-0.5957038,1,0,0,0,0,0
180432000,-0.010886609,-0.17286964,-1.612373,0.0,0.6893219,-0.066051416,-0.055846125,-0.71927303,0.0,0.0,-0.59253144,1,0,0,0,0,0
180528000,-0.012652083,-0.16739787,-1.6125793,0.0,0.6893624,-0.06469921,-0.053316392,-0.71954906,0.0,0.0,-0.591739,1,0,0,0,0,0
180624000,-0.014731165,-0.16068865,-1.6126842,0.0,0.68946505,-0.063006945,-0.050249476,-0.7198216,0.0,0.0,-0.5910342,1,0,0,0,0,0
180720000,-0.014031413,-0.15508343,-1.6128931,0.0,0.68957895,-0.06075539,-0.04856014,-0.72002196,0.0,0.0,-0.58997387,1,0,0,0,0,0
180816000,-0.0127761625,-0.1476209,-1.6129333,0.0,0.68981487,-0.057639174,-0.046434727,-0.7201924,0.0,0.0,-0.58992666,1,0,0,0,0,0
180936000,-0.01216929,-0.14236616,-1.6129028,0.0,0.6899865,-0.055538446,-0.044839796,-0.720294,0.0,0.0,-0.5869029,1,0,0,0,0,0
181032000,-0.011920079,-0.13742124,-1.6127075,0.0,0.69019395,-0.053668648,-0.043227162,-0.72033566,0.0,0.0,-0.58761466,1,0,0,0,0,0
181128000,-0.012048411,-0.13270782,-1.6126827,0.0,0.6903198,-0.052015983,-0.04155348,-0.7204347,0.0,0.0,-0.5837316,1,0,0,0,0,0
181224000,-0.012426265,-0.12433411,-1.612475,0.0,0.69058955,-0.049127962,-0.0385294,-0.7205471,0.0,0.0,-0.58437383,1,0,0,0,0,0
181320000,-0.012095918,-0.11830882,-1.612485,0.0,0.6907336,-0.04684469,-0.03656585,-0.7206633,0.0,0.0,-0.58349156,1,0,0,0,0,0
181436000,-0.010709422,-0.11276982,-1.6122179,0.0,0.69098353,-0.04436636,-0.035156883,-0.72065073,0.0,0.0,-0.58037823,1,0,0,0,0,0
181532000,-0.011010051,-0.110214345,-1.611929,0.0,0.69113535,-0.043545,-0.03417136,-0.7206026,0.0,0.0,-0.5811487,1,0,0,0,0,0
181632000,-0.0109320395,-0.106734104,-1.6113867,0.0,0.69140464,-0.042255808,-0.033007454,-0.7204753,0.0,0.0,-0.57936627,1,0,0,0,0,0
181728000,-0.009753463,-0.10224301,-1.6108601,0.0,0.69170815,-0.040222865,-0.031889055,-0.7203507,0.0,0.0,-0.5799391,1,0,0,0,0,0
181824000,-0.0106862,-0.098868616,-1.6101693,0.0,0.69200337,-0.039320137,-0.03039896,-0.7201814,0.0,0.0,-0.5780864,1,0,0,0,0,0
181920000,-0.011857966,-0.09575298,-1.6101481,0.0,0.692047,-0.0386039,-0.028898746,-0.72024,0.0,0.0,-0.5782515,1,0,0,0,0,0
182016000,-0.011678063,-0.08824809,-1.6100811,0.0,0.69220996,-0.0358393,-0.02636614,-0.7203234,0.0,0.0,-0.5779345,1,0,0,0,0,0
182136000,-0.011828214,-0.08439432,-1.6097882,0.0,0.6923786,-0.03450026,-0.024982544,-0.72027606,0.0,0.0,-0.57679164,1,0,0,0,0,0
182232000,-0.011326107,-0.078406475,-1.6109872,0.0,0.6920519,-0.032184687,-0.023069983,-0.72076076,0.0,0.0,-0.57558477,1,0,0,0,0,0
182328000,-0.009915119,-0.076381996,-1.6078455,0.0,0.69323653,-0.030931149,-0.022926241,-0.719681,0.0,0.0,-0.5744081,1,0,0,0,0,0
182424000,0.0026883048,-0.09015119,-1.5324471,0.0,0.7198439,-0.03027814,-0.03339861,-0.69267064,0.0,0.0,-0.5734213,1,0,0,0,0,0
182520000,0.039924152,-0.1265078,-1.4570487,0.0,0.74535716,-0.027211966,-0.060419198,-0.663364,0.0,0.0,-0.5730724,1,0,0,0,0,0
182616000,0.101477586,-0.16860169,-1.3816502,0.0,0.7697162,-0.014631768,-0.09701273,-0.6308022,0.0,0.0,-0.575036,1,0,0,0,0,0
182732000,0.17643099,-0.22514002,-1.2905438,0.0,0.7967445,0.0026458886,-0.14204751,-0.5873786,0.0,0.0,-0.58084995,1,0,0,0,0,0
182832000,0.21100497,-0.26820725,-1.2120037,0.0,0.81804276,0.010046592,-0.1687257,-0.54976064,0.0,0.0,-0.5838749,1,0,0,0,0,0
182928000,0.22722557,-0.31324732,-1.1366053,0.0,0.8366496,0.010969466,-0.1908866,-0.513283,0.0,0.0,-0.5915478,1,0,0,0,0,0
183024000,0.2312181,-0.35710734,-1.0612068,0.0,0.8534912,0.008630843,-0.20960942,-0.47701383,0.0,0.0,-0.6005833,1,0,0,0,0,0
183120000,0.2319205,-0.39689127,-0.98580843,0.0,0.8686657,0.0072672362,-0.226185,-0.44068968,0.0,0.0,-0.6094901,1,0,0,0,0,0
