timestamp,vel_pos_innov[0],vel_pos_innov[1],vel_pos_innov[2],vel_pos_innov[3],vel_pos_innov[4],vel_pos_innov[5],mag_innov[0],mag_innov[1],mag_innov[2],heading_innov,airspeed_innov,beta_innov,flow_innov[0],flow_innov[1],hagl_innov,vel_pos_innov_var[0],vel_pos_innov_var[1],vel_pos_innov_var[2],vel_pos_innov_var[3],vel_pos_innov_var[4],vel_pos_innov_var[5],mag_innov_var[0],mag_innov_var[1],mag_innov_var[2],heading_innov_var,airspeed_innov_var,beta_innov_var,flow_innov_var[0],flow_innov_var[1],hagl_innov_var,output_tracking_error[0],output_tracking_error[1],output_tracking_error[2],drag_innov[0],drag_innov[1],drag_innov_var[0],drag_innov_var[1],aux_vel_innov[0],aux_vel_innov[1]
3152000,0.0,0.0,0.0,0.0025885538,-0.0002210904,-0.08816528,0.0,0.0,0.0,-0.0067202747,0.0,0.0,0.0,0.0,0.0,0.0,0.0,0.0,0.27927476,0.2792748,4.193638,0.0,0.0,0.0,0.09212284,0.0,0.0,0.0,0.0,0.0,0.00080467435,0.0077323196,0.006926983,0.0,0.0,0.0,0.0,0.0,0.0
3352000,0.0,0.0,0.0,0.004490852,-2.3850704e-05,0.052703857,0.0,0.0,0.0,0.00029689074,0.0,0.0,0.0,0.0,0.0,0.0,0.0,0.0,0.2734026,0.27340266,4.193651,0.0,0.0,0.0,0.0917709,0.0,0.0,0.0,0.0,0.0,0.00028728417,0.021162035,0.022718975,0.0,0.0,0.0,0.0,0.0,0.0
3552000,0.0,0.0,0.0,0.0069199563,0.00017121303,0.022918701,0.0,0.0,0.0,-0.01266399,0.0,0.0,0.0,0.0,0.0,0.0,0.0,0.0,0.27058983,0.27058995,4.1956773,0.0,0.0,0.0,0.09155131,0.0,0.0,0.0,0.0,0.0,5.779246e-05,0.0103675695,0.013695222,0.0,0.0,0.0,0.0,0.0,0.0
3752000,0.0,0.0,0.0,0.009930317,0.00041109623,0.033691406,0.0,0.0,0.0,0.011021048,0.0,0.0,0.0,0.0,0.0,0.0,0.0,0.0,0.26840916,0.26840934,4.1917334,0.0,0.0,0.0,0.091370404,0.0,0.0,0.0,0.0,0.0,0.00025413238,0.02344595,0.02931415,0.0,0.0,0.0,0.0,0.0,0.0
3952000,0.0,0.0,0.0,0.012987137,0.00049441174,-0.011566162,0.0,0.0,0.0,0.011782736,0.0,0.0,0.0,0.0,0.0,0.0,0.0,0.0,0.2673423,0.26734257,4.185479,0.0,0.0,0.0,0.091250926,0.0,0.0,0.0,0.0,0.0,0.00069399615,0.016511016,0.022425197,0.0,0.0,0.0,0.0,0.0,0.0
4148000,0.0,0.0,0.0,0.016008437,0.0006229009,-0.026489258,0.0,0.0,0.0,-0.0045161545,0.0,0.0,0.0,0.0,0.0,0.0,0.0,0.0,0.26690224,0.26690263,4.1773906,0.0,0.0,0.0,0.091147035,0.0,0.0,0.0,0.0,0.0,0.0009247127,0.017824836,0.022892356,0.0,0.0,0.0,0.0,0.0,0.0
4348000,0.0,0.0,0.0,0.01876418,0.00088136113,-0.063201904,0.0,0.0,0.0,0.011000216,0.0,0.0,0.0,0.0,0.0,0.0,0.0,0.0,0.26710618,0.26710668,4.1710143,0.0,0.0,0.0,0.09107711,0.0,0.0,0.0,0.0,0.0,0.0007122444,0.025385085,0.0339304,0.0,0.0,0.0,0.0,0.0,0.0
4548000,0.0,0.0,0.0,0.02124828,0.0010346712,-0.047912598,0.0,0.0,0.0,-0.0062099397,0.0,0.0,0.0,0.0,0.0,0.0,0.0,0.0,0.26738447,0.26738507,4.1634536,0.0,0.0,0.0,0.09101284,0.0,0.0,0.0,0.0,0.0,0.00097566505,0.026513556,0.03540843,0.0,0.0,0.0,0.0,0.0,0.0
4748000,0.0,0.0,0.0,0.022811046,0.0007557826,-0.0026245117,0.0,0.0,0.0,-0.0066773593,0.0,0.0,0.0,0.0,0.0,0.0,0.0,0.0,0.2675556,0.26755622,4.156689,0.0,0.0,0.0,0.09097138,0.0,0.0,0.0,0.0,0.0,0.0015123644,0.02335234,0.026886348,0.0,0.0,0.0,0.0,0.0,0.0
4948000,0.0,0.0,0.0,0.023727888,0.00074285746,-0.18035889,0.0,0.0,0.0,-0.011127114,0.0,0.0,0.0,0.0,0.0,0.0,0.0,0.0,0.26792356,0.26792416,4.153188,0.0,0.0,0.0,0.09093374,0.0,0.0,0.0,0.0,0.0,0.0018012472,0.026570091,0.0330354,0.0,0.0,0.0,0.0,0.0,0.0
5148000,0.0,0.0,0.0,0.024035297,0.0009568703,-0.09576416,0.0,0.0,0.0,0.010427803,0.0,0.0,0.0,0.0,0.0,0.0,0.0,0.0,0.26773626,0.2677368,4.1484976,0.0,0.0,0.0,0.09090519,0.0,0.0,0.0,0.0,0.0,0.0016588182,0.02673227,0.033250608,0.0,0.0,0.0,0.0,0.0,0.0
5348000,0.0,0.0,0.0,0.02373398,0.0015752225,-0.14343262,0.0,0.0,0.0,0.0066941082,0.0,0.0,0.0,0.0,0.0,0.0,0.0,0.0,0.2673683,0.2673688,4.144978,0.0,0.0,0.0,0.09088796,0.0,0.0,0.0,0.0,0.0,0.0016513253,0.023871185,0.030974014,0.0,0.0,0.0,0.0,0.0,0.0
5548000,0.0,0.0,0.0,0.02334142,0.002253022,-0.34729004,0.0,0.0,0.0,-0.009096652,0.0,0.0,0.0,0.0,0.0,0.0,0.0,0.0,0.26690018,0.26690063,4.1420565,0.0,0.0,0.0,0.0908718,0.0,0.0,0.0,0.0,0.0,0.0018928506,0.030435292,0.04275189,0.0,0.0,0.0,0.0,0.0,0.0
5748000,0.0,0.0,0.0,0.02378972,0.0026500076,-0.015930176,0.0,0.0,0.0,0.003845632,0.0,0.0,0.0,0.0,0.0,0.0,0.0,0.0,0.2668302,0.26683062,4.141664,0.0,0.0,0.0,0.09086101,0.0,0.0,0.0,0.0,0.0,0.0017319733,0.020202694,0.029053153,0.0,0.0,0.0,0.0,0.0,0.0
5948000,0.0,0.0,0.0,0.023928585,0.0029242113,-0.085357666,0.0,0.0,0.0,-0.008266509,0.0,0.0,0.0,0.0,0.0,0.0,0.0,0.0,0.26635706,0.26635748,4.140031,0.0,0.0,0.0,0.09085253,0.0,0.0,0.0,0.0,0.0,0.0018554695,0.020731194,0.03004384,0.0,0.0,0.0,0.0,0.0,0.0
6148000,0.0,0.0,0.0,0.02389852,0.0031641233,-0.13146973,0.0,0.0,0.0,0.021764696,0.0,0.0,0.0,0.0,0.0,0.0,0.0,0.0,0.26590443,0.26590484,4.1387153,0.0,0.0,0.0,0.09084967,0.0,0.0,0.0,0.0,0.0,0.0019506986,0.02200015,0.03196446,0.0,0.0,0.0,0.0,0.0,0.0
6348000,0.0,0.0,0.0,0.023573931,0.0032368451,-0.057861328,0.0,0.0,0.0,0.0030249953,0.0,0.0,0.0,0.0,0.0,0.0,0.0,0.0,0.26583457,0.265835,4.1391373,0.0,0.0,0.0,0.09084584,0.0,0.0,0.0,0.0,0.0,0.0019318413,0.012587407,0.018132573,0.0,0.0,0.0,0.0,0.0,0.0
6548000,0.0,0.0,0.0,0.022654355,0.0032471155,-0.12512207,0.0,0.0,0.0,-0.008356541,0.0,0.0,0.0,0.0,0.0,0.0,0.0,0.0,0.26549116,0.26549152,4.138068,0.0,0.0,0.0,0.090843454,0.0,0.0,0.0,0.0,0.0,0.0020161455,0.015218502,0.02202825,0.0,0.0,0.0,0.0,0.0,0.0
6748000,0.0,0.0,0.0,0.021666627,0.003622444,-0.15264893,0.0,0.0,0.0,0.0026085079,0.0,0.0,0.0,0.0,0.0,0.0,0.0,0.0,0.26517773,0.26517808,4.1368275,0.0,0.0,0.0,0.09084457,0.0,0.0,0.0,0.0,0.0,0.0019099867,0.007296714,0.010122476,0.0,0.0,0.0,0.0,0.0,0.0
6948000,0.0,0.0,0.0,0.020568179,0.004502077,-0.13012695,0.0,0.0,0.0,0.0026631951,0.0,0.0,0.0,0.0,0.0,0.0,0.0,0.0,0.26488534,0.26488572,4.1354346,0.0,0.0,0.0,0.09084374,0.0,0.0,0.0,0.0,0.0,0.001937296,0.009756414,0.013868482,0.0,0.0,0.0,0.0,0.0,0.0
7148000,0.0,0.0,0.0,0.019944713,0.0059352233,-0.19778442,0.0,0.0,0.0,-0.0026274025,0.0,0.0,0.0,0.0,0.0,0.0,0.0,0.0,0.26494533,0.26494578,4.1354675,0.0,0.0,0.0,0.090842895,0.0,0.0,0.0,0.0,0.0,0.0018643114,0.0046038846,0.006614417,0.0,0.0,0.0,0.0,0.0,0.0
7348000,0.0,0.0,0.0,0.018971179,0.0073895715,-0.09811401,0.0,0.0,0.0,-0.001021564,0.0,0.0,0.0,0.0,0.0,0.0,0.0,0.0,0.26471454,0.26471505,4.133704,0.0,0.0,0.0,0.09084226,0.0,0.0,0.0,0.0,0.0,0.0018493576,0.0041766823,0.0051941094,0.0,0.0,0.0,0.0,0.0,0.0
7556000,0.0,0.0,0.0,0.018181585,0.008136723,-0.00680542,0.0,0.0,0.0,-0.010352731,0.0,0.0,0.0,0.0,0.0,0.0,0.0,0.0,0.26447847,0.264479,4.1316915,0.0,0.0,0.0,0.09084416,0.0,0.0,0.0,0.0,0.0,0.001981459,0.0047182594,0.0050728433,0.0,0.0,0.0,0.0,0.0,0.0
7756000,0.0,0.0,0.0,0.017674258,0.008474363,-0.053649902,0.0,0.0,0.0,-0.00785172,0.0,0.0,0.0,0.0,0.0,0.0,0.0,0.0,0.2645173,0.2645179,4.130978,0.0,0.0,0.0,0.090842836,0.0,0.0,0.0,0.0,0.0,0.001831089,0.0056181583,0.006731154,0.0,0.0,0.0,0.0,0.0,0.0
7948000,0.0,0.0,0.0,0.016522009,0.0084719,-0.021087646,0.0,0.0,0.0,-0.012280792,0.0,0.0,0.0,0.0,0.0,0.0,0.0,0.0,0.26429045,0.26429102,4.1286454,0.0,0.0,0.0,0.09084119,0.0,0.0,0.0,0.0,0.0,0.0017204451,0.008128321,0.011189999,0.0,0.0,0.0,0.0,0.0,0.0
8147999,0.0,0.0,0.0,0.015171496,0.007974598,-0.08441162,0.0,0.0,0.0,-0.016003221,0.0,0.0,0.0,0.0,0.0,0.0,0.0,0.0,0.26404136,0.26404187,4.1262884,0.0,0.0,0.0,0.090841606,0.0,0.0,0.0,0.0,0.0,0.0015424443,0.008240125,0.011273075,0.0,0.0,0.0,0.0,0.0,0.0
8355999,0.0,0.0,0.0,0.013514113,0.007474044,-0.06796265,0.0,0.0,0.0,-0.0026905239,0.0,0.0,0.0,0.0,0.0,0.0,0.0,0.0,0.26380056,0.26380104,4.123761,0.0,0.0,0.0,0.09084127,0.0,0.0,0.0,0.0,0.0,0.0014408083,0.0076556667,0.009552972,0.0,0.0,0.0,0.0,0.0,0.0
8556000,0.0,0.0,0.0,0.012145127,0.0069237873,0.022369385,0.0,0.0,0.0,0.0022424757,0.0,0.0,0.0,0.0,0.0,0.0,0.0,0.0,0.2635927,0.26359314,4.121306,0.0,0.0,0.0,0.09083521,0.0,0.0,0.0,0.0,0.0,0.0012287518,0.011540688,0.016188119,0.0,0.0,0.0,0.0,0.0,0.0
8756000,0.0,0.0,0.0,0.010998139,0.006835256,-0.12173462,0.0,0.0,0.0,-0.0062383115,0.0,0.0,0.0,0.0,0.0,0.0,0.0,0.0,0.26341814,0.26341856,4.118963,0.0,0.0,0.0,0.090831384,0.0,0.0,0.0,0.0,0.0,0.001119648,0.012237497,0.017435806,0.0,0.0,0.0,0.0,0.0,0.0
8956000,0.0,0.0,0.0,0.010258593,0.0069884676,-0.042022705,0.0,0.0,0.0,0.01060921,0.0,0.0,0.0,0.0,0.0,0.0,0.0,0.0,0.26320538,0.2632058,4.116697,0.0,0.0,0.0,0.09082931,0.0,0.0,0.0,0.0,0.0,0.0009680198,0.0128841065,0.01833489,0.0,0.0,0.0,0.0,0.0,0.0
9156000,0.0,0.0,0.0,0.00965831,0.007208849,-0.00018310547,0.0,0.0,0.0,0.004353553,0.0,0.0,0.0,0.0,0.0,0.0,0.0,0.0,0.26295626,0.26295665,4.11421,0.0,0.0,0.0,0.09082447,0.0,0.0,0.0,0.0,0.0,0.0010024222,0.012324896,0.016926859,0.0,0.0,0.0,0.0,0.0,0.0
9356000,0.0,0.0,0.0,0.009152373,0.007456136,-0.12011719,0.0,0.0,0.0,0.004946679,0.0,0.0,0.0,0.0,0.0,0.0,0.0,0.0,0.2629152,0.26291558,4.112877,0.0,0.0,0.0,0.090818785,0.0,0.0,0.0,0.0,0.0,0.00078885467,0.01444018,0.020962995,0.0,0.0,0.0,0.0,0.0,0.0
9556000,0.0,0.0,0.0,0.008544955,0.007683773,0.01473999,0.0,0.0,0.0,0.004866451,0.0,0.0,0.0,0.0,0.0,0.0,0.0,0.0,0.2626486,0.26264897,4.1103797,0.0,0.0,0.0,0.09081536,0.0,0.0,0.0,0.0,0.0,0.00074465276,0.014047232,0.020414729,0.0,0.0,0.0,0.0,0.0,0.0
9756000,0.0,0.0,0.0,0.008076251,0.008203844,0.0925293,0.0,0.0,0.0,0.0054208636,0.0,0.0,0.0,0.0,0.0,0.0,0.0,0.0,0.26237202,0.26237237,4.107893,0.0,0.0,0.0,0.090808704,0.0,0.0,0.0,0.0,0.0,0.0006942667,0.013250934,0.018897036,0.0,0.0,0.0,0.0,0.0,0.0
9956000,0.0,0.0,0.0,0.0074679093,0.00831564,0.07650757,0.0,0.0,0.0,0.009241879,0.0,0.0,0.0,0.0,0.0,0.0,0.0,0.0,0.26209578,0.26209614,4.1055965,0.0,0.0,0.0,0.09080163,0.0,0.0,0.0,0.0,0.0,0.0008398175,0.013956512,0.0203844,0.0,0.0,0.0,0.0,0.0,0.0
10156000,0.0,0.0,0.0,0.0066268463,0.00854736,0.07562256,0.0,0.0,0.0,0.009001285,0.0,0.0,0.0,0.0,0.0,0.0,0.0,0.0,0.26202145,0.26202175,4.1040688,0.0,0.0,0.0,0.09079475,0.0,0.0,0.0,0.0,0.0,0.00082390144,0.013672442,0.019939683,0.0,0.0,0.0,0.0,0.0,0.0
10356000,0.0,0.0,0.0,0.005885296,0.008220693,-0.065979004,0.0,0.0,0.0,0.011181623,0.0,0.0,0.0,0.0,0.0,0.0,0.0,0.0,0.2617682,0.26176846,4.101891,0.0,0.0,0.0,0.0907891,0.0,0.0,0.0,0.0,0.0,0.00078571483,0.012480605,0.017132033,0.0,0.0,0.0,0.0,0.0,0.0
10556000,0.0,0.0,0.0,0.004967697,0.007807661,-0.14608765,0.0,0.0,0.0,0.009733975,0.0,0.0,0.0,0.0,0.0,0.0,0.0,0.0,0.26150647,0.2615067,4.0995927,0.0,0.0,0.0,0.09078171,0.0,0.0,0.0,0.0,0.0,0.0013114315,0.012460393,0.017356806,0.0,0.0,0.0,0.0,0.0,0.0
10756000,0.0,0.0,0.0,0.0047318297,0.0074596,-0.07662964,0.0,0.0,0.0,0.004078448,0.0,0.0,0.0,0.0,0.0,0.0,0.0,0.0,0.2614335,0.26143372,4.0982785,0.0,0.0,0.0,0.09077342,0.0,0.0,0.0,0.0,0.0,0.0014286283,0.011124597,0.014057582,0.0,0.0,0.0,0.0,0.0,0.0
10956000,0.0,0.0,0.0,0.004699377,0.0066087306,-0.06692505,0.0,0.0,0.0,0.01577881,0.0,0.0,0.0,0.0,0.0,0.0,0.0,0.0,0.26119512,0.2611953,4.096119,0.0,0.0,0.0,0.0907676,0.0,0.0,0.0,0.0,0.0,0.00092423597,0.01039084,0.012606442,0.0,0.0,0.0,0.0,0.0,0.0
11156000,0.0,0.0,0.0,0.0,0.0,0.048095703,0.0,0.0,0.0,-0.002005607,0.0,0.0,0.0,0.0,0.0,0.3125,0.3125,0.625,2.0,2.0,4.094025,0.0,0.0,0.0,0.09868427,0.0,0.0,0.0,0.0,0.0,0.00025778468,0.010101931,0.01303029,0.0,0.0,0.0,0.0,0.0,0.0
11356000,0.012985019,-0.011641603,0.041925803,0.0002483036,-0.0022556724,0.022247314,0.0,0.0,0.0,-0.00454849,0.0,0.0,0.0,0.0,0.0,0.30136475,0.30136478,0.61888355,1.5020132,1.5020132,4.0809817,0.0,0.0,0.0,0.09464908,0.0,0.0,0.0,0.0,0.0,0.0018099591,0.014504394,0.013011418,0.0,0.0,0.0,0.0,0.0,0.0
11556000,-0.007900838,-0.01399641,0.0011830628,6.892088e-05,-0.0034634012,-0.033355713,0.0,0.0,0.0,-0.005444497,0.0,0.0,0.0,0.0,0.0,0.29584643,0.29584637,0.6135634,1.3381147,1.3381147,4.0739875,0.0,0.0,0.0,0.09329167,0.0,0.0,0.0,0.0,0.0,0.0027036,0.014403125,0.013392036,0.0,0.0,0.0,0.0,0.0,0.0
11756000,0.011975229,-0.012053014,-0.019592205,0.011961273,-0.004270151,0.035461426,0.0,0.0,0.0,0.0089916885,0.0,0.0,0.0,0.0,0.0,0.2935296,0.2935295,0.6085605,1.2576706,1.2576706,4.070969,0.0,0.0,0.0,0.09247999,0.0,0.0,0.0,0.0,0.0,0.0015814177,0.012181168,0.016859563,0.0,0.0,0.0,0.0,0.0,0.0
11956000,-0.0015227366,-0.000640546,0.0032386407,-0.0025423535,-0.004668863,-0.15899658,0.0,0.0,0.0,0.0071783066,0.0,0.0,0.0,0.0,0.0,0.29313764,0.2931375,0.60381037,1.2107193,1.2107193,4.069806,0.0,0.0,0.0,0.092036076,0.0,0.0,0.0,0.0,0.0,0.00025869938,0.01024687,0.01284747,0.0,0.0,0.0,0.0,0.0,0.0
12156000,0.0014986224,-0.014219883,-0.016339932,-0.0019010475,-0.006153194,0.039764404,0.0,0.0,0.0,-0.0021099448,0.0,0.0,0.0,0.0,0.0,0.29383343,0.2938336,0.599568,1.1806285,1.1806285,4.0699997,0.0,0.0,0.0,0.09169717,0.0,0.0,0.0,0.0,0.0,0.0008352758,0.010035079,0.0133476155,0.0,0.0,0.0,0.0,0.0,0.0
12356000,-0.0058931704,-0.013382845,-0.02520199,-0.0012242487,-0.0066559524,0.019714355,0.0,0.0,0.0,0.0146999955,0.0,0.0,0.0,0.0,0.0,0.29502386,0.29502445,0.5954375,1.160253,1.160253,4.070387,0.0,0.0,0.0,0.091480985,0.0,0.0,0.0,0.0,0.0,0.0010806845,0.010385528,0.013769712,0.0,0.0,0.0,0.0,0.0,0.0
12556000,0.0061500035,-0.004786422,-0.0031552482,0.000535162,-0.006160898,0.038085938,0.0,0.0,0.0,-0.0121920705,0.0,0.0,0.0,0.0,0.0,0.29627067,0.2962716,0.5919099,1.145984,1.1459842,4.070839,0.0,0.0,0.0,0.09129767,0.0,0.0,0.0,0.0,0.0,0.00014808895,0.009682538,0.015593027,0.0,0.0,0.0,0.0,0.0,0.0
12756000,0.005731242,-0.0020059512,0.04138563,0.0010533257,-0.005355708,0.10638428,0.0,0.0,0.0,0.0022542179,0.0,0.0,0.0,0.0,0.0,0.2972918,0.29729295,0.5884997,1.1357774,1.1357775,4.070849,0.0,0.0,0.0,0.09115744,0.0,0.0,0.0,0.0,0.0,0.00066077575,0.008409885,0.012448313,0.0,0.0,0.0,0.0,0.0,0.0
12956000,0.0045133336,0.007702129,-0.0023200754,0.0012182618,-0.0047634016,0.014251709,0.0,0.0,0.0,-0.007945836,0.0,0.0,0.0,0.0,0.0,0.29793343,0.29793477,0.585716,1.1283714,1.1283715,4.071435,0.0,0.0,0.0,0.091058254,0.0,0.0,0.0,0.0,0.0,0.0002599597,0.00806047,0.014308076,0.0,0.0,0.0,0.0,0.0,0.0
13156000,-0.0025569787,-0.01251528,0.01915666,0.012891311,-0.0056922054,-0.046539307,0.0,0.0,0.0,0.014178276,0.0,0.0,0.0,0.0,0.0,0.29811868,0.29812053,0.5830566,1.122939,1.1229393,4.0710225,0.0,0.0,0.0,0.09096831,0.0,0.0,0.0,0.0,0.0,0.00015645627,0.009031834,0.015317015,0.0,0.0,0.0,0.0,0.0,0.0
13356000,0.009343146,-0.0076415734,-0.0036233235,0.002218655,-0.0032229729,0.0317688,0.0,0.0,0.0,-0.011518538,0.0,0.0,0.0,0.0,0.0,0.29788238,0.29788452,0.58075494,1.1189173,1.1189177,4.07056,0.0,0.0,0.0,0.090902254,0.0,0.0,0.0,0.0,0.0,0.0005824834,0.008274056,0.015521306,0.0,0.0,0.0,0.0,0.0,0.0
13556000,0.011120747,0.0060312687,0.0058720782,0.0026179422,-0.0007716225,-0.053894043,0.0,0.0,0.0,-0.0017624199,0.0,0.0,0.0,0.0,0.0,0.29726762,0.29727015,0.57897544,1.1159121,1.1159126,4.0701876,0.0,0.0,0.0,0.09084051,0.0,0.0,0.0,0.0,0.0,0.00010582835,0.0064993915,0.013359274,0.0,0.0,0.0,0.0,0.0,0.0
13756000,4.5318156e-06,0.0141287735,-0.015481163,0.0030029833,-0.0005693151,-0.015533447,0.0,0.0,0.0,-0.0066563487,0.0,0.0,0.0,0.0,0.0,0.29635876,0.29636133,0.57730114,1.1136438,1.1136444,4.069299,0.0,0.0,0.0,0.09079507,0.0,0.0,0.0,0.0,0.0,0.00060502155,0.004994711,0.0088675665,0.0,0.0,0.0,0.0,0.0,0.0
13956000,-0.0068065263,0.020762887,-0.0098726265,0.0049917717,0.005197964,-0.016082764,0.0,0.0,0.0,-0.007080257,0.0,0.0,0.0,0.0,0.0,0.2952126,0.29521528,0.57605594,1.1119118,1.1119124,4.0682445,0.0,0.0,0.0,0.09075148,0.0,0.0,0.0,0.0,0.0,0.0005400428,0.005912043,0.006707671,0.0,0.0,0.0,0.0,0.0,0.0
14156000,0.016927201,-0.004929353,-0.0004935935,0.008556783,-0.006463585,0.08111572,0.0,0.0,0.0,0.011624306,0.0,0.0,0.0,0.0,0.0,0.29393274,0.29393548,0.57488877,1.1105722,1.110573,4.06705,0.0,0.0,0.0,0.09071489,0.0,0.0,0.0,0.0,0.0,0.00041187514,0.0036164331,0.006714679,0.0,0.0,0.0,0.0,0.0,0.0
14356000,0.016235156,0.0050602052,0.002019396,0.008526006,0.0015833629,0.037078857,0.0,0.0,0.0,0.009620041,0.0,0.0,0.0,0.0,0.0,0.2925632,0.29256597,0.5740689,1.1095203,1.1095212,4.0662007,0.0,0.0,0.0,0.09068718,0.0,0.0,0.0,0.0,0.0,0.00028488023,0.0023162453,0.0036273142,0.0,0.0,0.0,0.0,0.0,0.0
14556000,0.017940275,-0.0038257772,0.009193263,0.008498793,-0.0077166148,0.024841309,0.0,0.0,0.0,0.0037826002,0.0,0.0,0.0,0.0,0.0,0.29115993,0.29116297,0.5733047,1.1086795,1.1086805,4.0649433,0.0,0.0,0.0,0.09066142,0.0,0.0,0.0,0.0,0.0,0.00061624916,0.0041231294,0.0077607287,0.0,0.0,0.0,0.0,0.0,0.0
14756000,-0.002697071,-0.0031570778,0.006522611,0.008477382,-0.007091981,0.017608643,0.0,0.0,0.0,-0.0038744807,0.0,0.0,0.0,0.0,0.0,0.28976107,0.2897641,0.57271,1.1079938,1.1079949,4.0636764,0.0,0.0,0.0,0.0906413,0.0,0.0,0.0,0.0,0.0,0.00027022892,0.0033817454,0.0055399,0.0,0.0,0.0,0.0,0.0,0.0
14956000,-0.012606379,-0.010413228,0.017379293,0.011608892,-0.0062494115,-0.0765686,0.0,0.0,0.0,-0.0031646192,0.0,0.0,0.0,0.0,0.0,0.28838322,0.28838608,0.5723586,1.107421,1.1074222,4.0627775,0.0,0.0,0.0,0.09062208,0.0,0.0,0.0,0.0,0.0,0.00023472226,0.004877582,0.005357645,0.0,0.0,0.0,0.0,0.0,0.0
15156000,0.020960126,0.008806299,-0.011806544,0.01640576,-0.0041630957,0.007446289,0.0,0.0,0.0,0.0013422966,0.0,0.0,0.0,0.0,0.0,0.28705356,0.2870564,0.5720328,1.1069299,1.1069312,4.0615773,0.0,0.0,0.0,0.09060831,0.0,0.0,0.0,0.0,0.0,0.00021556928,0.002499374,0.005088752,0.0,0.0,0.0,0.0,0.0,0.0
15356000,0.012406962,-0.00036643387,0.03102618,0.015964862,-0.0053486386,-0.056518555,0.0,0.0,0.0,0.011179388,0.0,0.0,0.0,0.0,0.0,0.28578702,0.28578997,0.5719005,1.1064982,1.1064996,4.060441,0.0,0.0,0.0,0.090594485,0.0,0.0,0.0,0.0,0.0,0.00010754646,0.0026801939,0.005249942,0.0,0.0,0.0,0.0,0.0,0.0
15556000,0.012406962,-0.00036643387,0.03102618,0.015964862,-0.0053486386,0.09024048,0.0,0.0,0.0,-0.020878613,0.0,0.0,0.0,0.0,0.0,0.28578702,0.28578997,0.5719005,1.1064982,1.1064996,4.0594006,0.0,0.0,0.0,0.09058292,0.0,0.0,0.0,0.0,0.0,0.00032803934,0.003411326,0.007487699,0.0,0.0,0.0,0.0,0.0,0.0
15756000,0.010660045,0.007752374,0.009869111,0.019068953,-0.0050195553,0.0002746582,0.0,0.0,0.0,0.0012308955,0.0,0.0,0.0,0.0,0.0,0.28691357,0.28691658,0.57183456,1.1143959,1.1143978,4.0587134,0.0,0.0,0.0,0.090574175,0.0,0.0,0.0,0.0,0.0,0.00069227786,0.0031004027,0.0075352234,0.0,0.0,0.0,0.0,0.0,0.0
15956000,0.03322725,0.005327808,-0.012368973,0.01959608,-0.006503076,0.011138916,0.0,0.0,0.0,-0.012144864,0.0,0.0,0.0,0.0,0.0,0.2851875,0.28519052,0.5718107,1.1128147,1.1128166,4.0578413,0.0,0.0,0.0,0.09056699,0.0,0.0,0.0,0.0,0.0,0.00047556343,0.0028471432,0.0066710073,0.0,0.0,0.0,0.0,0.0,0.0
16156000,0.019628445,-0.03352207,-0.03018602,0.01615587,-0.0075840745,0.027954102,0.0,0.0,0.0,-0.006085038,0.0,0.0,0.0,0.0,0.0,0.2836926,0.2836953,0.5719212,1.1114359,1.1114378,4.0570626,0.0,0.0,0.0,0.090560906,0.0,0.0,0.0,0.0,0.0,0.00030532255,0.0035617256,0.0060131713,0.0,0.0,0.0,0.0,0.0,0.0
16356000,0.020030966,0.01124217,0.030818041,0.015196777,-0.0014857154,0.0,0.0,0.0,0.0,0.01492393,0.0,0.0,0.0,0.0,0.0,0.2824063,0.2824089,0.57200515,1.1102239,1.1102258,4.0563984,0.0,0.0,0.0,0.09055634,0.0,0.0,0.0,0.0,0.0,0.00035803855,0.0021808606,0.0048297644,0.0,0.0,0.0,0.0,0.0,0.0
16555999,0.018229913,-0.0025620654,0.005613355,0.014446008,-0.003516671,0.044189453,0.0,0.0,0.0,-0.0022566617,0.0,0.0,0.0,0.0,0.0,0.28144863,0.28145105,0.57216376,1.1098087,1.1098106,4.056087,0.0,0.0,0.0,0.09055219,0.0,0.0,0.0,0.0,0.0,0.00037190877,0.0019260623,0.0043117353,0.0,0.0,0.0,0.0,0.0,0.0
16756000,0.016702836,-0.0035210454,0.017839475,0.013653997,-0.0033192697,0.049072266,0.0,0.0,0.0,0.00037422776,0.0,0.0,0.0,0.0,0.0,0.28044662,0.28044882,0.57237935,1.1087542,1.1087561,4.055846,0.0,0.0,0.0,0.09054956,0.0,0.0,0.0,0.0,0.0,0.00026111453,0.002520518,0.0060824333,0.0,0.0,0.0,0.0,0.0,0.0
16956000,-0.0027202107,0.027870309,0.008916823,0.013131022,-0.0031625768,0.078552246,0.0,0.0,0.0,-0.008360952,0.0,0.0,0.0,0.0,0.0,0.27958935,0.2795915,0.5726122,1.1078125,1.1078144,4.0554705,0.0,0.0,0.0,0.090547875,0.0,0.0,0.0,0.0,0.0,0.00011118991,0.002924444,0.005533435,0.0,0.0,0.0,0.0,0.0,0.0
17156000,0.019310208,-0.0065250364,0.019837467,0.015972303,-0.008153647,0.031982422,0.0,0.0,0.0,0.0021561384,0.0,0.0,0.0,0.0,0.0,0.27886212,0.27886418,0.57278293,1.1069674,1.1069694,4.0554104,0.0,0.0,0.0,0.09054555,0.0,0.0,0.0,0.0,0.0,0.00023608845,0.001981424,0.004544921,0.0,0.0,0.0,0.0,0.0,0.0
17356000,0.01959772,-0.009056294,0.050217517,0.015584421,-0.008116014,-0.07815552,0.0,0.0,0.0,-0.0155596435,0.0,0.0,0.0,0.0,0.0,0.27824676,0.27824882,0.57295364,1.1062067,1.1062086,4.0552316,0.0,0.0,0.0,0.090543814,0.0,0.0,0.0,0.0,0.0,0.00021372132,0.0014604807,0.0021740554,0.0,0.0,0.0,0.0,0.0,0.0
17556000,0.02819143,-0.0069728736,0.017945899,0.014874466,-0.0074781002,-0.029174805,0.0,0.0,0.0,-0.006051898,0.0,0.0,0.0,0.0,0.0,0.2777353,0.27773717,0.5731947,1.1055202,1.1055222,4.05514,0.0,0.0,0.0,0.090543516,0.0,0.0,0.0,0.0,0.0,0.00024352947,0.0015755345,0.0027798906,0.0,0.0,0.0,0.0,0.0,0.0
17756000,0.0039048726,-0.0057826103,0.017324254,0.012601345,-0.00712515,0.22735596,0.0,0.0,0.0,0.004680872,0.0,0.0,0.0,0.0,0.0,0.27731454,0.2773161,0.5733527,1.1049011,1.104903,4.055027,0.0,0.0,0.0,0.09054247,0.0,0.0,0.0,0.0,0.0,0.0003826843,0.0022596433,0.004440832,0.0,0.0,0.0,0.0,0.0,0.0
17956000,0.015689846,-0.006462201,0.0066524316,0.01383164,-0.006899067,0.05657959,0.0,0.0,0.0,0.0064225793,0.0,0.0,0.0,0.0,0.0,0.27696764,0.27696913,0.57357657,1.1043421,1.1043439,4.0553656,0.0,0.0,0.0,0.0905417,0.0,0.0,0.0,0.0,0.0,0.00010747616,0.0012665922,0.0016325696,0.0,0.0,0.0,0.0,0.0,0.0
18156000,0.018817388,-0.008745714,0.019904766,0.013636462,-0.006915842,-0.0033569336,0.0,0.0,0.0,0.007090986,0.0,0.0,0.0,0.0,0.0,0.27668256,0.2766842,0.5737043,1.103838,1.1038398,4.0553617,0.0,0.0,0.0,0.09054215,0.0,0.0,0.0,0.0,0.0,0.00019717678,0.0015779312,0.0026154725,0.0,0.0,0.0,0.0,0.0,0.0
18356000,0.0023435578,-0.012153562,-0.0025916174,0.01376062,0.00026896922,-0.1010437,0.0,0.0,0.0,0.0060560703,0.0,0.0,0.0,0.0,0.0,0.2764719,0.2764738,0.57389784,1.1033852,1.103387,4.0555053,0.0,0.0,0.0,0.09054169,0.0,0.0,0.0,0.0,0.0,0.00044012707,0.0019152366,0.0029307327,0.0,0.0,0.0,0.0,0.0,0.0
18556000,0.011538601,0.006762212,0.020336278,0.027580157,-0.00052347267,-0.011077881,0.0,0.0,0.0,-0.005697787,0.0,0.0,0.0,0.0,0.0,0.27630526,0.2763068,0.5739884,1.1029799,1.1029816,4.0558596,0.0,0.0,0.0,0.09054133,0.0,0.0,0.0,0.0,0.0,0.00034531622,0.0016645808,0.0036299287,0.0,0.0,0.0,0.0,0.0,0.0
18756000,0.0033631846,-0.02933975,0.021007262,0.016866775,-0.012174296,-0.041534424,0.0,0.0,0.0,0.0011397004,0.0,0.0,0.0,0.0,0.0,0.27618757,0.27618915,0.57405674,1.1026194,1.102621,4.056064,0.0,0.0,0.0,0.09054091,0.0,0.0,0.0,0.0,0.0,0.00037542076,0.0023780558,0.0031603135,0.0,0.0,0.0,0.0,0.0,0.0
18956000,0.040644184,-0.021687943,0.011879509,0.019469734,-0.01081152,-0.05871582,0.0,0.0,0.0,-0.010284513,0.0,0.0,0.0,0.0,0.0,0.2761093,0.27611044,0.5741934,1.1023011,1.1023026,4.05628,0.0,0.0,0.0,0.090541705,0.0,0.0,0.0,0.0,0.0,0.0003322297,0.0028741453,0.005043385,0.0,0.0,0.0,0.0,0.0,0.0
19156000,0.0053379424,-0.029727498,4.5012683e-05,0.026544856,-0.010944358,0.049041748,0.0,0.0,0.0,0.0036764443,0.0,0.0,0.0,0.0,0.0,0.27606624,0.27606708,0.57422215,1.1020223,1.1020237,4.0563626,0.0,0.0,0.0,0.09054126,0.0,0.0,0.0,0.0,0.0,0.0002685637,0.0031744656,0.0055144536,0.0,0.0,0.0,0.0,0.0,0.0
19356000,0.016459228,-0.048078075,-0.009953491,0.0152852,-0.009543774,0.10021973,0.0,0.0,0.0,0.0037024617,0.0,0.0,0.0,0.0,0.0,0.276047,0.2760478,0.5743249,1.1017803,1.1017816,4.056895,0.0,0.0,0.0,0.090540834,0.0,0.0,0.0,0.0,0.0,0.00037834162,0.00443142,0.0072264145,0.0,0.0,0.0,0.0,0.0,0.0
19556000,0.0067686904,-0.016097233,0.007382145,0.015077573,-0.0055425456,0.08139038,0.0,0.0,0.0,-0.0049054325,0.0,0.0,0.0,0.0,0.0,0.27605262,0.2760534,0.5743152,1.1015736,1.1015748,4.056972,0.0,0.0,0.0,0.090541355,0.0,0.0,0.0,0.0,0.0,0.00027443233,0.0028804105,0.0049045873,0.0,0.0,0.0,0.0,0.0,0.0
19756000,-0.0031222627,-0.01602643,-0.0019056648,0.016152175,-0.0060856384,0.14263916,0.0,0.0,0.0,-0.0036530197,0.0,0.0,0.0,0.0,0.0,0.27606237,0.27606297,0.57438654,1.1013986,1.1013998,4.057164,0.0,0.0,0.0,0.090540744,0.0,0.0,0.0,0.0,0.0,0.0004070317,0.002438207,0.0039109928,0.0,0.0,0.0,0.0,0.0,0.0
19956000,0.0178011,-0.017021723,0.018620169,0.018616099,-0.0065827873,0.021911621,0.0,0.0,0.0,0.0037186444,0.0,0.0,0.0,0.0,0.0,0.27608374,0.27608418,0.5743473,1.1012532,1.1012542,4.057525,0.0,0.0,0.0,0.09053999,0.0,0.0,0.0,0.0,0.0,0.00023564373,0.0013607783,0.002792199,0.0,0.0,0.0,0.0,0.0,0.0
20156000,0.008986486,-0.017347833,0.049974084,0.01833021,-0.00701418,0.14849854,0.0,0.0,0.0,0.011879414,0.0,0.0,0.0,0.0,0.0,0.2761069,0.27610737,0.57429457,1.1011347,1.1011356,4.0576854,0.0,0.0,0.0,0.09053908,0.0,0.0,0.0,0.0,0.0,0.00019328952,0.0013984701,0.0017726199,0.0,0.0,0.0,0.0,0.0,0.0
20356000,0.017796963,-0.017894192,0.027676405,0.019085247,-0.007401087,0.044769287,0.0,0.0,0.0,0.0016530752,0.0,0.0,0.0,0.0,0.0,0.2761289,0.27612913,0.5743299,1.1010404,1.1010413,4.0578184,0.0,0.0,0.0,0.090539135,0.0,0.0,0.0,0.0,0.0,0.0002042126,0.0010025701,0.0011900773,0.0,0.0,0.0,0.0,0.0,0.0
20556000,0.0144082215,-0.019137464,-0.0025740191,0.018058117,-0.007874889,0.13793945,0.0,0.0,0.0,0.006471008,0.0,0.0,0.0,0.0,0.0,0.27614492,0.27614486,0.5742593,1.1009673,1.1009681,4.057796,0.0,0.0,0.0,0.09053797,0.0,0.0,0.0,0.0,0.0,0.00027067206,0.0016663416,0.0037515168,0.0,0.0,0.0,0.0,0.0,0.0
20756000,0.009455159,-0.030272251,0.017887898,0.017904364,-0.010353437,0.080596924,0.0,0.0,0.0,0.010418564,0.0,0.0,0.0,0.0,0.0,0.27793866,0.27793807,0.57438475,1.1080781,1.1080788,4.0589166,0.0,0.0,0.0,0.09053666,0.0,0.0,0.0,0.0,0.0,0.0002968685,0.0032626432,0.0059004296,0.0,0.0,0.0,0.0,0.0,0.0
20956000,-0.0023256582,-0.0071592666,0.01870542,0.016544878,-0.008457565,0.03125,0.0,0.0,0.0,-0.006120771,0.0,0.0,0.0,0.0,0.0,0.2775836,0.27758282,0.5742865,1.1071265,1.1071271,4.0588384,0.0,0.0,0.0,0.09053627,0.0,0.0,0.0,0.0,0.0,0.00032764522,0.00205309,0.0039489237,0.0,0.0,0.0,0.0,0.0,0.0
21156000,-0.0051001078,-0.018400917,0.019373432,0.016506359,-0.017850522,0.0289917,0.0,0.0,0.0,0.0062538087,0.0,0.0,0.0,0.0,0.0,0.27727726,0.27727625,0.5741858,1.1062961,1.1062967,4.058853,0.0,0.0,0.0,0.090534635,0.0,0.0,0.0,0.0,0.0,0.00019186111,0.0027380907,0.0045020278,0.0,0.0,0.0,0.0,0.0,0.0
21356000,-0.0064065605,-0.026715133,0.050720952,0.016397927,-0.009389181,0.07925415,0.0,0.0,0.0,0.0049919784,0.0,0.0,0.0,0.0,0.0,0.27700856,0.2770074,0.57418686,1.1055713,1.1055716,4.0590596,0.0,0.0,0.0,0.09053285,0.0,0.0,0.0,0.0,0.0,0.0002617613,0.0034530493,0.0048725647,0.0,0.0,0.0,0.0,0.0,0.0
21556000,0.004419448,-0.018033281,0.017192125,0.016498841,-0.015588457,0.008392334,0.0,0.0,0.0,-0.0024591982,0.0,0.0,0.0,0.0,0.0,0.27677137,0.27677026,0.5740878,1.104938,1.1049384,4.0590396,0.0,0.0,0.0,0.09053101,0.0,0.0,0.0,0.0,0.0,0.0002517258,0.0028778121,0.004745159,0.0,0.0,0.0,0.0,0.0,0.0
21756000,0.0011253225,-0.017489063,0.046203107,0.01499329,-0.0150059,0.09857178,0.0,0.0,0.0,0.00085893273,0.0,0.0,0.0,0.0,0.0,0.2765481,0.27654684,0.5740915,1.1043849,1.1043851,4.0589976,0.0,0.0,0.0,0.090529926,0.0,0.0,0.0,0.0,0.0,0.00030469187,0.0033516882,0.0068194205,0.0,0.0,0.0,0.0,0.0,0.0
21956000,-0.0027321174,-0.017346416,0.026125127,0.013251098,-0.01451334,0.12637329,0.0,0.0,0.0,-0.0011241138,0.0,0.0,0.0,0.0,0.0,0.27633643,0.276335,0.5739952,1.1039015,1.1039016,4.058827,0.0,0.0,0.0,0.09052784,0.0,0.0,0.0,0.0,0.0,0.0002137705,0.0026554484,0.004816665,0.0,0.0,0.0,0.0,0.0,0.0
22156000,-0.0042321375,-0.018345853,0.016331133,0.011766997,-0.0068030884,0.096343994,0.0,0.0,0.0,-0.0031806827,0.0,0.0,0.0,0.0,0.0,0.27613238,0.27613094,0.5740044,1.1034784,1.1034784,4.0590863,0.0,0.0,0.0,0.090525486,0.0,0.0,0.0,0.0,0.0,0.00023147547,0.0029743772,0.006240203,0.0,0.0,0.0,0.0,0.0,0.0
22356000,-0.007179917,-0.017445656,0.008525262,0.010074455,-0.0072383746,-0.042419434,0.0,0.0,0.0,-0.009665638,0.0,0.0,0.0,0.0,0.0,0.2759316,0.27593008,0.5739162,1.1031077,1.1031076,4.0589037,0.0,0.0,0.0,0.09052412,0.0,0.0,0.0,0.0,0.0,0.0002171297,0.0023886326,0.00360352,0.0,0.0,0.0,0.0,0.0,0.0
22556000,-0.0058697774,-0.018410113,0.04045478,0.008875573,-0.00764646,0.04437256,0.0,0.0,0.0,0.010797262,0.0,0.0,0.0,0.0,0.0,0.27573612,0.27573475,0.57383174,1.1027826,1.1027825,4.058813,0.0,0.0,0.0,0.09052151,0.0,0.0,0.0,0.0,0.0,0.00020008384,0.0023778835,0.0035104032,0.0,0.0,0.0,0.0,0.0,0.0
22756000,-0.012128886,-0.017680274,-0.006118223,0.008000796,-0.008063599,0.101379395,0.0,0.0,0.0,-0.018644065,0.0,0.0,0.0,0.0,0.0,0.2755373,0.27553624,0.5738504,1.102496,1.1024959,4.058937,0.0,0.0,0.0,0.09051879,0.0,0.0,0.0,0.0,0.0,0.00026509637,0.0028938246,0.0047650747,0.0,0.0,0.0,0.0,0.0,0.0
22956000,-0.030439103,-0.018483689,0.00624742,0.008543336,-0.008509362,0.080322266,0.0,0.0,0.0,0.0007560551,0.0,0.0,0.0,0.0,0.0,0.2753432,0.27534223,0.5737755,1.1022431,1.1022427,4.0588408,0.0,0.0,0.0,0.090516165,0.0,0.0,0.0,0.0,0.0,0.00026101596,0.0046877097,0.0077018947,0.0,0.0,0.0,0.0,0.0,0.0
23156000,0.0023924753,-0.016296454,0.03969325,0.012392103,-0.008559392,0.08206177,0.0,0.0,0.0,0.0056063235,0.0,0.0,0.0,0.0,0.0,0.27514425,0.2751433,0.5738023,1.102019,1.1020187,4.058738,0.0,0.0,0.0,0.09051414,0.0,0.0,0.0,0.0,0.0,0.00031649944,0.0022939204,0.0042049554,0.0,0.0,0.0,0.0,0.0,0.0
23356000,0.0010553206,-0.024453506,0.019995352,0.011211644,-0.0010152222,0.054656982,0.0,0.0,0.0,0.0034553707,0.0,0.0,0.0,0.0,0.0,0.27494478,0.27494383,0.57373405,1.1018187,1.1018184,4.058529,0.0,0.0,0.0,0.090511344,0.0,0.0,0.0,0.0,0.0,0.00029155542,0.0016901024,0.0023289064,0.0,0.0,0.0,0.0,0.0,0.0
23556000,0.0015943052,-0.0019568205,0.05874782,0.010315839,-0.00023414241,0.017303467,0.0,0.0,0.0,0.008780509,0.0,0.0,0.0,0.0,0.0,0.27474597,0.2747451,0.5737686,1.1016393,1.101639,4.0587482,0.0,0.0,0.0,0.09050824,0.0,0.0,0.0,0.0,0.0,0.00030922727,0.0014026705,0.0026058992,0.0,0.0,0.0,0.0,0.0,0.0
23756000,-0.01667498,-0.011245663,0.02848823,0.020653592,-0.0021612407,0.043304443,0.0,0.0,0.0,-0.0038043559,0.0,0.0,0.0,0.0,0.0,0.27454045,0.2745397,0.5737092,1.1014762,1.1014758,4.058548,0.0,0.0,0.0,0.090506166,0.0,0.0,0.0,0.0,0.0,0.0001432032,0.0018545601,0.003216009,0.0,0.0,0.0,0.0,0.0,0.0
23956000,0.01400944,-0.011034423,0.046217386,0.010655406,-0.010070347,-0.15835571,0.0,0.0,0.0,0.0065161586,0.0,0.0,0.0,0.0,0.0,0.27433637,0.27433562,0.5736527,1.1013268,1.1013265,4.0584445,0.0,0.0,0.0,0.09050292,0.0,0.0,0.0,0.0,0.0,0.00057850353,0.0014968602,0.0033117908,0.0,0.0,0.0,0.0,0.0,0.0
24156000,0.010321916,-0.013325842,0.042849388,0.008353462,-0.0100977365,-0.07330322,0.0,0.0,0.0,-0.009979308,0.0,0.0,0.0,0.0,0.0,0.27413034,0.27412957,0.5736954,1.101189,1.1011887,4.0585628,0.0,0.0,0.0,0.09049959,0.0,0.0,0.0,0.0,0.0,0.00038694512,0.0019324595,0.0041816593,0.0,0.0,0.0,0.0,0.0,0.0
24356000,0.008604635,0.0037251078,0.062044755,0.0061260294,-0.0102068195,0.07727051,0.0,0.0,0.0,0.014802247,0.0,0.0,0.0,0.0,0.0,0.2739151,0.27391437,0.5736459,1.1010593,1.101059,4.0584707,0.0,0.0,0.0,0.09049649,0.0,0.0,0.0,0.0,0.0,0.00015456215,0.0031074514,0.0069144554,0.0,0.0,0.0,0.0,0.0,0.0
24556000,-0.0021552606,-0.030745335,0.022859292,0.004031149,-0.01349941,-0.0072631836,0.0,0.0,0.0,-0.0006479621,0.0,0.0,0.0,0.0,0.0,0.27369526,0.27369457,0.5736941,1.100936,1.1009357,4.0583787,0.0,0.0,0.0,0.090493865,0.0,0.0,0.0,0.0,0.0,0.0002615369,0.002160387,0.0050837,0.0,0.0,0.0,0.0,0.0,0.0
24756000,0.018388785,0.01222847,0.0042589866,0.0035374032,-0.011721131,0.15109253,0.0,0.0,0.0,-0.00063708425,0.0,0.0,0.0,0.0,0.0,0.27347696,0.27347633,0.57364774,1.1008177,1.1008174,4.058186,0.0,0.0,0.0,0.090490684,0.0,0.0,0.0,0.0,0.0,0.00013613494,0.00192364,0.0028012297,0.0,0.0,0.0,0.0,0.0,0.0
24956000,-0.014283289,-0.02069827,-0.014545292,6.0245187e-05,-0.016319796,0.026031494,0.0,0.0,0.0,0.0016337633,0.0,0.0,0.0,0.0,0.0,0.2732604,0.27325976,0.5737002,1.1007026,1.1007024,4.0584226,0.0,0.0,0.0,0.09048717,0.0,0.0,0.0,0.0,0.0,0.00026484474,0.0017267696,0.0038903807,0.0,0.0,0.0,0.0,0.0,0.0
25156000,-0.013917589,-0.019007135,0.018372843,0.0012841772,-0.01602563,-0.042907715,0.0,0.0,0.0,0.017522246,0.0,0.0,0.0,0.0,0.0,0.27303967,0.27303898,0.5736583,1.1005892,1.1005889,4.058244,0.0,0.0,0.0,0.09048469,0.0,0.0,0.0,0.0,0.0,0.00018092046,0.0026395028,0.005723378,0.0,0.0,0.0,0.0,0.0,0.0
25356000,-0.014546951,0.012533229,0.017193468,0.0023594082,-0.015675088,-0.00088500977,0.0,0.0,0.0,-0.0012227595,0.0,0.0,0.0,0.0,0.0,0.2728247,0.2728239,0.5736171,1.1004776,1.1004773,4.058167,0.0,0.0,0.0,0.0904811,0.0,0.0,0.0,0.0,0.0,0.00029984856,0.0027213627,0.0047951676,0.0,0.0,0.0,0.0,0.0,0.0
25556000,-0.0050657713,-0.019650973,0.029163234,0.0033445575,-0.019558622,0.06768799,0.0,0.0,0.0,-0.01391387,0.0,0.0,0.0,0.0,0.0,0.27260408,0.2726032,0.57367194,1.1003664,1.1003661,4.0583086,0.0,0.0,0.0,0.0904775,0.0,0.0,0.0,0.0,0.0,0.00013446959,0.0018156392,0.0035092016,0.0,0.0,0.0,0.0,0.0,0.0
25756000,-0.006145308,-0.026683684,0.03711047,0.002585294,-0.0111147445,0.09176636,0.0,0.0,0.0,-0.009219915,0.0,0.0,0.0,0.0,0.0,0.2723905,0.2723896,0.5736336,1.1002555,1.1002551,4.058244,0.0,0.0,0.0,0.090474196,0.0,0.0,0.0,0.0,0.0,0.00021722732,0.0025725372,0.005115508,0.0,0.0,0.0,0.0,0.0,0.0
25956000,-0.006145308,-0.026683684,0.03711047,0.002585294,-0.0111147445,-0.07733154,0.0,0.0,0.0,0.012071937,0.0,0.0,0.0,0.0,0.0,0.2723905,0.2723896,0.5736336,1.1002555,1.1002551,4.0581803,0.0,0.0,0.0,0.09047128,0.0,0.0,0.0,0.0,0.0,0.00043208874,0.0012520206,0.0035154468,0.0,0.0,0.0,0.0,0.0,0.0
26156000,-0.0005673431,-0.011023135,-0.021842208,0.00046567133,-0.018119099,0.15216064,0.0,0.0,0.0,-0.006459534,0.0,0.0,0.0,0.0,0.0,0.27358773,0.27358648,0.5737461,1.1076026,1.1076021,4.0579915,0.0,0.0,0.0,0.090467975,0.0,0.0,0.0,0.0,0.0,0.00028853837,0.00059161324,0.002355976,0.0,0.0,0.0,0.0,0.0,0.0
26356000,-0.011153482,-0.019180378,0.018448772,-0.0016917023,-0.016575899,-0.031982422,0.0,0.0,0.0,0.0038918555,0.0,0.0,0.0,0.0,0.0,0.27308992,0.27308863,0.57379246,1.1065297,1.1065292,4.0582323,0.0,0.0,0.0,0.09046432,0.0,0.0,0.0,0.0,0.0,0.00017697181,0.0011265852,0.0024190005,0.0,0.0,0.0,0.0,0.0,0.0
26556000,-0.022363752,-0.00800009,0.07164732,-0.0021665765,-0.0140368845,0.05279541,0.0,0.0,0.0,-0.0055829883,0.0,0.0,0.0,0.0,0.0,0.27264258,0.27264133,0.5737419,1.1055733,1.1055728,4.058056,0.0,0.0,0.0,0.09046168,0.0,0.0,0.0,0.0,0.0,0.00013978829,0.0021136273,0.004328936,0.0,0.0,0.0,0.0,0.0,0.0
26756000,-0.012309586,-0.025480533,0.06462681,-0.0013264002,-0.012985295,0.14938354,0.0,0.0,0.0,-0.010200381,0.0,0.0,0.0,0.0,0.0,0.2722417,0.27224043,0.57378936,1.1047182,1.1047177,4.0579805,0.0,0.0,0.0,0.09045802,0.0,0.0,0.0,0.0,0.0,0.00039944815,0.002181163,0.00469277,0.0,0.0,0.0,0.0,0.0,0.0
26956000,-0.014666308,-0.0023355866,0.021779241,-0.002248022,-0.016487084,0.027923584,0.0,0.0,0.0,-0.020408183,0.0,0.0,0.0,0.0,0.0,0.27188504,0.2718837,0.57374144,1.1039515,1.103951,4.05812,0.0,0.0,0.0,0.09045438,0.0,0.0,0.0,0.0,0.0,0.0003852528,0.002041324,0.0048585813,0.0,0.0,0.0,0.0,0.0,0.0
27156000,-0.016587704,-0.01062381,0.046117537,-0.0033330887,-0.0072215144,0.029632568,0.0,0.0,0.0,0.0012837052,0.0,0.0,0.0,0.0,0.0,0.27155578,0.2715544,0.57369363,1.1032614,1.1032609,4.058055,0.0,0.0,0.0,0.09045107,0.0,0.0,0.0,0.0,0.0,0.00024400835,0.0016048113,0.0032395835,0.0,0.0,0.0,0.0,0.0,0.0
27356000,-0.007086031,-0.006215541,0.046662845,-0.0038303968,-0.004775754,0.053955078,0.0,0.0,0.0,-0.0068505704,0.0,0.0,0.0,0.0,0.0,0.2712612,0.27125975,0.5737416,1.1026393,1.1026388,4.0579886,0.0,0.0,0.0,0.090448074,0.0,0.0,0.0,0.0,0.0,0.0003316894,0.0012776634,0.0026027684,0.0,0.0,0.0,0.0,0.0,0.0
27556000,-0.02924633,0.017390221,0.029516371,-0.006156558,-0.002297785,0.13198853,0.0,0.0,0.0,0.0003809631,0.0,0.0,0.0,0.0,0.0,0.27098587,0.2709844,0.57369614,1.1020763,1.1020756,4.0578156,0.0,0.0,0.0,0.090444796,0.0,0.0,0.0,0.0,0.0,0.000103531005,0.0030573413,0.005865478,0.0,0.0,0.0,0.0,0.0,0.0
27756000,-0.0010550804,0.008054182,0.02542539,-0.0056826095,-0.0029053674,0.013336182,0.0,0.0,0.0,0.00016152859,0.0,0.0,0.0,0.0,0.0,0.27072707,0.27072552,0.5737466,1.1015644,1.1015638,4.0580707,0.0,0.0,0.0,0.09044119,0.0,0.0,0.0,0.0,0.0,9.800752e-05,0.0027122851,0.005734894,0.0,0.0,0.0,0.0,0.0,0.0
27956000,-0.03362234,0.019200293,0.058017008,-0.0095071,-0.002041947,0.058013916,0.0,0.0,0.0,-0.0013905168,0.0,0.0,0.0,0.0,0.0,0.27049467,0.2704931,0.57370067,1.1010994,1.1010988,4.057908,0.0,0.0,0.0,0.090438545,0.0,0.0,0.0,0.0,0.0,0.00019644832,0.003503221,0.0067070397,0.0,0.0,0.0,0.0,0.0,0.0
28156000,-0.021620153,0.020513566,0.05066205,-0.008924065,-0.0026364345,0.03265381,0.0,0.0,0.0,-0.0009743273,0.0,0.0,0.0,0.0,0.0,0.27027902,0.27027744,0.57375175,1.1006761,1.1006753,4.0578465,0.0,0.0,0.0,0.09043497,0.0,0.0,0.0,0.0,0.0,0.000460541,0.003574977,0.0069825375,0.0,0.0,0.0,0.0,0.0,0.0
28356000,-0.021097705,0.009436179,0.05381845,-0.009492248,-0.0030091875,0.11489868,0.0,0.0,0.0,0.016183555,0.0,0.0,0.0,0.0,0.0,0.27007613,0.2700746,0.5737078,1.1002895,1.1002887,4.057997,0.0,0.0,0.0,0.09043143,0.0,0.0,0.0,0.0,0.0,0.00021706276,0.0029723982,0.0059158485,0.0,0.0,0.0,0.0,0.0,0.0
28556000,-0.014162565,0.00866021,0.020736495,-0.010510469,-0.0022526695,0.042053223,0.0,0.0,0.0,-0.0013526976,0.0,0.0,0.0,0.0,0.0,0.26989222,0.26989067,0.5736637,1.099936,1.0999353,4.057944,0.0,0.0,0.0,0.09042823,0.0,0.0,0.0,0.0,0.0,0.00019276523,0.0023527995,0.0049784267,0.0,0.0,0.0,0.0,0.0,0.0
28756000,-0.048502527,-0.01058843,0.044690423,-0.012864334,-0.0012229579,0.12619019,0.0,0.0,0.0,0.0028721988,0.0,0.0,0.0,0.0,0.0,0.2697113,0.26970968,0.5737147,1.0996109,1.0996101,4.057888,0.0,0.0,0.0,0.0904253,0.0,0.0,0.0,0.0,0.0,0.00019062762,0.0028378027,0.0060799643,0.0,0.0,0.0,0.0,0.0,0.0
28956000,-0.026490938,0.009493736,0.060254514,-0.011108982,0.0020603081,0.034362793,0.0,0.0,0.0,-0.012144834,0.0,0.0,0.0,0.0,0.0,0.26953816,0.26953655,0.57367235,1.0993112,1.0993104,4.0577245,0.0,0.0,0.0,0.09042215,0.0,0.0,0.0,0.0,0.0,0.0002460255,0.0025639448,0.005576517,0.0,0.0,0.0,0.0,0.0,0.0
29156000,-0.024512548,0.012909479,0.0008930415,-0.0117854895,0.0028220066,0.076690674,0.0,0.0,0.0,0.0054128766,0.0,0.0,0.0,0.0,0.0,0.26937985,0.26937822,0.57372546,1.0990345,1.0990337,4.057988,0.0,0.0,0.0,0.09041871,0.0,0.0,0.0,0.0,0.0,0.00022471724,0.0022275876,0.0049133087,0.0,0.0,0.0,0.0,0.0,0.0
29356000,-0.021971636,0.0078119976,0.07387387,-0.012525074,0.0030136132,0.095947266,0.0,0.0,0.0,-0.00050228834,0.0,0.0,0.0,0.0,0.0,0.26922944,0.26922792,0.57368225,1.098779,1.098778,4.0578337,0.0,0.0,0.0,0.09041614,0.0,0.0,0.0,0.0,0.0,0.000108229266,0.0018797708,0.0039808042,0.0,0.0,0.0,0.0,0.0,0.0
29556000,-0.0010930449,0.009879668,0.06555514,-0.013022224,0.0035239751,-0.19503784,0.0,0.0,0.0,0.010653019,0.0,0.0,0.0,0.0,0.0,0.2690862,0.26908466,0.5737354,1.0985411,1.0985402,4.05778,0.0,0.0,0.0,0.09041276,0.0,0.0,0.0,0.0,0.0,0.00015632642,0.0014042234,0.0029248956,0.0,0.0,0.0,0.0,0.0,0.0
29756000,-0.022130582,-0.0051068957,0.036278367,-0.016059432,0.00345993,0.1517334,0.0,0.0,0.0,0.007636994,0.0,0.0,0.0,0.0,0.0,0.26895118,0.2689497,0.5736938,1.0983202,1.0983194,4.0579367,0.0,0.0,0.0,0.09040939,0.0,0.0,0.0,0.0,0.0,0.00030493402,0.0012007079,0.0032559428,0.0,0.0,0.0,0.0,0.0,0.0
29956000,-0.016959662,0.025722278,0.044731174,-0.005504541,0.012344534,0.07064819,0.0,0.0,0.0,0.0008557141,0.0,0.0,0.0,0.0,0.0,0.26882255,0.26882097,0.57365173,1.0981141,1.0981133,4.05789,0.0,0.0,0.0,0.09040637,0.0,0.0,0.0,0.0,0.0,0.00023784078,0.0029896854,0.007998529,0.0,0.0,0.0,0.0,0.0,0.0
30156000,-0.024992894,-0.018385958,0.07276709,-0.019290436,0.00887034,0.070251465,0.0,0.0,0.0,-0.0030056238,0.0,0.0,0.0,0.0,0.0,0.2686997,0.2686982,0.57370436,1.0979213,1.0979204,4.0578403,0.0,0.0,0.0,0.09040358,0.0,0.0,0.0,0.0,0.0,0.00013352119,0.0035016462,0.010300654,0.0,0.0,0.0,0.0,0.0,0.0
30356000,-0.0209868,0.00061807997,0.07005098,-0.01912451,0.0030003313,0.015655518,0.0,0.0,0.0,0.011850536,0.0,0.0,0.0,0.0,0.0,0.26858288,0.26858142,0.5736637,1.0977405,1.0977396,4.057682,0.0,0.0,0.0,0.090400614,0.0,0.0,0.0,0.0,0.0,0.0002477412,0.0023456016,0.00686807,0.0,0.0,0.0,0.0,0.0,0.0
30556000,-0.031361885,-0.0042456673,0.090227954,-0.019130524,0.0022593609,0.0440979,0.0,0.0,0.0,0.0084017515,0.0,0.0,0.0,0.0,0.0,0.26846814,0.2684667,0.57371813,1.0975702,1.0975692,4.0579505,0.0,0.0,0.0,0.09039737,0.0,0.0,0.0,0.0,0.0,0.00018302923,0.0035797963,0.010096768,0.0,0.0,0.0,0.0,0.0,0.0
30756000,-0.020903138,-0.007598147,0.03952861,-0.017876057,0.0013854931,-0.0061035156,0.0,0.0,0.0,0.00259763,0.0,0.0,0.0,0.0,0.0,0.26835796,0.2683565,0.57367617,1.0974087,1.0974077,4.0578003,0.0,0.0,0.0,0.09039495,0.0,0.0,0.0,0.0,0.0,0.00021798632,0.0018383792,0.0056107454,0.0,0.0,0.0,0.0,0.0,0.0
30956000,-0.01921429,0.004322392,-0.0104611665,-0.019521533,0.00067418313,0.07821655,0.0,0.0,0.0,0.010677606,0.0,0.0,0.0,0.0,0.0,0.26923347,0.26923198,0.5737443,1.1034267,1.1034255,4.0584183,0.0,0.0,0.0,0.09039178,0.0,0.0,0.0,0.0,0.0,0.00036679802,0.0011534066,0.0032109257,0.0,0.0,0.0,0.0,0.0,0.0
31156000,-0.019125264,-0.0080646295,0.062471155,-0.018834451,-0.0012312043,0.07763672,0.0,0.0,0.0,0.0056409836,0.0,0.0,0.0,0.0,0.0,0.26895332,0.26895186,0.5737876,1.1025438,1.1025426,4.0585637,0.0,0.0,0.0,0.09038863,0.0,0.0,0.0,0.0,0.0,0.00049433,0.0016543323,0.0040714988,0.0,0.0,0.0,0.0,0.0,0.0
31356000,-0.01855275,0.00698064,0.07148355,-0.018346626,-0.0023100106,0.117004395,0.0,0.0,0.0,0.0020528138,0.0,0.0,0.0,0.0,0.0,0.26870826,0.26870683,0.57373595,1.1017505,1.1017494,4.058498,0.0,0.0,0.0,0.090385824,0.0,0.0,0.0,0.0,0.0,0.00049018126,0.002510596,0.006020766,0.0,0.0,0.0,0.0,0.0,0.0
31556000,-0.016828142,-0.025112167,0.049138017,-0.017848698,-0.005818479,0.114715576,0.0,0.0,0.0,-0.01618585,0.0,0.0,0.0,0.0,0.0,0.26849285,0.26849145,0.5737812,1.1010367,1.1010356,4.0584297,0.0,0.0,0.0,0.0903832,0.0,0.0,0.0,0.0,0.0,0.00012660256,0.003396924,0.00840956,0.0,0.0,0.0,0.0,0.0,0.0
31756000,-0.033642758,-0.01679661,0.068432495,-0.017091423,-0.005376172,0.04486084,0.0,0.0,0.0,0.008906454,0.0,0.0,0.0,0.0,0.0,0.26830098,0.26829967,0.57372946,1.1003933,1.1003922,4.0582533,0.0,0.0,0.0,0.090380445,0.0,0.0,0.0,0.0,0.0,0.00041997782,0.0036495528,0.008030124,0.0,0.0,0.0,0.0,0.0,0.0
31956000,-0.012938188,-0.019192401,0.057577938,-0.01383025,-0.0064580156,0.091918945,0.0,0.0,0.0,0.00853157,0.0,0.0,0.0,0.0,0.0,0.2681308,0.26812953,0.57377654,1.099813,1.0998119,4.0585074,0.0,0.0,0.0,0.090377435,0.0,0.0,0.0,0.0,0.0,0.00019408352,0.003240723,0.0072969254,0.0,0.0,0.0,0.0,0.0,0.0
32155999,-0.012938188,-0.019192401,0.057577938,-0.01383025,-0.0064580156,0.03491211,0.0,0.0,0.0,0.0049081743,0.0,0.0,0.0,0.0,0.0,0.2681308,0.26812953,0.57377654,1.099813,1.0998119,4.05834,0.0,0.0,0.0,0.09037517,0.0,0.0,0.0,0.0,0.0,0.0003034141,0.0011952722,0.002652534,0.0,0.0,0.0,0.0,0.0,0.0
32356000,-0.0017303582,-0.03952201,0.048356652,-0.013746752,-0.007392809,0.047576904,0.0,0.0,0.0,-0.007143289,0.0,0.0,0.0,0.0,0.0,0.26805535,0.26805413,0.57376885,1.0997891,1.0997881,4.0582747,0.0,0.0,0.0,0.090372644,0.0,0.0,0.0,0.0,0.0,0.00011153922,0.0020372737,0.0043523586,0.0,0.0,0.0,0.0,0.0,0.0
32563999,-0.01955486,-0.014251381,0.038880352,-0.014346749,-0.0064155734,0.05065918,0.0,0.0,0.0,-0.010372996,0.0,0.0,0.0,0.0,0.0,0.26798213,0.26798087,0.5737613,1.0997556,1.0997546,4.0582275,0.0,0.0,0.0,0.0903704,0.0,0.0,0.0,0.0,0.0,0.0002739812,0.0013305076,0.0031416966,0.0,0.0,0.0,0.0,0.0,0.0
32764000,0.0046858406,-0.024945034,0.006298125,-0.0009950986,-0.0091163395,-0.035217285,0.0,0.0,0.0,0.0076705217,0.0,0.0,0.0,0.0,0.0,0.26783708,0.26783592,0.5737155,1.0992166,1.0992155,4.0583797,0.0,0.0,0.0,0.09036748,0.0,0.0,0.0,0.0,0.0,0.00014950304,0.0023415932,0.0053155343,0.0,0.0,0.0,0.0,0.0,0.0
32964000,0.006459238,-0.016560053,0.060034465,-0.013716325,-0.010537219,0.075683594,0.0,0.0,0.0,0.0012488067,0.0,0.0,0.0,0.0,0.0,0.26778013,0.267779,0.57370806,1.0992243,1.0992234,4.0583134,0.0,0.0,0.0,0.09036528,0.0,0.0,0.0,0.0,0.0,0.00010648115,0.002005843,0.004357391,0.0,0.0,0.0,0.0,0.0,0.0
33164000,-0.0032899717,-0.030619934,0.03820579,-0.013978156,-0.021138633,0.2604065,0.0,0.0,0.0,0.0050224364,0.0,0.0,0.0,0.0,0.0,0.26772705,0.26772588,0.5737008,1.0992215,1.0992205,4.0582557,0.0,0.0,0.0,0.090362824,0.0,0.0,0.0,0.0,0.0,0.00018113149,0.002142873,0.0052874396,0.0,0.0,0.0,0.0,0.0,0.0
33371999,-0.015716093,-0.051898878,0.034745865,-0.013367236,-0.021827215,0.03265381,0.0,0.0,0.0,-0.008581549,0.0,0.0,0.0,0.0,0.0,0.26760092,0.26759973,0.57375026,1.0987175,1.0987165,4.0582037,0.0,0.0,0.0,0.09036071,0.0,0.0,0.0,0.0,0.0,0.00030340644,0.002399936,0.0063048596,0.0,0.0,0.0,0.0,0.0,0.0
33572000,-0.001440295,-0.03348629,0.04059115,-0.011173015,-0.013015392,-0.05999756,0.0,0.0,0.0,-0.008067846,0.0,0.0,0.0,0.0,0.0,0.26756355,0.26756233,0.57374597,1.098753,1.098752,4.058062,0.0,0.0,0.0,0.09035827,0.0,0.0,0.0,0.0,0.0,0.00014137654,0.0018900861,0.004244647,0.0,0.0,0.0,0.0,0.0,0.0
33772000,0.007916217,-0.055040687,0.047260247,-0.010353742,-0.014762372,0.06808472,0.0,0.0,0.0,-0.00030872226,0.0,0.0,0.0,0.0,0.0,0.26752692,0.26752558,0.5737445,1.0987775,1.0987765,4.0580144,0.0,0.0,0.0,0.09035613,0.0,0.0,0.0,0.0,0.0,0.00018330429,0.00243332,0.005233416,0.0,0.0,0.0,0.0,0.0,0.0
33972000,-0.00247357,-0.0342897,0.07648318,-0.010883594,-0.01390473,0.055755615,0.0,0.0,0.0,-0.0041201115,0.0,0.0,0.0,0.0,0.0,0.26741186,0.26741052,0.57369936,1.0983028,1.0983018,4.058181,0.0,0.0,0.0,0.09035336,0.0,0.0,0.0,0.0,0.0,0.0003316041,0.002109083,0.0053161336,0.0,0.0,0.0,0.0,0.0,0.0
34172000,-0.0022113465,-0.047423147,0.09422441,-0.010099931,-0.015754843,0.08428955,0.0,0.0,0.0,-0.011493087,0.0,0.0,0.0,0.0,0.0,0.2673115,0.26731005,0.5737501,1.0978758,1.0978748,4.058136,0.0,0.0,0.0,0.090350844,0.0,0.0,0.0,0.0,0.0,0.00037135824,0.0017163221,0.003808677,0.0,0.0,0.0,0.0,0.0,0.0
34372000,-0.003572779,-0.038797945,0.047848642,-0.009447781,-0.023919085,0.12155151,0.0,0.0,0.0,-0.00044947863,0.0,0.0,0.0,0.0,0.0,0.2672243,0.26722276,0.57370645,1.0974919,1.0974909,4.058087,0.0,0.0,0.0,0.090348214,0.0,0.0,0.0,0.0,0.0,0.0002053504,0.0016763502,0.004261218,0.0,0.0,0.0,0.0,0.0,0.0
34572000,-0.0024324912,-0.030904276,0.029698767,-0.008772724,-0.025096526,-0.017120361,0.0,0.0,0.0,-0.0115707815,0.0,0.0,0.0,0.0,0.0,0.2671486,0.26714697,0.5736625,1.0971469,1.097146,4.0582457,0.0,0.0,0.0,0.09034617,0.0,0.0,0.0,0.0,0.0,0.00016428623,0.0027151068,0.007504607,0.0,0.0,0.0,0.0,0.0,0.0
34772000,-0.0045299646,-0.060631245,0.07155746,-0.008445964,-0.019686626,-0.0630188,0.0,0.0,0.0,-0.0008909404,0.0,0.0,0.0,0.0,0.0,0.2670763,0.26707464,0.5737136,1.0968362,1.0968353,4.058201,0.0,0.0,0.0,0.09034355,0.0,0.0,0.0,0.0,0.0,0.00021804763,0.002924113,0.008458938,0.0,0.0,0.0,0.0,0.0,0.0
34972000,-0.0074728765,-0.03682617,0.024388209,-0.008423402,-0.01859556,-0.01461792,0.0,0.0,0.0,0.010730237,0.0,0.0,0.0,0.0,0.0,0.26701647,0.26701477,0.5736704,1.0965573,1.0965563,4.058048,0.0,0.0,0.0,0.09034096,0.0,0.0,0.0,0.0,0.0,0.00014452644,0.0019047954,0.0054314197,0.0,0.0,0.0,0.0,0.0,0.0
35172000,-0.008931979,-0.034383938,0.032559074,-0.008489563,-0.027178997,0.07269287,0.0,0.0,0.0,0.0011852682,0.0,0.0,0.0,0.0,0.0,0.26695675,0.26695502,0.5737235,1.0963061,1.096305,4.057995,0.0,0.0,0.0,0.090339,0.0,0.0,0.0,0.0,0.0,0.0001493601,0.0014969851,0.0042907633,0.0,0.0,0.0,0.0,0.0,0.0
35372000,-0.022175416,-0.055488043,0.029100804,-0.008642544,-0.02038608,-0.025543213,0.0,0.0,0.0,-0.0005827546,0.0,0.0,0.0,0.0,0.0,0.26690456,0.26690277,0.57368034,1.0960802,1.0960791,4.058158,0.0,0.0,0.0,0.09033648,0.0,0.0,0.0,0.0,0.0,0.00017067227,0.0012199862,0.0031350858,0.0,0.0,0.0,0.0,0.0,0.0
35572000,-0.013848653,-0.042932816,0.06657247,-0.008062228,-0.019085124,-0.08834839,0.0,0.0,0.0,-0.0066779256,0.0,0.0,0.0,0.0,0.0,0.26685613,0.2668543,0.57373273,1.0958766,1.0958754,4.05811,0.0,0.0,0.0,0.09033422,0.0,0.0,0.0,0.0,0.0,0.0002349544,0.0019572414,0.0058504455,0.0,0.0,0.0,0.0,0.0,0.0
35772000,-0.015791902,-0.043148927,-0.0045267213,-0.008628801,-0.01904253,-0.024841309,0.0,0.0,0.0,-0.00056418777,0.0,0.0,0.0,0.0,0.0,0.26681152,0.2668096,0.5736912,1.0956933,1.0956922,4.0580597,0.0,0.0,0.0,0.09033177,0.0,0.0,0.0,0.0,0.0,0.00014417319,0.0016607969,0.004455795,0.0,0.0,0.0,0.0,0.0,0.0
35972000,-0.01545539,-0.03175917,0.013197556,-0.0093492335,-0.018932784,-0.09805298,0.0,0.0,0.0,-0.0013153553,0.0,0.0,0.0,0.0,0.0,0.26677057,0.2667686,0.5736492,1.0955287,1.0955274,4.058217,0.0,0.0,0.0,0.0903299,0.0,0.0,0.0,0.0,0.0,0.0001666362,0.0020243414,0.005453158,0.0,0.0,0.0,0.0,0.0,0.0
36172000,-0.016509298,-0.02390715,0.009981236,-0.010073337,-0.020130847,-0.06338501,0.0,0.0,0.0,0.0039986074,0.0,0.0,0.0,0.0,0.0,0.26673377,0.2667317,0.5737021,1.0953802,1.0953789,4.058172,0.0,0.0,0.0,0.09032751,0.0,0.0,0.0,0.0,0.0,0.00024247411,0.002096685,0.0053939386,0.0,0.0,0.0,0.0,0.0,0.0
36372000,-0.021368667,-0.014575165,0.008116588,-0.010878398,-0.022726096,0.070892334,0.0,0.0,0.0,0.004777342,0.0,0.0,0.0,0.0,0.0,0.26669872,0.26669666,0.57366073,1.0952464,1.095245,4.0580196,0.0,0.0,0.0,0.09032513,0.0,0.0,0.0,0.0,0.0,9.779381e-05,0.0019303253,0.004358307,0.0,0.0,0.0,0.0,0.0,0.0
36572000,-0.013344454,-0.03560168,0.054958552,-0.011912212,-0.026198657,0.024749756,0.0,0.0,0.0,-0.010910511,0.0,0.0,0.0,0.0,0.0,0.2666665,0.26666445,0.57371545,1.0951257,1.0951242,4.0579677,0.0,0.0,0.0,0.09032336,0.0,0.0,0.0,0.0,0.0,0.00017417077,0.0020871067,0.0058955564,0.0,0.0,0.0,0.0,0.0,0.0
36772000,-0.016094057,-0.05495426,-0.007591009,-0.014370934,-0.026904635,-0.06399536,0.0,0.0,0.0,0.0023609996,0.0,0.0,0.0,0.0,0.0,0.26663667,0.2666346,0.5736738,1.0950167,1.0950153,4.058132,0.0,0.0,0.0,0.090321064,0.0,0.0,0.0,0.0,0.0,0.00025119868,0.0031513697,0.009004332,0.0,0.0,0.0,0.0,0.0,0.0
36972000,-0.021566855,-0.032776535,0.0029726624,-0.0059626997,-0.017459845,0.040771484,0.0,0.0,0.0,-0.0035201013,0.0,0.0,0.0,0.0,0.0,0.26660663,0.2666046,0.5737276,1.0949181,1.0949166,4.0580864,0.0,0.0,0.0,0.09031901,0.0,0.0,0.0,0.0,0.0,0.00013730863,0.0016526479,0.0045133443,0.0,0.0,0.0,0.0,0.0,0.0
37172000,-0.032729443,-0.03193754,-0.02898643,-0.020564565,-0.026108064,0.064941406,0.0,0.0,0.0,-0.010167897,0.0,0.0,0.0,0.0,0.0,0.26657814,0.2665761,0.57368726,1.0948285,1.0948268,4.0580373,0.0,0.0,0.0,0.090316765,0.0,0.0,0.0,0.0,0.0,0.00036364523,0.0013310292,0.0029000745,0.0,0.0,0.0,0.0,0.0,0.0
37372000,-0.034258116,-0.032360617,-0.061198454,-0.021604592,-0.02667145,0.08078003,0.0,0.0,0.0,0.008895904,0.0,0.0,0.0,0.0,0.0,0.26655188,0.26654986,0.5736464,1.0947471,1.0947454,4.0581965,0.0,0.0,0.0,0.09031507,0.0,0.0,0.0,0.0,0.0,0.00014332666,0.0027808668,0.0067705647,0.0,0.0,0.0,0.0,0.0,0.0
37572000,-0.032411553,-0.0388602,0.020654619,-0.022307813,-0.026832193,0.08242798,0.0,0.0,0.0,0.008053482,0.0,0.0,0.0,0.0,0.0,0.26652604,0.26652402,0.5737001,1.0946732,1.0946714,4.0581536,0.0,0.0,0.0,0.090312876,0.0,0.0,0.0,0.0,0.0,0.00018266079,0.0015449278,0.0038964276,0.0,0.0,0.0,0.0,0.0,0.0
37772000,-0.032024227,-0.01954747,0.032625057,-0.023080394,-0.025958244,0.09188843,0.0,0.0,0.0,-0.011008382,0.0,0.0,0.0,0.0,0.0,0.26649842,0.26649633,0.5736596,1.0946048,1.0946031,4.058003,0.0,0.0,0.0,0.09031073,0.0,0.0,0.0,0.0,0.0,0.00013365418,0.0020406137,0.005447723,0.0,0.0,0.0,0.0,0.0,0.0
37972000,-0.03107635,-0.059739582,0.055415712,-0.023834227,-0.027461728,0.07055664,0.0,0.0,0.0,-0.0019638836,0.0,0.0,0.0,0.0,0.0,0.2664723,0.26647022,0.57371485,1.0945421,1.0945404,4.0579534,0.0,0.0,0.0,0.09030909,0.0,0.0,0.0,0.0,0.0,0.00017670721,0.0016199566,0.005248019,0.0,0.0,0.0,0.0,0.0,0.0
38172000,-0.031878665,-0.015477551,0.05768989,-0.024600245,-0.023827042,0.12988281,0.0,0.0,0.0,0.00040376186,0.0,0.0,0.0,0.0,0.0,0.2664479,0.2664459,0.5736738,1.0944844,1.0944827,4.0581193,0.0,0.0,0.0,0.09030698,0.0,0.0,0.0,0.0,0.0,0.00013171615,0.0013121066,0.0033027455,0.0,0.0,0.0,0.0,0.0,0.0
38372000,-0.0402297,-0.012940003,-0.020978374,-0.025096742,-0.02487412,-0.10140991,0.0,0.0,0.0,0.0054639876,0.0,0.0,0.0,0.0,0.0,0.26642415,0.26642215,0.5737279,1.0944308,1.0944289,4.0580754,0.0,0.0,0.0,0.09030511,0.0,0.0,0.0,0.0,0.0,0.00017487016,0.0030591353,0.008033647,0.0,0.0,0.0,0.0,0.0,0.0
38572000,-0.028987125,-0.02567543,0.045900173,-0.026938807,-0.02816504,-0.0051879883,0.0,0.0,0.0,-0.014391243,0.0,0.0,0.0,0.0,0.0,0.2672447,0.26724255,0.57379705,1.1000987,1.1000965,4.058009,0.0,0.0,0.0,0.09030306,0.0,0.0,0.0,0.0,0.0,0.00014753046,0.0014678624,0.003910668,0.0,0.0,0.0,0.0,0.0,0.0
38772000,-0.029103536,-0.027549516,-0.0015886128,-0.026930377,-0.027845167,0.03756714,0.0,0.0,0.0,-0.00759542,0.0,0.0,0.0,0.0,0.0,0.26708192,0.26707977,0.5737453,1.0994128,1.0994107,4.058151,0.0,0.0,0.0,0.090301506,0.0,0.0,0.0,0.0,0.0,0.00034180368,0.0021919482,0.006195645,0.0,0.0,0.0,0.0,0.0,0.0
38972000,-0.03858094,-0.017542925,-0.056145523,-0.02677789,-0.0350933,0.06945801,0.0,0.0,0.0,0.0012308657,0.0,0.0,0.0,0.0,0.0,0.26693773,0.26693565,0.5737905,1.0987936,1.0987915,4.0580897,0.0,0.0,0.0,0.09029952,0.0,0.0,0.0,0.0,0.0,0.0002626465,0.0020576494,0.004456104,0.0,0.0,0.0,0.0,0.0,0.0
39172000,-0.02581543,-0.03150597,0.03164641,-0.025271617,-0.03575779,0.08236694,0.0,0.0,0.0,0.004704118,0.0,0.0,0.0,0.0,0.0,0.26681313,0.266811,0.5737385,1.0982347,1.0982325,4.057922,0.0,0.0,0.0,0.09029754,0.0,0.0,0.0,0.0,0.0,0.00026668,0.0014929798,0.003953162,0.0,0.0,0.0,0.0,0.0,0.0
39372000,-0.025543587,-0.042218544,0.06443715,-0.02501438,-0.027521057,-0.007019043,0.0,0.0,0.0,-0.0027325451,0.0,0.0,0.0,0.0,0.0,0.26670888,0.2667068,0.5737845,1.0977306,1.0977285,4.057854,0.0,0.0,0.0,0.09029605,0.0,0.0,0.0,0.0,0.0,0.00025817077,0.0012827272,0.0033073374,0.0,0.0,0.0,0.0,0.0,0.0
39572000,-0.028795741,-0.03997045,0.006389929,-0.025196034,-0.026381476,0.05328369,0.0,0.0,0.0,-0.011265814,0.0,0.0,0.0,0.0,0.0,0.2666177,0.26661572,0.57373506,1.0972764,1.0972744,4.0580015,0.0,0.0,0.0,0.09029413,0.0,0.0,0.0,0.0,0.0,0.00018965224,0.0013867812,0.0032243943,0.0,0.0,0.0,0.0,0.0,0.0
39772000,-0.025669305,-0.016383879,0.052180305,-0.024889061,-0.02503357,-0.008026123,0.0,0.0,0.0,-0.00079742074,0.0,0.0,0.0,0.0,0.0,0.26653662,0.26653475,0.5736858,1.096867,1.0968649,4.0579405,0.0,0.0,0.0,0.09029242,0.0,0.0,0.0,0.0,0.0,0.00016522211,0.00062899047,0.0015808329,0.0,0.0,0.0,0.0,0.0,0.0
39972000,-0.04440499,-0.014910255,0.049291357,-0.024610534,-0.033693872,0.022766113,0.0,0.0,0.0,-0.010447919,0.0,0.0,0.0,0.0,0.0,0.26646692,0.2664651,0.57373255,1.0964983,1.0964962,4.0578766,0.0,0.0,0.0,0.09029054,0.0,0.0,0.0,0.0,0.0,0.00029182428,0.0017862302,0.0039005426,0.0,0.0,0.0,0.0,0.0,0.0
40172000,-0.021947445,-0.034310393,0.051467784,-0.022001425,-0.026560739,0.027313232,0.0,0.0,0.0,0.0038836896,0.0,0.0,0.0,0.0,0.0,0.26641017,0.26640838,0.57368594,1.0961668,1.0961648,4.05802,0.0,0.0,0.0,0.09028912,0.0,0.0,0.0,0.0,0.0,0.0002549985,0.00090457546,0.0020756356,0.0,0.0,0.0,0.0,0.0,0.0
40372000,-0.021656053,-0.03352537,0.014168445,-0.022084385,-0.025188226,0.08029175,0.0,0.0,0.0,-0.0063740015,0.0,0.0,0.0,0.0,0.0,0.26636,0.2663583,0.57373554,1.0958692,1.0958672,4.0579634,0.0,0.0,0.0,0.09028729,0.0,0.0,0.0,0.0,0.0,0.00016683537,0.0014575334,0.004471674,0.0,0.0,0.0,0.0,0.0,0.0
40572000,-0.041014273,-0.023926727,0.10047504,-0.021820128,-0.023953207,0.05001831,0.0,0.0,0.0,-0.0013423264,0.0,0.0,0.0,0.0,0.0,0.26631543,0.26631373,0.57368886,1.0956022,1.0956002,4.0578,0.0,0.0,0.0,0.09028548,0.0,0.0,0.0,0.0,0.0,0.00019977988,0.0020481613,0.004883766,0.0,0.0,0.0,0.0,0.0,0.0
40772000,-0.029128699,-0.031094262,0.06402025,-0.019113956,-0.023580363,0.0284729,0.0,0.0,0.0,-0.0037710965,0.0,0.0,0.0,0.0,0.0,0.26627737,0.26627573,0.5737393,1.0953627,1.0953608,4.0577374,0.0,0.0,0.0,0.09028412,0.0,0.0,0.0,0.0,0.0,0.00024500684,0.002098852,0.0054998137,0.0,0.0,0.0,0.0,0.0,0.0
40972000,-0.03405141,-0.02249057,0.0674344,-0.018434206,-0.029895812,0.113861084,0.0,0.0,0.0,0.008188784,0.0,0.0,0.0,0.0,0.0,0.2662466,0.266245,0.573695,1.0951489,1.095147,4.0578895,0.0,0.0,0.0,0.09028236,0.0,0.0,0.0,0.0,0.0,0.0001630064,0.0017369877,0.004433083,0.0,0.0,0.0,0.0,0.0,0.0
41172000,-0.022807932,-0.021870196,0.07494399,-0.017593507,-0.021772724,0.06472778,0.0,0.0,0.0,-0.01725483,0.0,0.0,0.0,0.0,0.0,0.2662177,0.26621613,0.5736507,1.094958,1.0949562,4.057834,0.0,0.0,0.0,0.090280786,0.0,0.0,0.0,0.0,0.0,0.00015518672,0.00066974043,0.0011428467,0.0,0.0,0.0,0.0,0.0,0.0
41372000,-0.034867525,-0.039822787,0.090023264,-0.018447109,-0.021571929,-0.0043029785,0.0,0.0,0.0,-0.0036820471,0.0,0.0,0.0,0.0,0.0,0.26619256,0.26619104,0.57370156,1.0947874,1.0947856,4.057777,0.0,0.0,0.0,0.090279065,0.0,0.0,0.0,0.0,0.0,0.00027201467,0.0017166518,0.0037970454,0.0,0.0,0.0,0.0,0.0,0.0
41572000,-0.024653737,-0.016651938,0.10256776,-0.017687326,-0.011257585,0.029632568,0.0,0.0,0.0,-0.0050041974,0.0,0.0,0.0,0.0,0.0,0.26617306,0.26617157,0.57365936,1.0946357,1.0946339,4.057926,0.0,0.0,0.0,0.09027777,0.0,0.0,0.0,0.0,0.0,0.00021187571,0.0030187038,0.0076871905,0.0,0.0,0.0,0.0,0.0,0.0
41772000,-0.01649365,-0.032347523,0.08402142,-0.01869154,-0.018777946,0.058258057,0.0,0.0,0.0,-0.0066773593,0.0,0.0,0.0,0.0,0.0,0.2661573,0.2661559,0.5737125,1.0945014,1.0944997,4.057876,0.0,0.0,0.0,0.09027609,0.0,0.0,0.0,0.0,0.0,0.00026693637,0.0029193342,0.007851789,0.0,0.0,0.0,0.0,0.0,0.0
41972000,-0.025993107,-0.009173926,0.08529213,-0.020382699,-0.015750095,0.083465576,0.0,0.0,0.0,0.002869904,0.0,0.0,0.0,0.0,0.0,0.26614425,0.26614285,0.5736696,1.0943825,1.0943809,4.057719,0.0,0.0,0.0,0.09027444,0.0,0.0,0.0,0.0,0.0,0.00015036497,0.0026780113,0.0071046376,0.0,0.0,0.0,0.0,0.0,0.0
42172000,-0.014364829,-0.005859615,0.11461051,-0.020580564,-0.014987516,0.08352661,0.0,0.0,0.0,-0.0122844875,0.0,0.0,0.0,0.0,0.0,0.26613188,0.2661305,0.57372314,1.0942775,1.0942758,4.0576634,0.0,0.0,0.0,0.09027318,0.0,0.0,0.0,0.0,0.0,9.2357564e-05,0.0041754115,0.011030331,0.0,0.0,0.0,0.0,0.0,0.0
42372000,-0.04180949,-0.0053692,0.052655295,-0.021635478,-0.014150016,0.1444397,0.0,0.0,0.0,-0.004886478,0.0,0.0,0.0,0.0,0.0,0.26612252,0.26612115,0.573682,1.0941849,1.0941832,4.0578213,0.0,0.0,0.0,0.09027156,0.0,0.0,0.0,0.0,0.0,0.0003541946,0.0037832393,0.010770557,0.0,0.0,0.0,0.0,0.0,0.0
42572000,-0.023714697,-0.0017293678,0.08129502,-0.019555673,-0.0130549995,0.106414795,0.0,0.0,0.0,-0.012029946,0.0,0.0,0.0,0.0,0.0,0.26611385,0.26611257,0.57364047,1.0941036,1.094102,4.057773,0.0,0.0,0.0,0.090270124,0.0,0.0,0.0,0.0,0.0,0.0003675113,0.003958977,0.011215942,0.0,0.0,0.0,0.0,0.0,0.0
42772000,-0.031927727,0.001720618,0.08277601,-0.01975065,-0.011644953,0.024353027,0.0,0.0,0.0,-0.012993157,0.0,0.0,0.0,0.0,0.0,0.266105,0.2661037,0.5736935,1.0940323,1.0940307,4.057722,0.0,0.0,0.0,0.090268545,0.0,0.0,0.0,0.0,0.0,0.00039933398,0.003501475,0.009430407,0.0,0.0,0.0,0.0,0.0,0.0
42972000,-0.020788966,0.005562117,0.1026514,-0.02998669,-0.009922994,0.08163452,0.0,0.0,0.0,0.0027927458,0.0,0.0,0.0,0.0,0.0,0.2660978,0.2660966,0.57365346,1.0939696,1.0939682,4.0578766,0.0,0.0,0.0,0.09026735,0.0,0.0,0.0,0.0,0.0,0.0002429213,0.0033582593,0.008394596,0.0,0.0,0.0,0.0,0.0,0.0
43172000,-0.018388487,0.0072340523,0.14455856,-0.017903673,-0.008306453,0.074523926,0.0,0.0,0.0,0.015469193,0.0,0.0,0.0,0.0,0.0,0.2660883,0.26608706,0.57370836,1.0939143,1.0939128,4.0578327,0.0,0.0,0.0,0.09026582,0.0,0.0,0.0,0.0,0.0,7.238515e-05,0.0042459015,0.010404452,0.0,0.0,0.0,0.0,0.0,0.0
43372000,-0.0152443955,0.009564025,0.07371174,-0.017765934,-0.0067724143,0.13168335,0.0,0.0,0.0,0.0028625429,0.0,0.0,0.0,0.0,0.0,0.26608172,0.2660805,0.57366705,1.0938658,1.0938643,4.0576806,0.0,0.0,0.0,0.0902643,0.0,0.0,0.0,0.0,0.0,6.7375484e-05,0.0035632828,0.008827061,0.0,0.0,0.0,0.0,0.0,0.0
43572000,-0.0152443955,0.009564025,0.07371174,-0.017765934,-0.0067724143,0.09106445,0.0,0.0,0.0,-0.003489256,0.0,0.0,0.0,0.0,0.0,0.26608172,0.2660805,0.57366705,1.0938658,1.0938643,4.0582986,0.0,0.0,0.0,0.09026315,0.0,0.0,0.0,0.0,0.0,7.222818e-05,0.0031667512,0.008489832,0.0,0.0,0.0,0.0,0.0,0.0
43772000,-0.010650861,0.004252649,0.12593248,-0.01818107,-0.003471542,0.13235474,0.0,0.0,0.0,-0.008520126,0.0,0.0,0.0,0.0,0.0,0.2669649,0.2669636,0.5737772,1.0999347,1.0999331,4.0584445,0.0,0.0,0.0,0.09026166,0.0,0.0,0.0,0.0,0.0,4.0471437e-05,0.0028295526,0.007005322,0.0,0.0,0.0,0.0,0.0,0.0
43972000,-3.117323e-05,0.018774442,0.10495639,-0.017412616,-0.007993782,0.014099121,0.0,0.0,0.0,-0.008302629,0.0,0.0,0.0,0.0,0.0,0.26681238,0.26681113,0.5738202,1.0992198,1.0992184,4.058377,0.0,0.0,0.0,0.09026034,0.0,0.0,0.0,0.0,0.0,0.00019601724,0.003107004,0.007214987,0.0,0.0,0.0,0.0,0.0,0.0
44172000,-0.023312708,0.014526064,0.08780491,-0.018188873,0.0024558592,0.05239868,0.0,0.0,0.0,0.0032030344,0.0,0.0,0.0,0.0,0.0,0.26667842,0.2666772,0.57376796,1.0985765,1.0985751,4.058306,0.0,0.0,0.0,0.0902589,0.0,0.0,0.0,0.0,0.0,7.1690345e-05,0.002778262,0.0068987506,0.0,0.0,0.0,0.0,0.0,0.0
