timestamp,rollspeed,pitchspeed,yawspeed,q[0],q[1],q[2],q[3],delta_q_reset[0],delta_q_reset[1],delta_q_reset[2],delta_q_reset[3],quat_reset_counter
3208000,-0.0029789368,-0.0012018456,-0.0063605607,0.9790619,-0.008192837,-0.015924398,0.20277369,0.97903603,0.0045234784,-0.004332732,0.20359087,1
3240000,-0.0003418962,-0.0033741945,-0.0035636397,0.97905934,-0.008203571,-0.015996745,0.20278013,0.97903603,0.0045234784,-0.004332732,0.20359087,1
3272000,-0.0029142594,-0.0071836156,-0.0015754605,0.9790541,-0.008234209,-0.016132176,0.20279309,0.97903603,0.0045234784,-0.004332732,0.20359087,1
3304000,-0.0055846283,-0.00045943158,0.0040431186,0.979049,-0.008282251,-0.016228829,0.20280777,0.97903603,0.0045234784,-0.004332732,0.20359087,1
3336000,-0.004273085,-0.005046918,-0.00067535264,0.97905165,-0.008292961,-0.016314933,0.20278803,0.97903603,0.0045234784,-0.004332732,0.20359087,1
3372000,-0.0031099583,-0.0132083595,0.0017857347,0.97904295,-0.008345161,-0.01641651,0.20281988,0.97903603,0.0045234784,-0.004332732,0.20359087,1
3400000,-0.001973267,-0.00824939,0.0017403304,0.97904843,-0.008366479,-0.016548788,0.2027813,0.97903603,0.0045234784,-0.004332732,0.20359087,1
3432000,-0.0009292083,-0.009328474,0.0020524245,0.97905374,-0.008319423,-0.016670292,0.20274818,0.97903603,0.0045234784,-0.004332732,0.20359087,1
3464000,0.0013128681,-0.010707914,-0.0015451463,0.97905284,-0.008281906,-0.016828276,0.20274095,0.97903603,0.0045234784,-0.004332732,0.20359087,1
3496000,-0.0021311082,-0.0066068503,-0.0036599452,0.9790616,-0.008259931,-0.016950205,0.20268929,0.97903603,0.0045234784,-0.004332732,0.20359087,1
3528000,-0.0021419444,0.00016552527,-0.0004210025,0.9790572,-0.008267443,-0.017059471,0.20270115,0.97903603,0.0045234784,-0.004332732,0.20359087,1
3560000,-0.002250322,-0.006145571,-0.0015641495,0.9790638,-0.008284541,-0.017149983,0.20266075,0.97903603,0.0045234784,-0.004332732,0.20359087,1
3592000,-0.005155143,-0.004719474,0.0026075128,0.9790575,-0.008320146,-0.017264849,0.20268014,0.97903603,0.0045234784,-0.004332732,0.20359087,1
3624000,0.0053033433,-0.007676306,0.0044175074,0.9790623,-0.008319618,-0.017355349,0.20264888,0.97903603,0.0045234784,-0.004332732,0.20359087,1
3656000,-0.0025686128,-0.004163894,-0.0014030036,0.9790526,-0.008352916,-0.01746004,0.20268583,0.97903603,0.0045234784,-0.004332732,0.20359087,1
3688000,-0.0031718512,-0.0053578853,-0.0006593706,0.97904193,-0.008352311,-0.017575476,0.20272721,0.97903603,0.0045234784,-0.004332732,0.20359087,1
3720000,0.00094950566,-0.014424112,0.0017222603,0.9790327,-0.008307091,-0.01768954,0.20276359,0.97903603,0.0045234784,-0.004332732,0.20359087,1
3756000,-0.0045625297,-0.011204049,0.001712161,0.97903293,-0.008271902,-0.017798133,0.20275459,0.97903603,0.0045234784,-0.004332732,0.20359087,1
3784000,0.0006089629,-0.007900575,-0.0036714873,0.97903043,-0.008255961,-0.017884152,0.20275983,0.97903603,0.0045234784,-0.004332732,0.20359087,1
3816000,-0.0066547664,-0.001996436,0.0034086565,0.97903097,-0.00829762,-0.017984787,0.20274624,0.97903603,0.0045234784,-0.004332732,0.20359087,1
3848000,-0.0031887793,-0.013029564,-0.002149235,0.9790368,-0.008285453,-0.01808265,0.20271014,0.97903603,0.0045234784,-0.004332732,0.20359087,1
3880000,-0.008067031,-0.0021943862,-0.0065845,0.97905004,-0.008326297,-0.018184707,0.20263529,0.97903603,0.0045234784,-0.004332732,0.20359087,1
3912000,-0.007395015,-0.002191671,-0.008134436,0.97905517,-0.008390008,-0.018267319,0.20260039,0.97903603,0.0045234784,-0.004332732,0.20359087,1
3948000,0.0015279878,-0.014605067,0.0044287755,0.97905296,-0.008373412,-0.018386187,0.20260121,0.97903603,0.0045234784,-0.004332732,0.20359087,1
3976000,-0.0046938416,-0.0020594834,0.002101708,0.9790563,-0.008389419,-0.018428141,0.20258056,0.97903603,0.0045234784,-0.004332732,0.20359087,1
4007999,-0.0064552957,-0.00534764,0.002844344,0.9790625,-0.008430784,-0.018511511,0.20254116,0.97903603,0.0045234784,-0.004332732,0.20359087,1
4039999,0.0024902362,-0.0075428705,-0.0055633457,0.97907454,-0.008396303,-0.018595671,0.20247672,0.97903603,0.0045234784,-0.004332732,0.20359087,1
4076000,0.0025737653,-0.009191119,-0.00023531416,0.9790823,-0.008407581,-0.01869517,0.20242938,0.97903603,0.0045234784,-0.004332732,0.20359087,1
4103999,-0.00069108774,-0.008207792,-0.00036801092,0.9790981,-0.008358211,-0.018782184,0.20234704,0.97903603,0.0045234784,-0.004332732,0.20359087,1
4135999,0.0036935597,-0.012374066,0.0036118675,0.9791025,-0.008308562,-0.018875973,0.20231932,0.97903603,0.0045234784,-0.004332732,0.20359087,1
4167999,-0.0029043304,-0.0060031316,-0.0020330942,0.9791136,-0.008290222,-0.018955298,0.20225857,0.97903603,0.0045234784,-0.004332732,0.20359087,1
4200000,-0.0051002903,-0.0064135236,-0.0003027459,0.97912705,-0.008371343,-0.01902077,0.2021843,0.97903603,0.0045234784,-0.004332732,0.20359087,1
4232000,0.0074588293,-0.00704823,-0.0008618144,0.9791255,-0.008346419,-0.019127961,0.20218283,0.97903603,0.0045234784,-0.004332732,0.20359087,1
4268000,-0.00026037323,-0.0064570317,-0.0026124932,0.97913474,-0.008369003,-0.019197384,0.20213069,0.97903603,0.0045234784,-0.004332732,0.20359087,1
4296000,0.00413404,-0.0011981948,0.0010792983,0.97913677,-0.008373299,-0.019230856,0.20211709,0.97903603,0.0045234784,-0.004332732,0.20359087,1
4328000,-0.004850086,-0.010658975,0.005666538,0.9791318,-0.008376538,-0.019296896,0.20213485,0.97903603,0.0045234784,-0.004332732,0.20359087,1
4360000,-0.000638837,-0.009921578,0.008525921,0.97911626,-0.008368422,-0.019380618,0.20220223,0.97903603,0.0045234784,-0.004332732,0.20359087,1
4392000,-0.002285446,-0.0007571047,-0.0008311382,0.97910804,-0.008372417,-0.019458003,0.20223413,0.97903603,0.0045234784,-0.004332732,0.20359087,1
4424000,0.0038926909,-0.0055768755,0.007171764,0.9790977,-0.008375022,-0.019513916,0.20227888,0.97903603,0.0045234784,-0.004332732,0.20359087,1
4456000,-0.0066737365,-0.0066399756,0.0073930263,0.9790899,-0.008370849,-0.019630063,0.20230588,0.97903603,0.0045234784,-0.004332732,0.20359087,1
4488000,-0.0026675228,-0.004143195,0.001376715,0.9790984,-0.00839524,-0.019658241,0.20226085,0.97903603,0.0045234784,-0.004332732,0.20359087,1
4520000,0.0010432655,-0.009081105,0.0018987964,0.97909105,-0.008416795,-0.01969979,0.20229128,0.97903603,0.0045234784,-0.004332732,0.20359087,1
4552000,-0.001404013,0.0045535592,0.0065562115,0.97907835,-0.008429137,-0.019660639,0.20235594,0.97903603,0.0045234784,-0.004332732,0.20359087,1
4584000,-0.003307388,0.00043264002,0.00038008927,0.9790862,-0.008420319,-0.019699574,0.20231487,0.97903603,0.0045234784,-0.004332732,0.20359087,1
4616000,0.0038303563,-0.008583804,-0.008450617,0.9790917,-0.008296017,-0.01975107,0.20228861,0.97903603,0.0045234784,-0.004332732,0.20359087,1
4648000,0.00021157923,-0.007723167,-0.0059282333,0.9790869,-0.008256321,-0.019735724,0.20231476,0.97903603,0.0045234784,-0.004332732,0.20359087,1
4680000,-0.0027346436,-0.003410016,0.0032016803,0.97907835,-0.008205414,-0.019755458,0.20235631,0.97903603,0.0045234784,-0.004332732,0.20359087,1
4716000,0.0010867962,-0.0048760227,-0.0006735133,0.9790678,-0.008175444,-0.019801022,0.20240434,0.97903603,0.0045234784,-0.004332732,0.20359087,1
4744000,-0.00715201,0.0022981055,-0.0040807254,0.9790661,-0.008196399,-0.019795747,0.20241185,0.97903603,0.0045234784,-0.004332732,0.20359087,1
4776000,-0.00431644,-0.008560587,0.0015717929,0.9790533,-0.008174308,-0.019807074,0.20247352,0.97903603,0.0045234784,-0.004332732,0.20359087,1
4808000,-0.0038475632,-0.010084195,-0.011220444,0.97905606,-0.0081745535,-0.019799912,0.20246114,0.97903603,0.0045234784,-0.004332732,0.20359087,1
4840000,-0.0034064914,0.00042833763,0.005995621,0.9790472,-0.008136041,-0.019760787,0.20250921,0.97903603,0.0045234784,-0.004332732,0.20359087,1
4872000,0.006346475,-0.005051328,-0.0032213272,0.9790462,-0.008128367,-0.01974523,0.20251565,0.97903603,0.0045234784,-0.004332732,0.20359087,1
4904000,0.0011824135,0.0005171753,0.0006392144,0.97904146,-0.008105667,-0.019770583,0.20253707,0.97903603,0.0045234784,-0.004332732,0.20359087,1
4936000,-0.0021607555,-0.0020962968,-0.00071508274,0.9790282,-0.008118064,-0.019761277,0.20260136,0.97903603,0.0045234784,-0.004332732,0.20359087,1
4968000,-0.0043594074,-0.0058012116,0.00060423167,0.97902375,-0.008130205,-0.019776572,0.20262128,0.97903603,0.0045234784,-0.004332732,0.20359087,1
5000000,0.0006599837,-0.005592842,-0.0009956551,0.97900915,-0.008109018,-0.019820297,0.20268871,0.97903603,0.0045234784,-0.004332732,0.20359087,1
5032000,-0.0065000844,-0.0013409868,-0.0038789106,0.97900987,-0.008091951,-0.01982304,0.20268564,0.97903603,0.0045234784,-0.004332732,0.20359087,1
5064000,0.007519322,-0.009014095,-0.0005292782,0.97898537,-0.008084174,-0.019819217,0.20280394,0.97903603,0.0045234784,-0.004332732,0.20359087,1
5096000,-0.0036441656,-0.0050429786,-0.002447492,0.9789861,-0.008064084,-0.019825958,0.20280088,0.97903603,0.0045234784,-0.004332732,0.20359087,1
5128000,0.0036318582,-0.0043787323,0.006671626,0.9789819,-0.008005105,-0.019816788,0.20282444,0.97903603,0.0045234784,-0.004332732,0.20359087,1
5160000,-0.0007007047,-0.003942623,0.0041796076,0.9789587,-0.008021958,-0.019836137,0.20293328,0.97903603,0.0045234784,-0.004332732,0.20359087,1
5192000,0.0001790536,-7.841003e-05,0.0011009722,0.97895753,-0.0079682795,-0.0198387,0.20294097,0.97903603,0.0045234784,-0.004332732,0.20359087,1
5224000,-0.0021106766,-0.0035551363,0.0014609296,0.97894466,-0.007941898,-0.019834736,0.20300458,0.97903603,0.0045234784,-0.004332732,0.20359087,1
5260000,-0.0020728826,-0.0078123286,0.0003032616,0.97893363,-0.0079442635,-0.019830534,0.203058,0.97903603,0.0045234784,-0.004332732,0.20359087,1
5288000,-0.0055638617,-0.0026641635,0.0030445578,0.9789331,-0.007957492,-0.01984687,0.20305903,0.97903603,0.0045234784,-0.004332732,0.20359087,1
5320000,0.0065796776,0.00027192663,-0.0024197896,0.9789304,-0.007954041,-0.019796606,0.20307684,0.97903603,0.0045234784,-0.004332732,0.20359087,1
5352000,0.0041891215,-0.005755761,0.000107106236,0.97892463,-0.007894295,-0.019767856,0.20310965,0.97903603,0.0045234784,-0.004332732,0.20359087,1
5388000,-0.00591054,-0.008163529,-0.0004557452,0.9789231,-0.007903064,-0.019741703,0.20311964,0.97903603,0.0045234784,-0.004332732,0.20359087,1
5420000,-0.00768538,0.0013583661,-0.0028373313,0.97892827,-0.007913666,-0.019727409,0.20309564,0.97903603,0.0045234784,-0.004332732,0.20359087,1
5452000,0.003396396,-0.0007146057,0.0010014653,0.97892773,-0.007920819,-0.019704409,0.20309953,0.97903603,0.0045234784,-0.004332732,0.20359087,1
5480000,-0.0053993426,-0.0024754428,-0.004418112,0.97892517,-0.00797051,-0.01967324,0.20311338,0.97903603,0.0045234784,-0.004332732,0.20359087,1
5516000,-0.007990161,-0.0066658114,0.0051217927,0.97892064,-0.007980013,-0.019605154,0.20314138,0.97903603,0.0045234784,-0.004332732,0.20359087,1
5544000,-0.0034865094,-0.0074883346,-0.0037356915,0.97892076,-0.007970415,-0.019610224,0.20314074,0.97903603,0.0045234784,-0.004332732,0.20359087,1
5576000,-0.0023896405,-0.004545689,0.00084602716,0.9789112,-0.007973543,-0.019583117,0.20318912,0.97903603,0.0045234784,-0.004332732,0.20359087,1
5608000,-0.0047545293,0.0031778552,-0.003448838,0.9789043,-0.007999941,-0.019551195,0.20322447,0.97903603,0.0045234784,-0.004332732,0.20359087,1
5640000,0.0061919265,-0.007277037,-0.0009855723,0.97890073,-0.007933582,-0.019588929,0.20324078,0.97903603,0.0045234784,-0.004332732,0.20359087,1
5676000,0.002901032,-0.0049805418,-0.000474917,0.9788943,-0.007873989,-0.019597745,0.20327319,0.97903603,0.0045234784,-0.004332732,0.20359087,1
5708000,-0.0028039378,-0.0044587026,0.007173934,0.9788923,-0.007862925,-0.01954066,0.20328854,0.97903603,0.0045234784,-0.004332732,0.20359087,1
5736000,-0.0046206545,-0.006948498,-0.001045051,0.97888887,-0.007852501,-0.019511033,0.20330851,0.97903603,0.0045234784,-0.004332732,0.20359087,1
5768000,-0.0016880112,-0.0059462576,0.0056563625,0.9788761,-0.007927679,-0.01950599,0.20336749,0.97903603,0.0045234784,-0.004332732,0.20359087,1
5800000,-0.0028206601,-0.009235714,-3.8020662e-06,0.9788704,-0.00791393,-0.019471519,0.20339893,0.97903603,0.0045234784,-0.004332732,0.20359087,1
5832000,-0.005663718,-0.003915077,0.0047957688,0.9788622,-0.007896053,-0.019485865,0.20343757,0.97903603,0.0045234784,-0.004332732,0.20359087,1
5864000,-0.0017209662,-0.0058230096,0.0004334102,0.9788532,-0.007873941,-0.019424938,0.20348737,0.97903603,0.0045234784,-0.004332732,0.20359087,1
5896000,0.00766219,7.802644e-05,0.0015178684,0.978863,-0.007855524,-0.019424576,0.20344108,0.97903603,0.0045234784,-0.004332732,0.20359087,1
5928000,0.0031787027,-0.00963344,0.003371762,0.9788667,-0.007831014,-0.019374581,0.20342915,0.97903603,0.0045234784,-0.004332732,0.20359087,1
5964000,-0.0066268845,-0.0055162515,0.0024408572,0.97887784,-0.007856772,-0.019337494,0.20337765,0.97903603,0.0045234784,-0.004332732,0.20359087,1
5992000,0.0025630654,-0.005670429,-0.004221252,0.97889125,-0.007813944,-0.019299425,0.20331879,0.97903603,0.0045234784,-0.004332732,0.20359087,1
6024000,0.00018446206,-0.0039701783,-0.0050861626,0.97888577,-0.0077839326,-0.019301303,0.203346,0.97903603,0.0045234784,-0.004332732,0.20359087,1
6060000,0.00025563547,-0.0128321545,-0.0036767093,0.97888285,-0.0077064405,-0.019288445,0.20336397,0.97903603,0.0045234784,-0.004332732,0.20359087,1
6088000,-0.00022908289,-0.0046924707,0.00036589178,0.9788743,-0.007664081,-0.01925357,0.2034102,0.97903603,0.0045234784,-0.004332732,0.20359087,1
6120000,-0.006641211,-0.01237634,0.00039030463,0.9788632,-0.0076726307,-0.019282596,0.20346099,0.97903603,0.0045234784,-0.004332732,0.20359087,1
6152000,0.0004986534,0.001418197,0.0020714998,0.97886056,-0.0076594483,-0.019219425,0.20348,0.97903603,0.0045234784,-0.004332732,0.20359087,1
6188000,-0.0030681693,-0.006292608,-0.0031144428,0.97886,-0.0076244487,-0.019173766,0.20348804,0.97903603,0.0045234784,-0.004332732,0.20359087,1
6216000,0.00056870363,-0.002054809,0.0013213002,0.9788584,-0.0075991256,-0.019169725,0.20349708,0.97903603,0.0045234784,-0.004332732,0.20359087,1
6248000,-5.9156097e-05,0.0023815855,0.0019161862,0.9788656,-0.007571853,-0.019113354,0.20346867,0.97903603,0.0045234784,-0.004332732,0.20359087,1
6280000,0.0022073523,-0.0011113221,-0.0008022959,0.9788598,-0.007567306,-0.019034246,0.2035042,0.97903603,0.0045234784,-0.004332732,0.20359087,1
6312000,0.004100673,-0.0038322518,-0.0005712112,0.97886586,-0.007519094,-0.019009113,0.20347945,0.97903603,0.0045234784,-0.004332732,0.20359087,1
6344000,0.0014375907,-0.0015233525,0.0047923718,0.9788659,-0.0075036404,-0.018942073,0.20348595,0.97903603,0.0045234784,-0.004332732,0.20359087,1
6380000,0.006050198,-0.009680147,-0.0025089758,0.97885627,-0.0074000377,-0.018861542,0.20354362,0.97903603,0.0045234784,-0.004332732,0.20359087,1
6408000,-0.0029384112,-0.005825742,0.0011171027,0.9788579,-0.007397705,-0.0187962,0.20354159,0.97903603,0.0045234784,-0.004332732,0.20359087,1
6440000,-0.00095848425,-0.0022311423,-0.0043801665,0.97884506,-0.007351645,-0.018773682,0.20360707,0.97903603,0.0045234784,-0.004332732,0.20359087,1
6476000,0.001383183,-0.007092219,0.005073035,0.978839,-0.007288132,-0.018704677,0.20364518,0.97903603,0.0045234784,-0.004332732,0.20359087,1
6504000,-0.0024986146,-0.0002999017,0.005322432,0.9788389,-0.0072877794,-0.01867979,0.20364773,0.97903603,0.0045234784,-0.004332732,0.20359087,1
6536000,0.00026894984,-0.0037915537,0.002191341,0.97883767,-0.007228212,-0.018599836,0.20366341,0.97903603,0.0045234784,-0.004332732,0.20359087,1
6572000,-0.00038852752,0.0025635792,0.0019804067,0.9788365,-0.007199579,-0.018515227,0.2036776,0.97903603,0.0045234784,-0.004332732,0.20359087,1
6600000,0.0005251759,-0.0054454785,-0.0048240046,0.97883284,-0.0071676737,-0.018471777,0.20370014,0.97903603,0.0045234784,-0.004332732,0.20359087,1
6632000,0.004252307,-0.0065043,-0.005758561,0.9788364,-0.007151497,-0.018422887,0.20368811,0.97903603,0.0045234784,-0.004332732,0.20359087,1
6664000,0.0008000273,-0.0008254952,0.0025700703,0.9788325,-0.0071272836,-0.018331118,0.20371583,0.97903603,0.0045234784,-0.004332732,0.20359087,1
6696000,-0.0070460946,0.003549882,0.0054305578,0.97882265,-0.007111991,-0.018287476,0.20376763,0.97903603,0.0045234784,-0.004332732,0.20359087,1
6728000,0.0016072569,-0.0008256263,-0.0056856642,0.97881967,-0.007098658,-0.018298753,0.20378168,0.97903603,0.0045234784,-0.004332732,0.20359087,1
6760000,0.0016145636,-0.004615781,-0.0015405471,0.978821,-0.0070915865,-0.018255714,0.20377901,0.97903603,0.0045234784,-0.004332732,0.20359087,1
6796000,-0.0007320704,-0.0041556666,0.002598333,0.97882277,-0.007088812,-0.018171463,0.20377822,0.97903603,0.0045234784,-0.004332732,0.20359087,1
6824000,0.0036902186,-0.0017423357,0.0020082796,0.9788192,-0.007029775,-0.018132908,0.20380095,0.97903603,0.0045234784,-0.004332732,0.20359087,1
6856000,-0.00026924873,-6.087101e-05,-0.0028383068,0.97882277,-0.007063363,-0.018072266,0.20378777,0.97903603,0.0045234784,-0.004332732,0.20359087,1
6888000,0.0022943888,-0.0041041384,-0.0055846535,0.97883,-0.0070970096,-0.01803506,0.20375562,0.97903603,0.0045234784,-0.004332732,0.20359087,1
6920000,0.0019263783,0.0076017166,-0.0029975616,0.97884595,-0.007077605,-0.017921304,0.20368937,0.97903603,0.0045234784,-0.004332732,0.20359087,1
6956000,-0.0036492473,-0.009114328,0.0029577834,0.97885334,-0.007022054,-0.0178836,0.2036593,0.97903603,0.0045234784,-0.004332732,0.20359087,1
6984000,-8.174067e-05,0.0076713995,-0.004098777,0.9788431,-0.007056507,-0.01776906,0.203717,0.97903603,0.0045234784,-0.004332732,0.20359087,1
7016000,-0.0058283983,-0.00016091089,0.0027067084,0.97884786,-0.0070562935,-0.017709754,0.20369977,0.97903603,0.0045234784,-0.004332732,0.20359087,1
7048000,0.0073116985,-0.006072823,6.355824e-05,0.97885674,-0.0069898125,-0.017655428,0.20366424,0.97903603,0.0045234784,-0.004332732,0.20359087,1
7080000,0.00018143794,-0.0013485937,-0.0024622513,0.978857,-0.0069183684,-0.017595194,0.2036702,0.97903603,0.0045234784,-0.004332732,0.20359087,1
7112000,0.0038483986,-0.00068413885,-0.0010105642,0.9788484,-0.0068893307,-0.01745829,0.20372438,0.97903603,0.0045234784,-0.004332732,0.20359087,1
7144000,-0.0084415,-0.004401615,-0.0008503885,0.9788396,-0.006873454,-0.01743915,0.20376904,0.97903603,0.0045234784,-0.004332732,0.20359087,1
7176000,-0.008936208,-0.007381698,-0.0004245824,0.9788347,-0.006911519,-0.017426774,0.20379215,0.97903603,0.0045234784,-0.004332732,0.20359087,1
7212000,-0.0036392268,-0.008997029,-0.0016476416,0.97882986,-0.0069189034,-0.017394967,0.20381777,0.97903603,0.0045234784,-0.004332732,0.20359087,1
7240000,0.005066345,-0.006606025,0.0009397613,0.9788287,-0.006895053,-0.017359268,0.20382695,0.97903603,0.0045234784,-0.004332732,0.20359087,1
7272000,0.003589351,4.9926806e-05,0.003974535,0.9788308,-0.0068518724,-0.017346531,0.20381966,0.97903603,0.0045234784,-0.004332732,0.20359087,1
7304000,-0.0069511947,0.0023646583,-0.0038676579,0.9788316,-0.0069393516,-0.01731322,0.20381564,0.97903603,0.0045234784,-0.004332732,0.20359087,1
7336000,0.0018118785,-0.0018028822,-0.0009350252,0.9788452,-0.0069567272,-0.017210964,0.20375891,0.97903603,0.0045234784,-0.004332732,0.20359087,1
7368000,-0.0005153137,-0.008147592,-0.0005045313,0.9788482,-0.006948687,-0.017155273,0.20374899,0.97903603,0.0045234784,-0.004332732,0.20359087,1
7400000,0.0008245092,-0.0005914527,0.001790033,0.9788623,-0.00693197,-0.01708329,0.203688,0.97903603,0.0045234784,-0.004332732,0.20359087,1
7432000,0.004120938,0.0015892037,-2.8092472e-05,0.9788652,-0.006979734,-0.017047187,0.20367531,0.97903603,0.0045234784,-0.004332732,0.20359087,1
7468000,0.0031045736,0.0007039425,-2.02409e-05,0.9788618,-0.006980075,-0.016922863,0.20370197,0.97903603,0.0045234784,-0.004332732,0.20359087,1
7496000,-0.00137959,-0.0078078764,0.0052431747,0.9788539,-0.0070111584,-0.016873477,0.20374298,0.97903603,0.0045234784,-0.004332732,0.20359087,1
7528000,-0.001571671,0.0040958426,-0.0024876022,0.9788436,-0.0070242146,-0.016814133,0.2037968,0.97903603,0.0045234784,-0.004332732,0.20359087,1
7560000,-0.0023487178,-0.005724687,-0.00071829784,0.97883654,-0.0070211985,-0.016749326,0.20383672,0.97903603,0.0045234784,-0.004332732,0.20359087,1
7592000,0.0074882787,0.007732273,0.0003156099,0.9788298,-0.007012092,-0.016689911,0.20387356,0.97903603,0.0045234784,-0.004332732,0.20359087,1
7624000,0.0014280467,-0.0027486118,0.0023928476,0.97882175,-0.006995335,-0.016580183,0.2039223,0.97903603,0.0045234784,-0.004332732,0.20359087,1
7660000,0.0050880825,-0.006622992,0.010755125,0.9788158,-0.006950262,-0.01649765,0.20395893,0.97903603,0.0045234784,-0.004332732,0.20359087,1
7688000,-0.0023199907,-0.00094322814,-0.010424029,0.9788144,-0.0069994815,-0.01643416,0.20396876,0.97903603,0.0045234784,-0.004332732,0.20359087,1
7720000,0.0033525818,-0.00406661,-0.0006626377,0.9788223,-0.0069758706,-0.016388094,0.20393571,0.97903603,0.0045234784,-0.004332732,0.20359087,1
7756000,-0.0015924141,-0.0001775492,-0.001149057,0.9788176,-0.0069673737,-0.016323105,0.203964,0.97903603,0.0045234784,-0.004332732,0.20359087,1
7784000,0.001872153,-0.005390744,-0.0024695043,0.97880924,-0.007006779,-0.016268192,0.20400707,0.97903603,0.0045234784,-0.004332732,0.20359087,1
7816000,-0.0025968952,-0.0038024513,0.00096528255,0.9788084,-0.0070374394,-0.016211431,0.2040144,0.97903603,0.0045234784,-0.004332732,0.20359087,1
7848000,0.0051878667,2.9285904e-05,-0.00423704,0.9788129,-0.0070378976,-0.016120603,0.20399992,0.97903603,0.0045234784,-0.004332732,0.20359087,1
7880000,0.00070699817,-0.0014495617,-0.0029129654,0.97881424,-0.007055606,-0.016026972,0.20400049,0.97903603,0.0045234784,-0.004332732,0.20359087,1
7912000,0.00012909889,0.0029496448,-0.0032347736,0.9788219,-0.0070529077,-0.015936833,0.20397103,0.97903603,0.0045234784,-0.004332732,0.20359087,1
7944000,-0.0069358703,-0.0019841413,0.003959661,0.978822,-0.0070936955,-0.015866326,0.20397414,0.97903603,0.0045234784,-0.004332732,0.20359087,1
7976000,0.004654056,0.0016046425,0.0002990507,0.9788275,-0.00704458,-0.015813405,0.20395395,0.97903603,0.0045234784,-0.004332732,0.20359087,1
8012000,0.003915978,0.0012585127,-0.0031794768,0.97881895,-0.0070815193,-0.015707813,0.20400178,0.97903603,0.0045234784,-0.004332732,0.20359087,1
8040000,-0.0059028673,-0.0013794219,-0.008089805,0.97881484,-0.007133057,-0.015634026,0.20402482,0.97903603,0.0045234784,-0.004332732,0.20359087,1
8072000,-0.0051379194,-0.0047083646,-0.0008646158,0.9788267,-0.007158227,-0.015553142,0.20397364,0.97903603,0.0045234784,-0.004332732,0.20359087,1
8104000,-0.0055393307,0.00090126926,0.00027826044,0.9788192,-0.0071961326,-0.01551205,0.20401165,0.97903603,0.0045234784,-0.004332732,0.20359087,1
8136000,0.008760881,0.003144577,-0.0007441309,0.9788146,-0.0071464493,-0.015386998,0.2040446,0.97903603,0.0045234784,-0.004332732,0.20359087,1
8168000,0.0059728576,0.0024037752,0.0009716545,0.97882414,-0.007104722,-0.015291617,0.2040074,0.97903603,0.0045234784,-0.004332732,0.20359087,1
8200000,0.0015484036,-0.0009138421,-0.0031834058,0.978827,-0.0070650163,-0.015231126,0.20399947,0.97903603,0.0045234784,-0.004332732,0.20359087,1
8232000,-0.00051464397,-0.00042583467,0.0067080683,0.978828,-0.0070988927,-0.015181665,0.20399751,0.97903603,0.0045234784,-0.004332732,0.20359087,1
8264000,-0.0012292311,-0.00057293614,-0.00044756592,0.97881883,-0.0070912554,-0.0150909005,0.20404825,0.97903603,0.0045234784,-0.004332732,0.20359087,1
8296000,0.0038629537,0.0055922884,-0.0046034507,0.9788192,-0.0070991605,-0.015013006,0.20405187,0.97903603,0.0045234784,-0.004332732,0.20359087,1
8328000,-0.0020584264,-0.0008419729,-0.0016678107,0.9788058,-0.007123213,-0.014941836,0.2041206,0.97903603,0.0045234784,-0.004332732,0.20359087,1
8360000,0.0038658492,-0.0013009259,0.0019195687,0.9787978,-0.0071025696,-0.014845646,0.2041671,0.97903603,0.0045234784,-0.004332732,0.20359087,1
8392000,0.0055810353,-0.0013831826,0.0013690399,0.97879374,-0.007088129,-0.014774584,0.20419225,0.97903603,0.0045234784,-0.004332732,0.20359087,1
8424000,0.002649201,-0.004761977,-0.0021679907,0.978789,-0.007062358,-0.014734797,0.20421839,0.97903603,0.0045234784,-0.004332732,0.20359087,1
8456000,0.0026872242,-0.0015959311,0.000886195,0.9787839,-0.0070819366,-0.014741144,0.2042415,0.97903603,0.0045234784,-0.004332732,0.20359087,1
8488000,0.0017096942,0.002066528,0.0015633091,0.97877777,-0.00707075,-0.014706194,0.20427404,0.97903603,0.0045234784,-0.004332732,0.20359087,1
8520000,0.0041980823,-0.002051636,0.0048311534,0.97877866,-0.0071052383,-0.01463602,0.20427342,0.97903603,0.0045234784,-0.004332732,0.20359087,1
8552000,0.00015362247,0.00025339331,-0.0059936326,0.97877353,-0.00712481,-0.014605793,0.20429946,0.97903603,0.0045234784,-0.004332732,0.20359087,1
8584000,-0.0020503572,0.00014854828,0.0018608402,0.9787729,-0.00713628,-0.014544084,0.20430678,0.97903603,0.0045234784,-0.004332732,0.20359087,1
8616000,0.0070748543,-0.0083478,0.00229818,0.97877264,-0.007136902,-0.0145214,0.20430936,0.97903603,0.0045234784,-0.004332732,0.20359087,1
8648000,0.0033116217,-0.0038023577,-0.00033165305,0.97877586,-0.0071612494,-0.014467942,0.20429702,0.97903603,0.0045234784,-0.004332732,0.20359087,1
8680000,0.0028910148,-0.003433344,-0.001154022,0.97877604,-0.0071826377,-0.014399229,0.20430057,0.97903603,0.0045234784,-0.004332732,0.20359087,1
8712000,0.0016266601,-0.00042387424,-0.0012539267,0.97877073,-0.0071533932,-0.014355008,0.20433012,0.97903603,0.0045234784,-0.004332732,0.20359087,1
8744000,-0.0010007083,-1.2989622e-05,0.0041995784,0.97876924,-0.007193772,-0.014341891,0.20433651,0.97903603,0.0045234784,-0.004332732,0.20359087,1
8780000,0.0022596507,-0.00032977248,0.003616666,0.9787575,-0.0071618203,-0.014293136,0.20439725,0.97903603,0.0045234784,-0.004332732,0.20359087,1
8808000,0.00040509395,0.0058178846,0.0028389636,0.97875786,-0.0072061545,-0.014213688,0.20439972,0.97903603,0.0045234784,-0.004332732,0.20359087,1
8840000,0.0007527083,0.00068537286,-0.002359352,0.97875965,-0.007240842,-0.014174124,0.20439255,0.97903603,0.0045234784,-0.004332732,0.20359087,1
8876000,0.0030286517,-0.0017522937,0.0001724502,0.9787612,-0.00725181,-0.014120374,0.20438862,0.97903603,0.0045234784,-0.004332732,0.20359087,1
8904000,0.0010882037,0.0063476665,0.0050412356,0.97875667,-0.0072929068,-0.014048182,0.20441383,0.97903603,0.0045234784,-0.004332732,0.20359087,1
8936000,-0.005725993,-0.0039591333,0.004450634,0.9787622,-0.0073283403,-0.0140038645,0.20438908,0.97903603,0.0045234784,-0.004332732,0.20359087,1
8968000,0.0010714066,-0.008954128,-0.0076520853,0.978767,-0.0073503666,-0.0140558155,0.20436195,0.97903603,0.0045234784,-0.004332732,0.20359087,1
9000000,-0.0011013842,0.0014420352,-0.00026589865,0.9787736,-0.007357575,-0.014001926,0.20433384,0.97903603,0.0045234784,-0.004332732,0.20359087,1
9036000,0.0012041484,-0.001676193,0.006185493,0.97878814,-0.007359532,-0.013967634,0.20426583,0.97903603,0.0045234784,-0.004332732,0.20359087,1
9064000,0.006571294,-0.0048423954,-0.00046766782,0.97878265,-0.007336941,-0.013927466,0.20429596,0.97903603,0.0045234784,-0.004332732,0.20359087,1
9096000,0.00030681165,0.0005481499,0.0013930607,0.978783,-0.0072991624,-0.013899911,0.2042971,0.97903603,0.0045234784,-0.004332732,0.20359087,1
9128000,0.0015513004,-0.0019475985,-0.005457671,0.9787805,-0.00733079,-0.013872392,0.2043102,0.97903603,0.0045234784,-0.004332732,0.20359087,1
9160000,0.0013936547,-0.0059305993,0.0023432025,0.9787858,-0.0073435544,-0.013888579,0.20428294,0.97903603,0.0045234784,-0.004332732,0.20359087,1
9192000,-0.0030523473,0.0069197603,0.0013132306,0.9787813,-0.0073755556,-0.013874229,0.20430444,0.97903603,0.0045234784,-0.004332732,0.20359087,1
9224000,0.0003949604,0.006421632,0.0006111677,0.9787705,-0.007387314,-0.013778423,0.20436238,0.97903603,0.0045234784,-0.004332732,0.20359087,1
9260000,0.0035772887,-0.001915969,0.0020182722,0.978771,-0.007397884,-0.013735302,0.20436302,0.97903603,0.0045234784,-0.004332732,0.20359087,1
9288000,-0.0008267225,0.00095503265,-0.00065773696,0.9787775,-0.0073986454,-0.013708781,0.20433281,0.97903603,0.0045234784,-0.004332732,0.20359087,1
9320000,-0.00017357047,0.00018485123,-0.0005447051,0.978783,-0.007391517,-0.013678929,0.20430928,0.97903603,0.0045234784,-0.004332732,0.20359087,1
9352000,-0.00043485092,-0.0034051468,-0.0010076679,0.97879106,-0.007387508,-0.013607573,0.2042756,0.97903603,0.0045234784,-0.004332732,0.20359087,1
9384000,-0.0015889495,-0.0040797326,0.00479802,0.97879314,-0.00735939,-0.013601927,0.20426668,0.97903603,0.0045234784,-0.004332732,0.20359087,1
9416000,0.0020856187,0.00094965193,-0.00141216,0.978788,-0.0073314984,-0.013584583,0.20429322,0.97903603,0.0045234784,-0.004332732,0.20359087,1
9448000,-0.0037578964,0.0003490895,-0.0032801745,0.97879326,-0.0074072257,-0.013504099,0.20427115,0.97903603,0.0045234784,-0.004332732,0.20359087,1
9480000,-0.0029337415,0.004324029,-0.0072457166,0.97879404,-0.0074708615,-0.013431736,0.20426935,0.97903603,0.0045234784,-0.004332732,0.20359087,1
9512000,0.0011193964,-0.00068836194,0.0010173053,0.9787992,-0.0075045982,-0.013374896,0.20424744,0.97903603,0.0045234784,-0.004332732,0.20359087,1
9544000,-0.0012591175,0.0014712089,-0.0064212107,0.97880006,-0.0075032045,-0.013331395,0.20424637,0.97903603,0.0045234784,-0.004332732,0.20359087,1
9576000,-0.0058982074,-0.0066710715,3.8628612e-05,0.9788097,-0.0075018816,-0.013343813,0.20419939,0.97903603,0.0045234784,-0.004332732,0.20359087,1
9608000,-0.0041316263,0.004149442,-0.0025420294,0.9788099,-0.007531949,-0.0133278975,0.20419815,0.97903603,0.0045234784,-0.004332732,0.20359087,1
9640000,-0.0009850765,-0.0054508233,0.006066714,0.97881013,-0.0075423867,-0.013311418,0.20419787,0.97903603,0.0045234784,-0.004332732,0.20359087,1
9672000,-0.003836625,-0.0029020086,0.0016572232,0.97880644,-0.0075441715,-0.013284463,0.20421703,0.97903603,0.0045234784,-0.004332732,0.20359087,1
9704000,0.0025666952,0.012450432,0.006751355,0.97880876,-0.007529868,-0.013190259,0.20421278,0.97903603,0.0045234784,-0.004332732,0.20359087,1
9740000,-0.0025586921,-0.0027972967,0.010783432,0.97880894,-0.007473963,-0.013205428,0.20421264,0.97903603,0.0045234784,-0.004332732,0.20359087,1
9768000,0.0076603554,0.004678347,0.0020227972,0.9788048,-0.0074831913,-0.013223211,0.2042312,0.97903603,0.0045234784,-0.004332732,0.20359087,1
9800000,0.0050542206,-0.0010946947,0.0006017792,0.97880644,-0.007481454,-0.013192802,0.20422529,0.97903603,0.0045234784,-0.004332732,0.20359087,1
9836000,0.006481092,0.0011696671,-0.00014385389,0.97881144,-0.0075250035,-0.013202194,0.20419934,0.97903603,0.0045234784,-0.004332732,0.20359087,1
9864000,-0.004868283,-0.00040051434,-0.007927802,0.97881716,-0.007535335,-0.013199409,0.20417164,0.97903603,0.0045234784,-0.004332732,0.20359087,1
9896000,-0.0010241229,-0.004643606,-0.0013498517,0.978822,-0.007550273,-0.013207913,0.20414732,0.97903603,0.0045234784,-0.004332732,0.20359087,1
9928000,-0.0015338717,0.0018454262,-0.0022092224,0.9788355,-0.0075700157,-0.013192277,0.20408279,0.97903603,0.0045234784,-0.004332732,0.20359087,1
9960000,-0.0051071327,-0.00532049,0.0028478634,0.9788418,-0.0076213935,-0.01322066,0.20404865,0.97903603,0.0045234784,-0.004332732,0.20359087,1
9992000,-6.1554485e-05,0.001358063,6.055436e-05,0.9788447,-0.0076675955,-0.013181561,0.2040355,0.97903603,0.0045234784,-0.004332732,0.20359087,1
10024000,0.0055153985,-0.0031489604,-0.0057414724,0.9788517,-0.0076828627,-0.013146143,0.2040041,0.97903603,0.0045234784,-0.004332732,0.20359087,1
10056000,-0.0019972501,0.0067423997,-0.0009989048,0.97885776,-0.0077334717,-0.013119041,0.20397443,0.97903603,0.0045234784,-0.004332732,0.20359087,1
10088000,-0.007241622,0.0053615225,0.0008050725,0.9788688,-0.00771386,-0.013074263,0.2039253,0.97903603,0.0045234784,-0.004332732,0.20359087,1
10120000,-0.00042854005,-0.0014555962,-0.00038904155,0.9788846,-0.0077542625,-0.012998895,0.20385283,0.97903603,0.0045234784,-0.004332732,0.20359087,1
10152000,0.004076669,0.0002497076,-0.00055611716,0.97889024,-0.007800944,-0.012958465,0.20382662,0.97903603,0.0045234784,-0.004332732,0.20359087,1
10184000,-0.006886158,0.0016475143,0.00046960008,0.9788901,-0.007857036,-0.012974479,0.20382398,0.97903603,0.0045234784,-0.004332732,0.20359087,1
10216000,0.00066616,0.0020019924,0.00017019256,0.9788943,-0.007864329,-0.012966065,0.20380369,0.97903603,0.0045234784,-0.004332732,0.20359087,1
10248000,-0.0015406662,-0.0024380567,0.009666421,0.97888994,-0.007897972,-0.012913462,0.20382696,0.97903603,0.0045234784,-0.004332732,0.20359087,1
10280000,0.0057599694,-0.0014971839,0.0011365619,0.97889715,-0.0078509515,-0.012909993,0.20379435,0.97903603,0.0045234784,-0.004332732,0.20359087,1
10312000,-0.00499596,-0.00743973,-0.0010877595,0.9788947,-0.007906463,-0.01288069,0.20380583,0.97903603,0.0045234784,-0.004332732,0.20359087,1
10344000,-0.002875051,0.0037716792,-0.004772206,0.97890514,-0.007945005,-0.012871059,0.20375459,0.97903603,0.0045234784,-0.004332732,0.20359087,1
10380000,0.0014452103,-0.00047291536,-0.0029777477,0.97891504,-0.007950605,-0.012873395,0.20370676,0.97903603,0.0045234784,-0.004332732,0.20359087,1
10408000,0.005831016,-0.0004707491,-0.0016595805,0.9789191,-0.007919482,-0.012893008,0.20368725,0.97903603,0.0045234784,-0.004332732,0.20359087,1
10440000,-0.0044469866,-0.003917041,-0.012156586,0.97893393,-0.007914395,-0.012919125,0.20361461,0.97903603,0.0045234784,-0.004332732,0.20359087,1
10472000,-0.0013033047,0.0007860833,7.065435e-06,0.9789446,-0.007942998,-0.012896449,0.2035633,0.97903603,0.0045234784,-0.004332732,0.20359087,1
10504000,8.207117e-05,0.0058301133,-0.003879556,0.9789611,-0.0079853255,-0.012846485,0.2034857,0.97903603,0.0045234784,-0.004332732,0.20359087,1
10536000,0.0026658587,0.0031827681,0.0044752196,0.9789783,-0.007958079,-0.012760844,0.20340948,0.97903603,0.0045234784,-0.004332732,0.20359087,1
10568000,-2.8889743e-05,0.008135289,0.0026186595,0.97898203,-0.007921552,-0.012717419,0.20339546,0.97903603,0.0045234784,-0.004332732,0.20359087,1
10600000,0.0017320081,0.0027130423,-0.004560804,0.97899354,-0.007956571,-0.01267404,0.20334122,0.97903603,0.0045234784,-0.004332732,0.20359087,1
10632000,0.0027867262,0.00084351376,0.0006215502,0.9790013,-0.00795145,-0.012654056,0.20330569,0.97903603,0.0045234784,-0.004332732,0.20359087,1
10664000,0.0013831288,0.0011258293,-0.0008100987,0.97901094,-0.007918794,-0.012667047,0.20325975,0.97903603,0.0045234784,-0.004332732,0.20359087,1
10696000,5.422556e-05,-0.0007628454,0.004514036,0.97903097,-0.007925759,-0.012681773,0.20316167,0.97903603,0.0045234784,-0.004332732,0.20359087,1
10728000,-0.006200255,-0.002279244,0.00040512608,0.9790382,-0.007975625,-0.012676575,0.20312554,0.97903603,0.0045234784,-0.004332732,0.20359087,1
10760000,0.0018530721,-0.0028100773,-0.002497705,0.9790602,-0.008009854,-0.012687735,0.20301779,0.97903603,0.0045234784,-0.004332732,0.20359087,1
10792000,-0.0030017893,-0.003869386,-0.0032386181,0.979081,-0.007994879,-0.012739296,0.20291464,0.97903603,0.0045234784,-0.004332732,0.20359087,1
10824000,-0.00013341126,0.0031468477,-0.0014612639,0.9790926,-0.007990009,-0.0126644755,0.20286341,0.97903603,0.0045234784,-0.004332732,0.20359087,1
10856000,-0.0061892234,0.0035465942,0.00017364245,0.9791027,-0.008046849,-0.012654064,0.20281309,0.97903603,0.0045234784,-0.004332732,0.20359087,1
10888000,-0.002060687,-0.00028951466,0.00071267993,0.97910315,-0.008110577,-0.01267437,0.20280732,0.97903603,0.0045234784,-0.004332732,0.20359087,1
10920000,0.00398611,-0.00042539276,0.0012161259,0.9791183,-0.008146137,-0.012703141,0.20273058,0.97903603,0.0045234784,-0.004332732,0.20359087,1
10956000,-0.00407652,-0.0017537586,-0.0007465931,0.9791283,-0.008133814,-0.0126813175,0.20268413,0.97903603,0.0045234784,-0.004332732,0.20359087,1
10984000,-0.0028302348,0.0038928261,-0.0017780254,0.9791406,-0.008169846,-0.012621883,0.20262718,0.97903603,0.0045234784,-0.004332732,0.20359087,1
11016000,0.001503169,-0.0008072704,-0.0027847427,0.97915924,-0.0081972,-0.012595689,0.20253712,0.97903603,0.0045234784,-0.004332732,0.20359087,1
11048000,0.0014416614,-0.0033508209,-0.0016719115,0.97916967,-0.008213356,-0.012580281,0.20248717,0.97903603,0.0045234784,-0.004332732,0.20359087,1
11080000,-0.0015556116,3.462145e-05,-0.0029023613,0.97916806,-0.008248297,-0.012502395,0.20249845,0.97903603,0.0045234784,-0.004332732,0.20359087,1
11112000,-0.00252645,-0.001484409,0.002337886,0.97964257,-0.00831577,-0.01238772,0.2001944,0.9999972,-5.0906565e-05,5.0713432e-05,-0.0023911002,2
11144000,-0.0033882498,-0.0005726679,-0.00024557154,0.9796462,-0.008357908,-0.012369097,0.20017624,0.9999972,-5.0906565e-05,5.0713432e-05,-0.0023911002,2
11176000,0.0058151884,0.004283902,0.00075865537,0.9796527,-0.008341178,-0.012352133,0.20014629,0.9999972,-5.0906565e-05,5.0713432e-05,-0.0023911002,2
11208000,-0.0036486785,0.00064992625,0.000102706275,0.97964466,-0.008347001,-0.012410525,0.200182,0.9999972,-5.0906565e-05,5.0713432e-05,-0.0023911002,2
11240000,-0.0012792238,-0.007776701,0.0005185264,0.97962147,-0.008347042,-0.0124374395,0.20029365,0.9999972,-5.0906565e-05,5.0713432e-05,-0.0023911002,2
11272000,0.00096750725,0.0028479188,0.0010343143,0.9795991,-0.008383533,-0.012442564,0.20040095,0.9999972,-5.0906565e-05,5.0713432e-05,-0.0023911002,2
11308000,0.003537837,-0.007538829,-0.0024496322,0.97957176,-0.008378111,-0.012462717,0.20053372,0.9999972,-5.0906565e-05,5.0713432e-05,-0.0023911002,2
11336000,-6.436114e-05,-0.0036184094,-0.0040369164,0.9795635,-0.008396048,-0.012516313,0.20057006,0.9999972,-5.0906565e-05,5.0713432e-05,-0.0023911002,2
11368000,0.003096591,-0.0026817732,-0.004110674,0.9795513,-0.008386024,-0.012500391,0.20063066,0.9999972,-5.0906565e-05,5.0713432e-05,-0.0023911002,2
11400000,-0.0027798675,-0.00595325,0.00030378118,0.9795291,-0.008372065,-0.012557433,0.20073639,0.9999972,-5.0906565e-05,5.0713432e-05,-0.0023911002,2
11432000,-0.00015780213,-0.0023034932,0.0024761108,0.97950906,-0.008349273,-0.012526304,0.20083694,0.9999972,-5.0906565e-05,5.0713432e-05,-0.0023911002,2
11464000,0.0028708815,0.0007962729,-0.0048654033,0.97948986,-0.008318938,-0.01252198,0.20093194,0.9999972,-5.0906565e-05,5.0713432e-05,-0.0023911002,2
11496000,-0.0040728026,0.00096214423,0.0045951474,0.9794756,-0.008371494,-0.012501385,0.20100085,0.9999972,-5.0906565e-05,5.0713432e-05,-0.0023911002,2
11528000,-0.0033919222,0.0034349107,-0.0041124,0.9794515,-0.008394579,-0.012508831,0.20111667,0.9999972,-5.0906565e-05,5.0713432e-05,-0.0023911002,2
11560000,0.00258114,-0.0035086689,-0.0039692875,0.97942793,-0.00841732,-0.012540592,0.20122829,0.9999972,-5.0906565e-05,5.0713432e-05,-0.0023911002,2
11592000,-0.005249191,0.0030594256,-0.0023922916,0.9794117,-0.008390869,-0.012440454,0.20131469,0.9999972,-5.0906565e-05,5.0713432e-05,-0.0023911002,2
11624000,-0.0040092547,0.0009309314,0.0017941886,0.979378,-0.008410892,-0.01242191,0.2014788,0.9999972,-5.0906565e-05,5.0713432e-05,-0.0023911002,2
11656000,0.0048129587,0.0022855997,-0.0052933246,0.9793504,-0.008395836,-0.012438782,0.20161293,0.9999972,-5.0906565e-05,5.0713432e-05,-0.0023911002,2
11692000,-0.002736653,-0.0006907224,-0.0020989052,0.9793267,-0.00838705,-0.012397016,0.20173064,0.9999972,-5.0906565e-05,5.0713432e-05,-0.0023911002,2
11720000,0.0014918371,0.0003367141,0.0072169635,0.9793024,-0.008387003,-0.012404591,0.20184831,0.9999972,-5.0906565e-05,5.0713432e-05,-0.0023911002,2
11752000,-0.0012101857,0.0021116396,0.0012216775,0.9792871,-0.008349436,-0.0123975715,0.20192432,0.9999972,-5.0906565e-05,5.0713432e-05,-0.0023911002,2
11784000,-0.005161214,0.0003168406,0.0030570657,0.97928065,-0.0083224755,-0.012390156,0.2019569,0.9999972,-5.0906565e-05,5.0713432e-05,-0.0023911002,2
11816000,0.0027931677,-0.003685508,-0.0010756974,0.97927046,-0.0083292,-0.012324917,0.2020103,0.9999972,-5.0906565e-05,5.0713432e-05,-0.0023911002,2
11852000,-0.003554523,0.0044174804,0.0006021445,0.979258,-0.008294054,-0.012311384,0.20207286,0.9999972,-5.0906565e-05,5.0713432e-05,-0.0023911002,2
11880000,0.0004912424,-0.0015692795,0.00018950042,0.97925365,-0.008272698,-0.01231666,0.20209448,0.9999972,-5.0906565e-05,5.0713432e-05,-0.0023911002,2
11912000,-0.0047784317,0.005604876,-0.00734981,0.97924685,-0.008273991,-0.012290405,0.2021289,0.9999972,-5.0906565e-05,5.0713432e-05,-0.0023911002,2
11948000,0.0034009072,0.00012554275,0.00083261187,0.9792429,-0.008258584,-0.01233186,0.20214616,0.9999972,-5.0906565e-05,5.0713432e-05,-0.0023911002,2
11976000,-0.0004370577,0.0025532425,-0.0028416289,0.97924495,-0.008217549,-0.012334295,0.20213833,0.9999972,-5.0906565e-05,5.0713432e-05,-0.0023911002,2
12012000,-0.000493536,-2.2832304e-05,-0.004868589,0.9792514,-0.008242817,-0.0123822205,0.20210262,0.9999972,-5.0906565e-05,5.0713432e-05,-0.0023911002,2
12040000,-0.0018196437,0.002778702,-0.0009340631,0.97925895,-0.008213412,-0.012399314,0.20206596,0.9999972,-5.0906565e-05,5.0713432e-05,-0.0023911002,2
12072000,0.00018032215,0.0016231886,-0.008162491,0.9792658,-0.00821449,-0.012433191,0.20203066,0.9999972,-5.0906565e-05,5.0713432e-05,-0.0023911002,2
12104000,-0.0044400594,-0.006336836,-0.0041004326,0.97927535,-0.008211988,-0.012476082,0.20198222,0.9999972,-5.0906565e-05,5.0713432e-05,-0.0023911002,2
12136000,-0.005535888,-0.0034281453,-0.0034546338,0.97928274,-0.008206592,-0.012464261,0.20194735,0.9999972,-5.0906565e-05,5.0713432e-05,-0.0023911002,2
12168000,0.0012753977,0.00047122035,0.0061917813,0.9792827,-0.008198056,-0.012516139,0.20194447,0.9999972,-5.0906565e-05,5.0713432e-05,-0.0023911002,2
12200000,-0.00021749432,0.00030204048,-0.0003760831,0.97928363,-0.008172372,-0.012516389,0.20194085,0.9999972,-5.0906565e-05,5.0713432e-05,-0.0023911002,2
12236000,0.0014777639,-0.004920214,-0.00095614843,0.97930586,-0.008161868,-0.012513381,0.20183402,0.9999972,-5.0906565e-05,5.0713432e-05,-0.0023911002,2
12264000,0.0004538854,-0.0038052266,0.011629904,0.979309,-0.008146839,-0.012580611,0.20181479,0.9999972,-5.0906565e-05,5.0713432e-05,-0.0023911002,2
12296000,0.0028624695,0.00032234285,0.004595804,0.97931117,-0.00818188,-0.012619357,0.20180048,0.9999972,-5.0906565e-05,5.0713432e-05,-0.0023911002,2
12328000,0.00316263,0.0008077263,0.0010067275,0.97931206,-0.008240838,-0.0125721255,0.20179686,0.9999972,-5.0906565e-05,5.0713432e-05,-0.0023911002,2
12364000,-0.00089402625,0.005113021,0.0014549838,0.9793243,-0.008285392,-0.012558731,0.20173673,0.9999972,-5.0906565e-05,5.0713432e-05,-0.0023911002,2
12392000,0.0022462485,0.0023465904,0.0037542596,0.9793356,-0.00829803,-0.012575563,0.20168014,0.9999972,-5.0906565e-05,5.0713432e-05,-0.0023911002,2
12424000,0.00034095108,0.00055198045,0.0012028953,0.9793596,-0.008250746,-0.012575731,0.20156555,0.9999972,-5.0906565e-05,5.0713432e-05,-0.0023911002,2
12460000,-0.0023442442,0.0036700414,0.007491237,0.97937393,-0.008252032,-0.012579177,0.20149508,0.9999972,-5.0906565e-05,5.0713432e-05,-0.0023911002,2
12488000,-0.00871302,0.0019528703,-0.0026686825,0.9793825,-0.008292157,-0.012582526,0.20145199,0.9999972,-5.0906565e-05,5.0713432e-05,-0.0023911002,2
12520000,0.0067429706,0.0016277167,0.0009935746,0.9793928,-0.008284623,-0.012633176,0.20139906,0.9999972,-5.0906565e-05,5.0713432e-05,-0.0023911002,2
12552000,0.0045598955,0.006822059,0.0009936856,0.97939473,-0.008329626,-0.012602693,0.20138964,0.9999972,-5.0906565e-05,5.0713432e-05,-0.0023911002,2
12584000,-0.002121698,0.0027955265,0.0058141416,0.9793962,-0.008318618,-0.01263037,0.20138115,0.9999972,-5.0906565e-05,5.0713432e-05,-0.0023911002,2
12616000,0.003409962,0.007351174,-0.005288146,0.979389,-0.008286685,-0.012629946,0.20141728,0.9999972,-5.0906565e-05,5.0713432e-05,-0.0023911002,2
12648000,0.004649908,0.0040178406,-0.0014026602,0.97939813,-0.008245534,-0.012605364,0.20137616,0.9999972,-5.0906565e-05,5.0713432e-05,-0.0023911002,2
12680000,-0.005863955,0.0029312535,0.0067678224,0.9793893,-0.0082366215,-0.012644652,0.20141743,0.9999972,-5.0906565e-05,5.0713432e-05,-0.0023911002,2
12712000,0.00507489,0.0046648295,0.007170206,0.9793862,-0.008195091,-0.012651436,0.20143397,0.9999972,-5.0906565e-05,5.0713432e-05,-0.0023911002,2
12744000,0.0010617506,0.00013065943,-0.00721374,0.9793864,-0.008160234,-0.012600159,0.20143738,0.9999972,-5.0906565e-05,5.0713432e-05,-0.0023911002,2
12776000,0.0023569283,-0.00737939,-0.007092764,0.97938275,-0.008145147,-0.012640105,0.20145307,0.9999972,-5.0906565e-05,5.0713432e-05,-0.0023911002,2
12808000,0.0035825009,-0.0031729466,0.00086088764,0.97938305,-0.008152434,-0.012603375,0.20145385,0.9999972,-5.0906565e-05,5.0713432e-05,-0.0023911002,2
12840000,0.0009799027,-1.689978e-05,-0.002225315,0.9793763,-0.008202387,-0.012638014,0.201482,0.9999972,-5.0906565e-05,5.0713432e-05,-0.0023911002,2
12872000,-0.005726328,0.009873839,0.0016792071,0.97936606,-0.008239417,-0.012579241,0.20153445,0.9999972,-5.0906565e-05,5.0713432e-05,-0.0023911002,2
12908000,0.006351445,-0.0018390864,0.008845956,0.97936887,-0.008184702,-0.0125737535,0.20152313,0.9999972,-5.0906565e-05,5.0713432e-05,-0.0023911002,2
12936000,-0.0031580203,-0.0054476913,-0.0035799455,0.97936475,-0.008167015,-0.012614769,0.20154132,0.9999972,-5.0906565e-05,5.0713432e-05,-0.0023911002,2
12968000,0.0032055713,0.0036287569,-0.0048426236,0.9793614,-0.008153711,-0.01259336,0.20155959,0.9999972,-5.0906565e-05,5.0713432e-05,-0.0023911002,2
13000000,-0.0024349159,-0.002473942,0.0028526855,0.97935814,-0.008163227,-0.012577676,0.20157619,0.9999972,-5.0906565e-05,5.0713432e-05,-0.0023911002,2
13032000,0.0019977018,0.0015335442,0.00065470324,0.9793579,-0.00817699,-0.012572613,0.20157711,0.9999972,-5.0906565e-05,5.0713432e-05,-0.0023911002,2
13064000,-0.0025973928,-0.0027673566,-0.0042396425,0.9793575,-0.008212471,-0.012552488,0.20157877,0.9999972,-5.0906565e-05,5.0713432e-05,-0.0023911002,2
13096000,0.00073319837,0.0038438332,-0.0058423295,0.97935987,-0.008215,-0.012582845,0.20156525,0.9999972,-5.0906565e-05,5.0713432e-05,-0.0023911002,2
13128000,0.00045374932,-0.0020196931,-0.0104663465,0.9793696,-0.008226622,-0.012579625,0.20151785,0.9999972,-5.0906565e-05,5.0713432e-05,-0.0023911002,2
13164000,-0.0009896576,0.0011645248,0.00107236,0.97936976,-0.008262521,-0.012596539,0.20151415,0.9999972,-5.0906565e-05,5.0713432e-05,-0.0023911002,2
13192000,-0.0026960562,0.002454287,-0.011010548,0.9793678,-0.008313823,-0.012532308,0.20152558,0.9999972,-5.0906565e-05,5.0713432e-05,-0.0023911002,2
13224000,-0.0046065627,-0.0053516445,-0.007525376,0.9793791,-0.008315341,-0.012562012,0.20146862,0.9999972,-5.0906565e-05,5.0713432e-05,-0.0023911002,2
13256000,-0.0049002287,0.000688232,0.0033312247,0.979382,-0.008352212,-0.012567494,0.20145303,0.9999972,-5.0906565e-05,5.0713432e-05,-0.0023911002,2
13292000,0.0028607855,-0.0021656314,0.00018122756,0.97938526,-0.008353278,-0.012581236,0.20143585,0.9999972,-5.0906565e-05,5.0713432e-05,-0.0023911002,2
13320000,-0.0008824761,-0.002173517,0.004167925,0.97938615,-0.008326259,-0.012604975,0.20143142,0.9999972,-5.0906565e-05,5.0713432e-05,-0.0023911002,2
13352000,-0.00084081746,-0.00010675192,0.0013986516,0.9793884,-0.008359883,-0.012630322,0.20141716,0.9999972,-5.0906565e-05,5.0713432e-05,-0.0023911002,2
13384000,0.003125777,0.0033427214,0.0023922692,0.97938615,-0.008320057,-0.012622486,0.20143099,0.9999972,-5.0906565e-05,5.0713432e-05,-0.0023911002,2
13416000,0.00041636394,0.0026139028,-0.0050788773,0.97939104,-0.008280904,-0.012602696,0.20140994,0.9999972,-5.0906565e-05,5.0713432e-05,-0.0023911002,2
13448000,-0.0005923861,0.0055907443,-0.0063712015,0.97939795,-0.008244038,-0.012623171,0.20137616,0.9999972,-5.0906565e-05,5.0713432e-05,-0.0023911002,2
13480000,-0.0024518152,-0.0012805085,-0.0029857538,0.9794091,-0.0082034385,-0.012630924,0.2013232,0.9999972,-5.0906565e-05,5.0713432e-05,-0.0023911002,2
13512000,-0.0030637751,-0.00011408841,0.0011580922,0.9794109,-0.008211091,-0.012641676,0.20131376,0.9999972,-5.0906565e-05,5.0713432e-05,-0.0023911002,2
13544000,0.0023665698,-0.0015617204,0.00040412787,0.9794042,-0.008188758,-0.012628039,0.20134778,0.9999972,-5.0906565e-05,5.0713432e-05,-0.0023911002,2
13576000,-0.0019375777,-0.0016649934,-0.0037335611,0.97941506,-0.008223928,-0.012646425,0.20129226,0.9999972,-5.0906565e-05,5.0713432e-05,-0.0023911002,2
13612000,-0.0036109043,0.00046412088,0.0031505588,0.9794186,-0.008283279,-0.012619946,0.20127447,0.9999972,-5.0906565e-05,5.0713432e-05,-0.0023911002,2
13640000,0.002951558,0.001040888,-0.0009376765,0.97942156,-0.008266329,-0.012642661,0.20125903,0.9999972,-5.0906565e-05,5.0713432e-05,-0.0023911002,2
13672000,-0.005607271,0.0031308744,-0.0048206868,0.979425,-0.008247242,-0.012636701,0.20124374,0.9999972,-5.0906565e-05,5.0713432e-05,-0.0023911002,2
13704000,-0.0028908665,-0.0005078884,0.0050302236,0.97942114,-0.008287803,-0.012642102,0.20126078,0.9999972,-5.0906565e-05,5.0713432e-05,-0.0023911002,2
13736000,0.0049536116,0.0028194587,0.00012039613,0.9794208,-0.0082897665,-0.0126424,0.20126252,0.9999972,-5.0906565e-05,5.0713432e-05,-0.0023911002,2
13768000,-0.005312794,0.0025334097,0.0016114354,0.9794101,-0.008290172,-0.012658127,0.20131294,0.9999972,-5.0906565e-05,5.0713432e-05,-0.0023911002,2
13800000,-0.0013977078,-0.006829305,0.002139419,0.97939795,-0.008316984,-0.01261313,0.2013742,0.9999972,-5.0906565e-05,5.0713432e-05,-0.0023911002,2
13836000,0.001220889,-0.0012569693,0.0026558472,0.9793837,-0.0082518635,-0.012612594,0.20144553,0.9999972,-5.0906565e-05,5.0713432e-05,-0.0023911002,2
13864000,0.002473948,0.0048427624,0.006332956,0.97937626,-0.008301156,-0.012610106,0.20148008,0.9999972,-5.0906565e-05,5.0713432e-05,-0.0023911002,2
13896000,-0.0025297864,4.6699774e-05,0.0013744779,0.9793721,-0.00831265,-0.012587319,0.20150156,0.9999972,-5.0906565e-05,5.0713432e-05,-0.0023911002,2
13928000,-0.002395879,0.0039993688,0.0038501034,0.9793691,-0.008277843,-0.01258589,0.20151733,0.9999972,-5.0906565e-05,5.0713432e-05,-0.0023911002,2
13964000,0.0017244671,-0.0005057631,0.0050652074,0.97936386,-0.008245013,-0.012580558,0.2015447,0.9999972,-5.0906565e-05,5.0713432e-05,-0.0023911002,2
13996000,0.004173,-0.0020910609,-0.007827144,0.9793677,-0.008225659,-0.012603567,0.20152527,0.9999972,-5.0906565e-05,5.0713432e-05,-0.0023911002,2
14024000,-0.00331834,-0.00038912985,4.616892e-05,0.97936344,-0.008234042,-0.012581592,0.20154722,0.9999972,-5.0906565e-05,5.0713432e-05,-0.0023911002,2
14056000,-0.0033979532,0.010668399,0.007484649,0.9793659,-0.008300378,-0.012559332,0.20153387,0.9999972,-5.0906565e-05,5.0713432e-05,-0.0023911002,2
14092000,0.004281582,0.0028857198,-0.0007174213,0.97936517,-0.008346365,-0.012511221,0.20153846,0.9999972,-5.0906565e-05,5.0713432e-05,-0.0023911002,2
14120000,-0.004720943,0.0009623822,0.001719899,0.9793692,-0.008348789,-0.0124892,0.2015199,0.9999972,-5.0906565e-05,5.0713432e-05,-0.0023911002,2
14152000,0.0056667654,-0.004072831,-0.0026146977,0.97936726,-0.008380473,-0.0124916965,0.20152825,0.9999972,-5.0906565e-05,5.0713432e-05,-0.0023911002,2
14184000,0.00015036308,0.007372988,-0.0014603805,0.97936535,-0.008349305,-0.012450805,0.20154113,0.9999972,-5.0906565e-05,5.0713432e-05,-0.0023911002,2
14216000,-0.0019444249,-0.00891835,-0.0011418493,0.9793671,-0.0083485395,-0.012483119,0.2015308,0.9999972,-5.0906565e-05,5.0713432e-05,-0.0023911002,2
14248000,0.0011305368,0.0003803065,-0.008028659,0.9793741,-0.008389867,-0.012479886,0.20149505,0.9999972,-5.0906565e-05,5.0713432e-05,-0.0023911002,2
14284000,-0.0043206927,-0.0013115043,-0.0040837736,0.9793829,-0.008398297,-0.012436196,0.20145485,0.9999972,-5.0906565e-05,5.0713432e-05,-0.0023911002,2
14312000,-0.00015565299,0.005245122,-0.0009380464,0.9793831,-0.0083647845,-0.012446579,0.20145455,0.9999972,-5.0906565e-05,5.0713432e-05,-0.0023911002,2
14344000,-0.004270461,0.009476404,-0.0015509459,0.97937924,-0.008377499,-0.012384435,0.20147638,0.9999972,-5.0906565e-05,5.0713432e-05,-0.0023911002,2
14376000,-0.006332187,0.0007779249,0.00074667943,0.9793831,-0.00839137,-0.012359337,0.20145886,0.9999972,-5.0906565e-05,5.0713432e-05,-0.0023911002,2
14412000,-0.002142847,-0.0038663647,-0.0024234056,0.97938913,-0.008366716,-0.012341408,0.20143169,0.9999972,-5.0906565e-05,5.0713432e-05,-0.0023911002,2
14440000,-0.00045599986,-0.0014258698,0.0033586184,0.9793889,-0.008375497,-0.012357693,0.2014316,0.9999972,-5.0906565e-05,5.0713432e-05,-0.0023911002,2
14476000,-0.0014577276,-0.0014322656,-0.005488009,0.97938704,-0.008358767,-0.012371643,0.20144024,0.9999972,-5.0906565e-05,5.0713432e-05,-0.0023911002,2
14504000,-0.004284911,-0.003967734,-0.00061712373,0.97938615,-0.008360705,-0.012336713,0.20144649,0.9999972,-5.0906565e-05,5.0713432e-05,-0.0023911002,2
14536000,-0.007874485,0.0013429667,0.0029887098,0.9793973,-0.008334969,-0.0123143755,0.2013948,0.9999972,-5.0906565e-05,5.0713432e-05,-0.0023911002,2
14572000,0.0005295391,0.0018578507,-0.0027577481,0.97940665,-0.008342281,-0.012241749,0.20135355,0.9999972,-5.0906565e-05,5.0713432e-05,-0.0023911002,2
14600000,-0.006239338,-0.00247197,-0.00065788487,0.9794118,-0.008374924,-0.012289774,0.20132405,0.9999972,-5.0906565e-05,5.0713432e-05,-0.0023911002,2
14632000,0.008944469,0.0016106451,-0.000117439056,0.9794142,-0.008349053,-0.012288562,0.20131378,0.9999972,-5.0906565e-05,5.0713432e-05,-0.0023911002,2
14664000,-0.0020265756,-0.006138058,0.00081442954,0.979424,-0.0083089005,-0.012302457,0.201267,0.9999972,-5.0906565e-05,5.0713432e-05,-0.0023911002,2
14696000,-0.0009776973,-0.0031912946,-0.0050215605,0.97943497,-0.0083330525,-0.012370439,0.2012084,0.9999972,-5.0906565e-05,5.0713432e-05,-0.0023911002,2
14732000,-0.0018071706,0.0047913194,0.0027329016,0.9794388,-0.008292329,-0.012342158,0.20119311,0.9999972,-5.0906565e-05,5.0713432e-05,-0.0023911002,2
14764000,-0.0016359767,-0.0013684272,-0.0069898046,0.9794391,-0.00828158,-0.012336829,0.20119229,0.9999972,-5.0906565e-05,5.0713432e-05,-0.0023911002,2
14792000,0.0020907377,0.0004577092,-0.0027232866,0.9794473,-0.008299756,-0.012364248,0.2011501,0.9999972,-5.0906565e-05,5.0713432e-05,-0.0023911002,2
14824000,-0.0008876147,-0.0026398748,0.0022725514,0.9794482,-0.008303879,-0.012372441,0.20114452,0.9999972,-5.0906565e-05,5.0713432e-05,-0.0023911002,2
14856000,0.0033669164,-0.009389585,0.0036978498,0.9794423,-0.008283395,-0.012381404,0.20117408,0.9999972,-5.0906565e-05,5.0713432e-05,-0.0023911002,2
14888000,-5.879323e-06,0.00707357,-0.0017307799,0.9794345,-0.00828823,-0.0123255905,0.20121543,0.9999972,-5.0906565e-05,5.0713432e-05,-0.0023911002,2
14920000,0.003637321,0.0060754726,-0.0020541376,0.9794357,-0.008288728,-0.01229892,0.2012113,0.9999972,-5.0906565e-05,5.0713432e-05,-0.0023911002,2
14956000,0.008339953,0.0036295368,0.00894529,0.9794335,-0.008276997,-0.0122763775,0.20122363,0.9999972,-5.0906565e-05,5.0713432e-05,-0.0023911002,2
14984000,0.0076170163,0.0023668718,-0.011038631,0.979438,-0.008220831,-0.012231446,0.20120643,0.9999972,-5.0906565e-05,5.0713432e-05,-0.0023911002,2
15016000,-0.0029286442,-0.0030814041,0.0016630413,0.9794438,-0.008225253,-0.012230588,0.20117854,0.9999972,-5.0906565e-05,5.0713432e-05,-0.0023911002,2
15052000,-0.0006460567,0.004059406,-0.004619484,0.9794424,-0.008201363,-0.012253005,0.20118435,0.9999972,-5.0906565e-05,5.0713432e-05,-0.0023911002,2
15080000,-0.0027631866,-0.0032647955,0.0032462892,0.9794363,-0.008226783,-0.012245365,0.20121388,0.9999972,-5.0906565e-05,5.0713432e-05,-0.0023911002,2
15112000,0.0015544766,-0.0024816808,0.003664495,0.97944146,-0.008259036,-0.012218529,0.20118876,0.9999972,-5.0906565e-05,5.0713432e-05,-0.0023911002,2
15144000,0.0030443603,-0.003705666,-0.0038827024,0.97944176,-0.008188451,-0.012212867,0.2011908,0.9999972,-5.0906565e-05,5.0713432e-05,-0.0023911002,2
15176000,-0.0038361081,-0.00047676777,0.0029653867,0.9794348,-0.008195756,-0.012203157,0.20122503,0.9999972,-5.0906565e-05,5.0713432e-05,-0.0023911002,2
15212000,0.0030623968,9.025214e-05,0.0050345343,0.97942865,-0.008192312,-0.012159399,0.20125735,0.9999972,-5.0906565e-05,5.0713432e-05,-0.0023911002,2
15240000,-0.0029008503,0.0057953345,-0.005345805,0.97942567,-0.008175324,-0.012127553,0.20127456,0.9999972,-5.0906565e-05,5.0713432e-05,-0.0023911002,2
15272000,0.004273736,0.0036992843,-0.0037009947,0.9794251,-0.0082062045,-0.012076723,0.20127943,0.9999972,-5.0906565e-05,5.0713432e-05,-0.0023911002,2
15308000,-0.0023592992,-0.0010744925,0.0010620527,0.9794179,-0.008191028,-0.012040612,0.20131707,0.9999972,-5.0906565e-05,5.0713432e-05,-0.0023911002,2
15336000,0.0030743126,0.003843722,0.0022931492,0.9794153,-0.008166745,-0.012000565,0.20133318,0.9999972,-5.0906565e-05,5.0713432e-05,-0.0023911002,2
15368000,-0.00511988,-0.001959459,-0.0018172229,0.97942126,-0.008199094,-0.011981332,0.20130381,0.9999972,-5.0906565e-05,5.0713432e-05,-0.0023911002,2
15400000,0.005935666,-0.004433075,0.00011089469,0.9794212,-0.0081879,-0.0119836,0.20130488,0.9999972,-5.0906565e-05,5.0713432e-05,-0.0023911002,2
15432000,-0.003247945,0.0035293717,-0.006953333,0.9794171,-0.008201679,-0.01196667,0.20132487,0.9999972,-5.0906565e-05,5.0713432e-05,-0.0023911002,2
15464000,-0.008516695,0.0024711138,0.0003545358,0.97941744,-0.008232473,-0.011923417,0.20132476,0.9999972,-5.0906565e-05,5.0713432e-05,-0.0023911002,2
15496000,0.0070624948,0.0021668074,-0.0023100302,0.9794177,-0.008187227,-0.011913216,0.2013257,0.9999972,-5.0906565e-05,5.0713432e-05,-0.0023911002,2
15528000,-0.0017050522,0.0032321443,-0.0007850492,0.9794106,-0.008197208,-0.011901797,0.20136073,0.9999972,-5.0906565e-05,5.0713432e-05,-0.0023911002,2
15564000,0.0070052394,0.0016267817,-0.005690025,0.9794075,-0.008175567,-0.0118702175,0.20137869,0.9999972,-5.0906565e-05,5.0713432e-05,-0.0023911002,2
15592000,0.004622768,1.2194272e-05,-0.0025271582,0.97940785,-0.008149136,-0.011873842,0.20137763,0.9999972,-5.0906565e-05,5.0713432e-05,-0.0023911002,2
15624000,-0.0011269619,0.0017743129,0.0035248287,0.9794007,-0.0081539415,-0.01185887,0.20141305,0.9999972,-5.0906565e-05,5.0713432e-05,-0.0023911002,2
15660000,-0.00071583316,0.0004293099,0.0036940058,0.97939545,-0.008179143,-0.011831301,0.20143932,0.9999972,-5.0906565e-05,5.0713432e-05,-0.0023911002,2
15688000,-0.0022538211,-0.0016340506,-0.0003757581,0.97938484,-0.008243953,-0.011820813,0.20148888,0.9999972,-5.0906565e-05,5.0713432e-05,-0.0023911002,2
15720000,-0.001227924,-0.004077521,0.0028106289,0.97936773,-0.008272033,-0.011802733,0.20157155,0.9999972,-5.0906565e-05,5.0713432e-05,-0.0023911002,2
15752000,-0.0070666187,0.0010073176,0.0018520879,0.9793618,-0.008278018,-0.0117892,0.2016012,0.9999972,-5.0906565e-05,5.0713432e-05,-0.0023911002,2
15784000,-0.003714142,0.0032960007,-0.004871717,0.9793681,-0.00830903,-0.011747754,0.20157163,0.9999972,-5.0906565e-05,5.0713432e-05,-0.0023911002,2
15816000,-0.0015170092,0.0030590505,0.003386285,0.97936213,-0.008319893,-0.011701838,0.20160308,0.9999972,-5.0906565e-05,5.0713432e-05,-0.0023911002,2
15852000,-9.091431e-05,0.006872448,0.0061380435,0.97935224,-0.008325554,-0.01164242,0.20165436,0.9999972,-5.0906565e-05,5.0713432e-05,-0.0023911002,2
15884000,-0.008293867,0.011543612,0.002904423,0.9793515,-0.008407119,-0.0116373375,0.20165452,0.9999972,-5.0906565e-05,5.0713432e-05,-0.0023911002,2
15912000,0.0029896526,-0.0020694225,0.000587181,0.97935164,-0.008385116,-0.011663792,0.20165353,0.9999972,-5.0906565e-05,5.0713432e-05,-0.0023911002,2
15944000,-0.006299354,0.00093845744,0.005885144,0.9793543,-0.0083449185,-0.011661284,0.2016425,0.9999972,-5.0906565e-05,5.0713432e-05,-0.0023911002,2
15980000,0.006743921,-0.0051951883,-0.0027308336,0.97934073,-0.00840959,-0.011642172,0.20170659,0.9999972,-5.0906565e-05,5.0713432e-05,-0.0023911002,2
16011999,-0.004788343,0.0064759916,-0.002146427,0.9793476,-0.008452656,-0.011617471,0.20167294,0.9999972,-5.0906565e-05,5.0713432e-05,-0.0023911002,2
16040000,-0.0041135848,-0.0011102767,0.0006941621,0.97934955,-0.008455561,-0.011655912,0.20166123,0.9999972,-5.0906565e-05,5.0713432e-05,-0.0023911002,2
16072000,-0.00039990502,0.0016456861,0.0023038832,0.9793489,-0.008477584,-0.011665053,0.20166273,0.9999972,-5.0906565e-05,5.0713432e-05,-0.0023911002,2
16104000,0.0011829521,0.0007115677,-0.00023394343,0.9793375,-0.008471354,-0.011647919,0.20171918,0.9999972,-5.0906565e-05,5.0713432e-05,-0.0023911002,2
16136000,0.0006895823,-0.0026415735,-0.0008680123,0.97933584,-0.008448482,-0.011591383,0.20173131,0.9999972,-5.0906565e-05,5.0713432e-05,-0.0023911002,2
