timestamp,voltage_v,voltage_filtered_v,current_a,current_filtered_a,average_current_a,discharged_mah,remaining,scale,temperature,cell_count,voltage_cell_v[0],voltage_cell_v[1],voltage_cell_v[2],voltage_cell_v[3],max_cell_voltage_delta,capacity,cycle_count,run_time_to_empty,average_time_to_empty,serial_number,connected,system_source,priority,is_powering_off,warning
1920000,12.150001,12.150001,-1.0,-1.0,0.0,0.0,1.0,1.0,0.0,3,0.0,0.0,0.0,0.0,0.0,0,0,0,0,0,1,1,0,0,0
2424000,12.150001,12.150001,-1.0,-1.0,0.0,0.0,1.0,1.0,0.0,3,0.0,0.0,0.0,0.0,0.0,0,0,0,0,0,1,1,0,0,0
2916000,12.150001,12.150001,-1.0,-1.0,0.0,0.0,1.0,1.0,0.0,3,0.0,0.0,0.0,0.0,0.0,0,0,0,0,0,1,1,0,0,0
3420000,12.150001,12.150001,-1.0,-1.0,0.0,0.0,1.0,1.0,0.0,3,0.0,0.0,0.0,0.0,0.0,0,0,0,0,0,1,1,0,0,0
3924000,12.150001,12.150001,-1.0,-1.0,0.0,0.0,1.0,1.0,0.0,3,0.0,0.0,0.0,0.0,0.0,0,0,0,0,0,1,1,0,0,0
4416000,12.150001,12.150001,-1.0,-1.0,0.0,0.0,1.0,1.0,0.0,3,0.0,0.0,0.0,0.0,0.0,0,0,0,0,0,1,1,0,0,0
4920000,12.150001,12.150001,-1.0,-1.0,0.0,0.0,1.0,1.0,0.0,3,0.0,0.0,0.0,0.0,0.0,0,0,0,0,0,1,1,0,0,0
5424000,12.150001,12.150001,-1.0,-1.0,0.0,0.0,1.0,1.0,0.0,3,0.0,0.0,0.0,0.0,0.0,0,0,0,0,0,1,1,0,0,0
5916000,12.150001,12.150001,-1.0,-1.0,0.0,0.0,1.0,1.0,0.0,3,0.0,0.0,0.0,0.0,0.0,0,0,0,0,0,1,1,0,0,0
6420000,12.150001,12.150001,-1.0,-1.0,0.0,0.0,1.0,1.0,0.0,3,0.0,0.0,0.0,0.0,0.0,0,0,0,0,0,1,1,0,0,0
6924000,12.150001,12.150001,-1.0,-1.0,0.0,0.0,1.0,1.0,0.0,3,0.0,0.0,0.0,0.0,0.0,0,0,0,0,0,1,1,0,0,0
7416000,12.150001,12.150001,-1.0,-1.0,0.0,0.0,1.0,1.0,0.0,3,0.0,0.0,0.0,0.0,0.0,0,0,0,0,0,1,1,0,0,0
7920000,12.150001,12.150001,-1.0,-1.0,0.0,0.0,1.0,1.0,0.0,3,0.0,0.0,0.0,0.0,0.0,0,0,0,0,0,1,1,0,0,0
8424000,12.150001,12.150001,-1.0,-1.0,0.0,0.0,1.0,1.0,0.0,3,0.0,0.0,0.0,0.0,0.0,0,0,0,0,0,1,1,0,0,0
8916000,12.150001,12.150001,-1.0,-1.0,0.0,0.0,1.0,1.0,0.0,3,0.0,0.0,0.0,0.0,0.0,0,0,0,0,0,1,1,0,0,0
9420000,12.150001,12.150001,-1.0,-1.0,0.0,0.0,1.0,1.0,0.0,3,0.0,0.0,0.0,0.0,0.0,0,0,0,0,0,1,1,0,0,0
9924000,12.150001,12.150001,-1.0,-1.0,0.0,0.0,1.0,1.0,0.0,3,0.0,0.0,0.0,0.0,0.0,0,0,0,0,0,1,1,0,0,0
10416000,12.150001,12.150001,-1.0,-1.0,0.0,0.0,1.0,1.0,0.0,3,0.0,0.0,0.0,0.0,0.0,0,0,0,0,0,1,1,0,0,0
10920000,12.150001,12.150001,-1.0,-1.0,0.0,0.0,1.0,1.0,0.0,3,0.0,0.0,0.0,0.0,0.0,0,0,0,0,0,1,1,0,0,0
11424000,12.150001,12.150001,-1.0,-1.0,0.0,0.0,1.0,1.0,0.0,3,0.0,0.0,0.0,0.0,0.0,0,0,0,0,0,1,1,0,0,0
11916000,12.150001,12.150001,-1.0,-1.0,0.0,0.0,1.0,1.0,0.0,3,0.0,0.0,0.0,0.0,0.0,0,0,0,0,0,1,1,0,0,0
12420000,12.150001,12.150001,-1.0,-1.0,0.0,0.0,1.0,1.0,0.0,3,0.0,0.0,0.0,0.0,0.0,0,0,0,0,0,1,1,0,0,0
12924000,12.150001,12.150001,-1.0,-1.0,0.0,0.0,1.0,1.0,0.0,3,0.0,0.0,0.0,0.0,0.0,0,0,0,0,0,1,1,0,0,0
13416000,12.150001,12.150001,-1.0,-1.0,0.0,0.0,1.0,1.0,0.0,3,0.0,0.0,0.0,0.0,0.0,0,0,0,0,0,1,1,0,0,0
13920000,12.150001,12.150001,-1.0,-1.0,0.0,0.0,1.0,1.0,0.0,3,0.0,0.0,0.0,0.0,0.0,0,0,0,0,0,1,1,0,0,0
14424000,12.150001,12.150001,-1.0,-1.0,0.0,0.0,1.0,1.0,0.0,3,0.0,0.0,0.0,0.0,0.0,0,0,0,0,0,1,1,0,0,0
14916000,12.150001,12.150001,-1.0,-1.0,0.0,0.0,1.0,1.0,0.0,3,0.0,0.0,0.0,0.0,0.0,0,0,0,0,0,1,1,0,0,0
15420000,12.150001,12.150001,-1.0,-1.0,0.0,0.0,1.0,1.0,0.0,3,0.0,0.0,0.0,0.0,0.0,0,0,0,0,0,1,1,0,0,0
15924000,12.150001,12.150001,-1.0,-1.0,0.0,0.0,1.0,1.0,0.0,3,0.0,0.0,0.0,0.0,0.0,0,0,0,0,0,1,1,0,0,0
16416000,12.150001,12.150001,-1.0,-1.0,0.0,0.0,1.0,1.0,0.0,3,0.0,0.0,0.0,0.0,0.0,0,0,0,0,0,1,1,0,0,0
16920000,12.150001,12.150001,-1.0,-1.0,0.0,0.0,1.0,1.0,0.0,3,0.0,0.0,0.0,0.0,0.0,0,0,0,0,0,1,1,0,0,0
17424000,12.150001,12.150001,-1.0,-1.0,0.0,0.0,1.0,1.0,0.0,3,0.0,0.0,0.0,0.0,0.0,0,0,0,0,0,1,1,0,0,0
17916000,12.150001,12.150001,-1.0,-1.0,0.0,0.0,1.0,1.0,0.0,3,0.0,0.0,0.0,0.0,0.0,0,0,0,0,0,1,1,0,0,0
18420000,12.150001,12.150001,-1.0,-1.0,0.0,0.0,1.0,1.0,0.0,3,0.0,0.0,0.0,0.0,0.0,0,0,0,0,0,1,1,0,0,0
18924000,12.150001,12.150001,-1.0,-1.0,0.0,0.0,1.0,1.0,0.0,3,0.0,0.0,0.0,0.0,0.0,0,0,0,0,0,1,1,0,0,0
19416000,12.150001,12.150001,-1.0,-1.0,0.0,0.0,1.0,1.0,0.0,3,0.0,0.0,0.0,0.0,0.0,0,0,0,0,0,1,1,0,0,0
19920000,12.150001,12.150001,-1.0,-1.0,0.0,0.0,1.0,1.0,0.0,3,0.0,0.0,0.0,0.0,0.0,0,0,0,0,0,1,1,0,0,0
20424000,12.150001,12.150001,-1.0,-1.0,0.0,0.0,1.0,1.0,0.0,3,0.0,0.0,0.0,0.0,0.0,0,0,0,0,0,1,1,0,0,0
20916000,12.150001,12.150001,-1.0,-1.0,0.0,0.0,1.0,1.0,0.0,3,0.0,0.0,0.0,0.0,0.0,0,0,0,0,0,1,1,0,0,0
21420000,12.150001,12.150001,-1.0,-1.0,0.0,0.0,1.0,1.0,0.0,3,0.0,0.0,0.0,0.0,0.0,0,0,0,0,0,1,1,0,0,0
21924000,12.150001,12.150001,-1.0,-1.0,0.0,0.0,1.0,1.0,0.0,3,0.0,0.0,0.0,0.0,0.0,0,0,0,0,0,1,1,0,0,0
22416000,12.150001,12.150001,-1.0,-1.0,0.0,0.0,1.0,1.0,0.0,3,0.0,0.0,0.0,0.0,0.0,0,0,0,0,0,1,1,0,0,0
22920000,12.150001,12.150001,-1.0,-1.0,0.0,0.0,1.0,1.0,0.0,3,0.0,0.0,0.0,0.0,0.0,0,0,0,0,0,1,1,0,0,0
23424000,12.150001,12.150001,-1.0,-1.0,0.0,0.0,1.0,1.0,0.0,3,0.0,0.0,0.0,0.0,0.0,0,0,0,0,0,1,1,0,0,0
23916000,12.150001,12.150001,-1.0,-1.0,0.0,0.0,1.0,1.0,0.0,3,0.0,0.0,0.0,0.0,0.0,0,0,0,0,0,1,1,0,0,0
24420000,12.150001,12.150001,-1.0,-1.0,0.0,0.0,1.0,1.0,0.0,3,0.0,0.0,0.0,0.0,0.0,0,0,0,0,0,1,1,0,0,0
24924000,12.150001,12.150001,-1.0,-1.0,0.0,0.0,1.0,1.0,0.0,3,0.0,0.0,0.0,0.0,0.0,0,0,0,0,0,1,1,0,0,0
25416000,12.150001,12.150001,-1.0,-1.0,0.0,0.0,1.0,1.0,0.0,3,0.0,0.0,0.0,0.0,0.0,0,0,0,0,0,1,1,0,0,0
25920000,12.150001,12.150001,-1.0,-1.0,0.0,0.0,1.0,1.0,0.0,3,0.0,0.0,0.0,0.0,0.0,0,0,0,0,0,1,1,0,0,0
26424000,12.150001,12.150001,-1.0,-1.0,0.0,0.0,1.0,1.0,0.0,3,0.0,0.0,0.0,0.0,0.0,0,0,0,0,0,1,1,0,0,0
26916000,12.150001,12.150001,-1.0,-1.0,0.0,0.0,1.0,1.0,0.0,3,0.0,0.0,0.0,0.0,0.0,0,0,0,0,0,1,1,0,0,0
27420000,12.150001,12.150001,-1.0,-1.0,0.0,0.0,1.0,1.0,0.0,3,0.0,0.0,0.0,0.0,0.0,0,0,0,0,0,1,1,0,0,0
27924000,12.150001,12.150001,-1.0,-1.0,0.0,0.0,1.0,1.0,0.0,3,0.0,0.0,0.0,0.0,0.0,0,0,0,0,0,1,1,0,0,0
28416000,12.150001,12.150001,-1.0,-1.0,0.0,0.0,1.0,1.0,0.0,3,0.0,0.0,0.0,0.0,0.0,0,0,0,0,0,1,1,0,0,0
28920000,12.150001,12.150001,-1.0,-1.0,0.0,0.0,1.0,1.0,0.0,3,0.0,0.0,0.0,0.0,0.0,0,0,0,0,0,1,1,0,0,0
29424000,12.150001,12.150001,-1.0,-1.0,0.0,0.0,1.0,1.0,0.0,3,0.0,0.0,0.0,0.0,0.0,0,0,0,0,0,1,1,0,0,0
29916000,12.150001,12.150001,-1.0,-1.0,0.0,0.0,1.0,1.0,0.0,3,0.0,0.0,0.0,0.0,0.0,0,0,0,0,0,1,1,0,0,0
30420000,12.150001,12.150001,-1.0,-1.0,0.0,0.0,1.0,1.0,0.0,3,0.0,0.0,0.0,0.0,0.0,0,0,0,0,0,1,1,0,0,0
30924000,12.150001,12.150001,-1.0,-1.0,0.0,0.0,1.0,1.0,0.0,3,0.0,0.0,0.0,0.0,0.0,0,0,0,0,0,1,1,0,0,0
31416000,12.150001,12.150001,-1.0,-1.0,0.0,0.0,1.0,1.0,0.0,3,0.0,0.0,0.0,0.0,0.0,0,0,0,0,0,1,1,0,0,0
31920000,12.150001,12.150001,-1.0,-1.0,0.0,0.0,1.0,1.0,0.0,3,0.0,0.0,0.0,0.0,0.0,0,0,0,0,0,1,1,0,0,0
32423999,12.150001,12.150001,-1.0,-1.0,0.0,0.0,1.0,1.0,0.0,3,0.0,0.0,0.0,0.0,0.0,0,0,0,0,0,1,1,0,0,0
32928000,12.150001,12.150001,-1.0,-1.0,0.0,0.0,1.0,1.0,0.0,3,0.0,0.0,0.0,0.0,0.0,0,0,0,0,0,1,1,0,0,0
33420000,12.150001,12.150001,-1.0,-1.0,0.0,0.0,1.0,1.0,0.0,3,0.0,0.0,0.0,0.0,0.0,0,0,0,0,0,1,1,0,0,0
33924000,12.150001,12.150001,-1.0,-1.0,0.0,0.0,1.0,1.0,0.0,3,0.0,0.0,0.0,0.0,0.0,0,0,0,0,0,1,1,0,0,0
34428000,12.150001,12.150001,-1.0,-1.0,0.0,0.0,1.0,1.0,0.0,3,0.0,0.0,0.0,0.0,0.0,0,0,0,0,0,1,1,0,0,0
34920000,12.150001,12.150001,-1.0,-1.0,0.0,0.0,1.0,1.0,0.0,3,0.0,0.0,0.0,0.0,0.0,0,0,0,0,0,1,1,0,0,0
35424000,12.150001,12.150001,-1.0,-1.0,0.0,0.0,1.0,1.0,0.0,3,0.0,0.0,0.0,0.0,0.0,0,0,0,0,0,1,1,0,0,0
35928000,12.150001,12.150001,-1.0,-1.0,0.0,0.0,1.0,1.0,0.0,3,0.0,0.0,0.0,0.0,0.0,0,0,0,0,0,1,1,0,0,0
36420000,12.150001,12.150001,-1.0,-1.0,0.0,0.0,1.0,1.0,0.0,3,0.0,0.0,0.0,0.0,0.0,0,0,0,0,0,1,1,0,0,0
36924000,12.150001,12.150001,-1.0,-1.0,0.0,0.0,1.0,1.0,0.0,3,0.0,0.0,0.0,0.0,0.0,0,0,0,0,0,1,1,0,0,0
37428000,12.150001,12.150001,-1.0,-1.0,0.0,0.0,1.0,1.0,0.0,3,0.0,0.0,0.0,0.0,0.0,0,0,0,0,0,1,1,0,0,0
37920000,12.150001,12.150001,-1.0,-1.0,0.0,0.0,1.0,1.0,0.0,3,0.0,0.0,0.0,0.0,0.0,0,0,0,0,0,1,1,0,0,0
38424000,12.150001,12.150001,-1.0,-1.0,0.0,0.0,1.0,1.0,0.0,3,0.0,0.0,0.0,0.0,0.0,0,0,0,0,0,1,1,0,0,0
38928000,12.150001,12.150001,-1.0,-1.0,0.0,0.0,1.0,1.0,0.0,3,0.0,0.0,0.0,0.0,0.0,0,0,0,0,0,1,1,0,0,0
39420000,12.150001,12.150001,-1.0,-1.0,0.0,0.0,1.0,1.0,0.0,3,0.0,0.0,0.0,0.0,0.0,0,0,0,0,0,1,1,0,0,0
39924000,12.150001,12.150001,-1.0,-1.0,0.0,0.0,1.0,1.0,0.0,3,0.0,0.0,0.0,0.0,0.0,0,0,0,0,0,1,1,0,0,0
40428000,12.150001,12.150001,-1.0,-1.0,0.0,0.0,1.0,1.0,0.0,3,0.0,0.0,0.0,0.0,0.0,0,0,0,0,0,1,1,0,0,0
40920000,12.150001,12.150001,-1.0,-1.0,0.0,0.0,1.0,1.0,0.0,3,0.0,0.0,0.0,0.0,0.0,0,0,0,0,0,1,1,0,0,0
41424000,12.150001,12.150001,-1.0,-1.0,0.0,0.0,1.0,1.0,0.0,3,0.0,0.0,0.0,0.0,0.0,0,0,0,0,0,1,1,0,0,0
41928000,12.150001,12.150001,-1.0,-1.0,0.0,0.0,1.0,1.0,0.0,3,0.0,0.0,0.0,0.0,0.0,0,0,0,0,0,1,1,0,0,0
42420000,12.150001,12.150001,-1.0,-1.0,0.0,0.0,1.0,1.0,0.0,3,0.0,0.0,0.0,0.0,0.0,0,0,0,0,0,1,1,0,0,0
42924000,12.150001,12.150001,-1.0,-1.0,0.0,0.0,1.0,1.0,0.0,3,0.0,0.0,0.0,0.0,0.0,0,0,0,0,0,1,1,0,0,0
43428000,12.150001,12.150001,-1.0,-1.0,0.0,0.0,1.0,1.0,0.0,3,0.0,0.0,0.0,0.0,0.0,0,0,0,0,0,1,1,0,0,0
43920000,12.150001,12.150001,-1.0,-1.0,0.0,0.0,1.0,1.0,0.0,3,0.0,0.0,0.0,0.0,0.0,0,0,0,0,0,1,1,0,0,0
44424000,12.150001,12.150001,-1.0,-1.0,0.0,0.0,1.0,1.0,0.0,3,0.0,0.0,0.0,0.0,0.0,0,0,0,0,0,1,1,0,0,0
44928000,12.150001,12.150001,-1.0,-1.0,0.0,0.0,1.0,1.0,0.0,3,0.0,0.0,0.0,0.0,0.0,0,0,0,0,0,1,1,0,0,0
45420000,12.150001,12.150001,-1.0,-1.0,0.0,0.0,1.0,1.0,0.0,3,0.0,0.0,0.0,0.0,0.0,0,0,0,0,0,1,1,0,0,0
45924000,12.150001,12.150001,-1.0,-1.0,0.0,0.0,1.0,1.0,0.0,3,0.0,0.0,0.0,0.0,0.0,0,0,0,0,0,1,1,0,0,0
46428000,12.150001,12.150001,-1.0,-1.0,0.0,0.0,1.0,1.0,0.0,3,0.0,0.0,0.0,0.0,0.0,0,0,0,0,0,1,1,0,0,0
46920000,12.150001,12.150001,-1.0,-1.0,0.0,0.0,1.0,1.0,0.0,3,0.0,0.0,0.0,0.0,0.0,0,0,0,0,0,1,1,0,0,0
47424000,12.150001,12.150001,-1.0,-1.0,0.0,0.0,1.0,1.0,0.0,3,0.0,0.0,0.0,0.0,0.0,0,0,0,0,0,1,1,0,0,0
47928000,12.150001,12.150001,-1.0,-1.0,0.0,0.0,1.0,1.0,0.0,3,0.0,0.0,0.0,0.0,0.0,0,0,0,0,0,1,1,0,0,0
48420000,12.150001,12.150001,-1.0,-1.0,0.0,0.0,1.0,1.0,0.0,3,0.0,0.0,0.0,0.0,0.0,0,0,0,0,0,1,1,0,0,0
48924000,12.150001,12.150001,-1.0,-1.0,0.0,0.0,1.0,1.0,0.0,3,0.0,0.0,0.0,0.0,0.0,0,0,0,0,0,1,1,0,0,0
49428000,12.150001,12.150001,-1.0,-1.0,0.0,0.0,1.0,1.0,0.0,3,0.0,0.0,0.0,0.0,0.0,0,0,0,0,0,1,1,0,0,0
49920000,12.150001,12.150001,-1.0,-1.0,0.0,0.0,1.0,1.0,0.0,3,0.0,0.0,0.0,0.0,0.0,0,0,0,0,0,1,1,0,0,0
50424000,12.150001,12.150001,-1.0,-1.0,0.0,0.0,1.0,1.0,0.0,3,0.0,0.0,0.0,0.0,0.0,0,0,0,0,0,1,1,0,0,0
50928000,12.150001,12.150001,-1.0,-1.0,0.0,0.0,1.0,1.0,0.0,3,0.0,0.0,0.0,0.0,0.0,0,0,0,0,0,1,1,0,0,0
51420000,12.150001,12.150001,-1.0,-1.0,0.0,0.0,1.0,1.0,0.0,3,0.0,0.0,0.0,0.0,0.0,0,0,0,0,0,1,1,0,0,0
51924000,12.150001,12.150001,-1.0,-1.0,0.0,0.0,1.0,1.0,0.0,3,0.0,0.0,0.0,0.0,0.0,0,0,0,0,0,1,1,0,0,0
52428000,12.150001,12.150001,-1.0,-1.0,0.0,0.0,1.0,1.0,0.0,3,0.0,0.0,0.0,0.0,0.0,0,0,0,0,0,1,1,0,0,0
52920000,12.150001,12.150001,-1.0,-1.0,0.0,0.0,1.0,1.0,0.0,3,0.0,0.0,0.0,0.0,0.0,0,0,0,0,0,1,1,0,0,0
53424000,12.150001,12.150001,-1.0,-1.0,0.0,0.0,1.0,1.0,0.0,3,0.0,0.0,0.0,0.0,0.0,0,0,0,0,0,1,1,0,0,0
53928000,12.150001,12.150001,-1.0,-1.0,0.0,0.0,1.0,1.0,0.0,3,0.0,0.0,0.0,0.0,0.0,0,0,0,0,0,1,1,0,0,0
54420000,12.150001,12.150001,-1.0,-1.0,0.0,0.0,1.0,1.0,0.0,3,0.0,0.0,0.0,0.0,0.0,0,0,0,0,0,1,1,0,0,0
54924000,12.150001,12.150001,-1.0,-1.0,0.0,0.0,1.0,1.0,0.0,3,0.0,0.0,0.0,0.0,0.0,0,0,0,0,0,1,1,0,0,0
55428000,12.150001,12.150001,-1.0,-1.0,0.0,0.0,1.0,1.0,0.0,3,0.0,0.0,0.0,0.0,0.0,0,0,0,0,0,1,1,0,0,0
55920000,12.150001,12.150001,-1.0,-1.0,0.0,0.0,1.0,1.0,0.0,3,0.0,0.0,0.0,0.0,0.0,0,0,0,0,0,1,1,0,0,0
56424000,12.150001,12.150001,-1.0,-1.0,0.0,0.0,1.0,1.0,0.0,3,0.0,0.0,0.0,0.0,0.0,0,0,0,0,0,1,1,0,0,0
56928000,12.150001,12.150001,-1.0,-1.0,0.0,0.0,1.0,1.0,0.0,3,0.0,0.0,0.0,0.0,0.0,0,0,0,0,0,1,1,0,0,0
57420000,12.150001,12.150001,-1.0,-1.0,0.0,0.0,1.0,1.0,0.0,3,0.0,0.0,0.0,0.0,0.0,0,0,0,0,0,1,1,0,0,0
57924000,12.150001,12.150001,-1.0,-1.0,0.0,0.0,1.0,1.0,0.0,3,0.0,0.0,0.0,0.0,0.0,0,0,0,0,0,1,1,0,0,0
58428000,12.150001,12.150001,-1.0,-1.0,0.0,0.0,1.0,1.0,0.0,3,0.0,0.0,0.0,0.0,0.0,0,0,0,0,0,1,1,0,0,0
58920000,12.150001,12.150001,-1.0,-1.0,0.0,0.0,1.0,1.0,0.0,3,0.0,0.0,0.0,0.0,0.0,0,0,0,0,0,1,1,0,0,0
59424000,12.150001,12.150001,-1.0,-1.0,0.0,0.0,1.0,1.0,0.0,3,0.0,0.0,0.0,0.0,0.0,0,0,0,0,0,1,1,0,0,0
59916000,12.150001,12.150001,-1.0,-1.0,0.0,0.0,1.0,1.0,0.0,3,0.0,0.0,0.0,0.0,0.0,0,0,0,0,0,1,1,0,0,0
60420000,12.150001,12.150001,-1.0,-1.0,0.0,0.0,1.0,1.0,0.0,3,0.0,0.0,0.0,0.0,0.0,0,0,0,0,0,1,1,0,0,0
60924000,12.150001,12.150001,-1.0,-1.0,0.0,0.0,1.0,1.0,0.0,3,0.0,0.0,0.0,0.0,0.0,0,0,0,0,0,1,1,0,0,0
61428000,12.150001,12.150001,-1.0,-1.0,0.0,0.0,1.0,1.0,0.0,3,0.0,0.0,0.0,0.0,0.0,0,0,0,0,0,1,1,0,0,0
61920000,12.150001,12.150001,-1.0,-1.0,0.0,0.0,1.0,1.0,0.0,3,0.0,0.0,0.0,0.0,0.0,0,0,0,0,0,1,1,0,0,0
62424000,12.150001,12.150001,-1.0,-1.0,0.0,0.0,1.0,1.0,0.0,3,0.0,0.0,0.0,0.0,0.0,0,0,0,0,0,1,1,0,0,0
62928000,12.150001,12.150001,-1.0,-1.0,0.0,0.0,1.0,1.0,0.0,3,0.0,0.0,0.0,0.0,0.0,0,0,0,0,0,1,1,0,0,0
63420000,12.150001,12.150001,-1.0,-1.0,0.0,0.0,1.0,1.0,0.0,3,0.0,0.0,0.0,0.0,0.0,0,0,0,0,0,1,1,0,0,0
63924000,12.150001,12.150001,-1.0,-1.0,0.0,0.0,1.0,1.0,0.0,3,0.0,0.0,0.0,0.0,0.0,0,0,0,0,0,1,1,0,0,0
64428000,12.150001,12.150001,-1.0,-1.0,0.0,0.0,1.0,1.0,0.0,3,0.0,0.0,0.0,0.0,0.0,0,0,0,0,0,1,1,0,0,0
64920000,12.150001,12.150001,-1.0,-1.0,0.0,0.0,1.0,1.0,0.0,3,0.0,0.0,0.0,0.0,0.0,0,0,0,0,0,1,1,0,0,0
65424000,12.150001,12.150001,-1.0,-1.0,0.0,0.0,1.0,1.0,0.0,3,0.0,0.0,0.0,0.0,0.0,0,0,0,0,0,1,1,0,0,0
65928000,12.150001,12.150001,-1.0,-1.0,0.0,0.0,1.0,1.0,0.0,3,0.0,0.0,0.0,0.0,0.0,0,0,0,0,0,1,1,0,0,0
66420000,12.150001,12.150001,-1.0,-1.0,0.0,0.0,1.0,1.0,0.0,3,0.0,0.0,0.0,0.0,0.0,0,0,0,0,0,1,1,0,0,0
66924000,12.150001,12.150001,-1.0,-1.0,0.0,0.0,1.0,1.0,0.0,3,0.0,0.0,0.0,0.0,0.0,0,0,0,0,0,1,1,0,0,0
67428000,12.150001,12.150001,-1.0,-1.0,0.0,0.0,1.0,1.0,0.0,3,0.0,0.0,0.0,0.0,0.0,0,0,0,0,0,1,1,0,0,0
67920000,12.150001,12.150001,-1.0,-1.0,0.0,0.0,1.0,1.0,0.0,3,0.0,0.0,0.0,0.0,0.0,0,0,0,0,0,1,1,0,0,0
68424000,12.150001,12.150001,-1.0,-1.0,0.0,0.0,1.0,1.0,0.0,3,0.0,0.0,0.0,0.0,0.0,0,0,0,0,0,1,1,0,0,0
68928000,12.150001,12.150001,-1.0,-1.0,0.0,0.0,1.0,1.0,0.0,3,0.0,0.0,0.0,0.0,0.0,0,0,0,0,0,1,1,0,0,0
69420000,12.150001,12.150001,-1.0,-1.0,0.0,0.0,1.0,1.0,0.0,3,0.0,0.0,0.0,0.0,0.0,0,0,0,0,0,1,1,0,0,0
69924000,12.150001,12.150001,-1.0,-1.0,0.0,0.0,1.0,1.0,0.0,3,0.0,0.0,0.0,0.0,0.0,0,0,0,0,0,1,1,0,0,0
70428000,12.150001,12.150001,-1.0,-1.0,0.0,0.0,1.0,1.0,0.0,3,0.0,0.0,0.0,0.0,0.0,0,0,0,0,0,1,1,0,0,0
70920000,12.150001,12.150001,-1.0,-1.0,0.0,0.0,1.0,1.0,0.0,3,0.0,0.0,0.0,0.0,0.0,0,0,0,0,0,1,1,0,0,0
71424000,12.150001,12.150001,-1.0,-1.0,0.0,0.0,1.0,1.0,0.0,3,0.0,0.0,0.0,0.0,0.0,0,0,0,0,0,1,1,0,0,0
71928000,12.150001,12.150001,-1.0,-1.0,0.0,0.0,1.0,1.0,0.0,3,0.0,0.0,0.0,0.0,0.0,0,0,0,0,0,1,1,0,0,0
72420000,12.150001,12.150001,-1.0,-1.0,0.0,0.0,1.0,1.0,0.0,3,0.0,0.0,0.0,0.0,0.0,0,0,0,0,0,1,1,0,0,0
72924000,12.150001,12.150001,-1.0,-1.0,0.0,0.0,1.0,1.0,0.0,3,0.0,0.0,0.0,0.0,0.0,0,0,0,0,0,1,1,0,0,0
73428000,12.150001,12.150001,-1.0,-1.0,0.0,0.0,1.0,1.0,0.0,3,0.0,0.0,0.0,0.0,0.0,0,0,0,0,0,1,1,0,0,0
73920000,12.150001,12.150001,-1.0,-1.0,0.0,0.0,1.0,1.0,0.0,3,0.0,0.0,0.0,0.0,0.0,0,0,0,0,0,1,1,0,0,0
74424000,12.150001,12.150001,-1.0,-1.0,0.0,0.0,1.0,1.0,0.0,3,0.0,0.0,0.0,0.0,0.0,0,0,0,0,0,1,1,0,0,0
74928000,12.150001,12.150001,-1.0,-1.0,0.0,0.0,1.0,1.0,0.0,3,0.0,0.0,0.0,0.0,0.0,0,0,0,0,0,1,1,0,0,0
75420000,12.150001,12.150001,-1.0,-1.0,0.0,0.0,1.0,1.0,0.0,3,0.0,0.0,0.0,0.0,0.0,0,0,0,0,0,1,1,0,0,0
75924000,12.150001,12.150001,-1.0,-1.0,0.0,0.0,1.0,1.0,0.0,3,0.0,0.0,0.0,0.0,0.0,0,0,0,0,0,1,1,0,0,0
76428000,12.150001,12.150001,-1.0,-1.0,0.0,0.0,1.0,1.0,0.0,3,0.0,0.0,0.0,0.0,0.0,0,0,0,0,0,1,1,0,0,0
76920000,12.150001,12.150001,-1.0,-1.0,0.0,0.0,1.0,1.0,0.0,3,0.0,0.0,0.0,0.0,0.0,0,0,0,0,0,1,1,0,0,0
77424000,12.150001,12.150001,-1.0,-1.0,0.0,0.0,1.0,1.0,0.0,3,0.0,0.0,0.0,0.0,0.0,0,0,0,0,0,1,1,0,0,0
77928000,12.150001,12.150001,-1.0,-1.0,0.0,0.0,1.0,1.0,0.0,3,0.0,0.0,0.0,0.0,0.0,0,0,0,0,0,1,1,0,0,0
78420000,12.150001,12.150001,-1.0,-1.0,0.0,0.0,1.0,1.0,0.0,3,0.0,0.0,0.0,0.0,0.0,0,0,0,0,0,1,1,0,0,0
78924000,12.150001,12.150001,-1.0,-1.0,0.0,0.0,1.0,1.0,0.0,3,0.0,0.0,0.0,0.0,0.0,0,0,0,0,0,1,1,0,0,0
79428000,12.150001,12.150001,-1.0,-1.0,0.0,0.0,1.0,1.0,0.0,3,0.0,0.0,0.0,0.0,0.0,0,0,0,0,0,1,1,0,0,0
79920000,12.150001,12.150001,-1.0,-1.0,0.0,0.0,1.0,1.0,0.0,3,0.0,0.0,0.0,0.0,0.0,0,0,0,0,0,1,1,0,0,0
80424000,12.150001,12.150001,-1.0,-1.0,0.0,0.0,1.0,1.0,0.0,3,0.0,0.0,0.0,0.0,0.0,0,0,0,0,0,1,1,0,0,0
80928000,12.150001,12.150001,-1.0,-1.0,0.0,0.0,1.0,1.0,0.0,3,0.0,0.0,0.0,0.0,0.0,0,0,0,0,0,1,1,0,0,0
81420000,12.150001,12.150001,-1.0,-1.0,0.0,0.0,1.0,1.0,0.0,3,0.0,0.0,0.0,0.0,0.0,0,0,0,0,0,1,1,0,0,0
81924000,12.150001,12.150001,-1.0,-1.0,0.0,0.0,1.0,1.0,0.0,3,0.0,0.0,0.0,0.0,0.0,0,0,0,0,0,1,1,0,0,0
82428000,12.150001,12.150001,-1.0,-1.0,0.0,0.0,1.0,1.0,0.0,3,0.0,0.0,0.0,0.0,0.0,0,0,0,0,0,1,1,0,0,0
82920000,12.150001,12.150001,-1.0,-1.0,0.0,0.0,1.0,1.0,0.0,3,0.0,0.0,0.0,0.0,0.0,0,0,0,0,0,1,1,0,0,0
83424000,12.150001,12.150001,-1.0,-1.0,0.0,0.0,1.0,1.0,0.0,3,0.0,0.0,0.0,0.0,0.0,0,0,0,0,0,1,1,0,0,0
83928000,12.150001,12.150001,-1.0,-1.0,0.0,0.0,1.0,1.0,0.0,3,0.0,0.0,0.0,0.0,0.0,0,0,0,0,0,1,1,0,0,0
84420000,12.150001,12.150001,-1.0,-1.0,0.0,0.0,1.0,1.0,0.0,3,0.0,0.0,0.0,0.0,0.0,0,0,0,0,0,1,1,0,0,0
84924000,12.150001,12.150001,-1.0,-1.0,0.0,0.0,1.0,1.0,0.0,3,0.0,0.0,0.0,0.0,0.0,0,0,0,0,0,1,1,0,0,0
85428000,12.150001,12.150001,-1.0,-1.0,0.0,0.0,1.0,1.0,0.0,3,0.0,0.0,0.0,0.0,0.0,0,0,0,0,0,1,1,0,0,0
85920000,12.150001,12.150001,-1.0,-1.0,0.0,0.0,1.0,1.0,0.0,3,0.0,0.0,0.0,0.0,0.0,0,0,0,0,0,1,1,0,0,0
86424000,12.150001,12.150001,-1.0,-1.0,0.0,0.0,1.0,1.0,0.0,3,0.0,0.0,0.0,0.0,0.0,0,0,0,0,0,1,1,0,0,0
86928000,12.150001,12.150001,-1.0,-1.0,0.0,0.0,1.0,1.0,0.0,3,0.0,0.0,0.0,0.0,0.0,0,0,0,0,0,1,1,0,0,0
87420000,12.150001,12.150001,-1.0,-1.0,0.0,0.0,1.0,1.0,0.0,3,0.0,0.0,0.0,0.0,0.0,0,0,0,0,0,1,1,0,0,0
87924000,12.150001,12.150001,-1.0,-1.0,0.0,0.0,1.0,1.0,0.0,3,0.0,0.0,0.0,0.0,0.0,0,0,0,0,0,1,1,0,0,0
88428000,12.150001,12.150001,-1.0,-1.0,0.0,0.0,1.0,1.0,0.0,3,0.0,0.0,0.0,0.0,0.0,0,0,0,0,0,1,1,0,0,0
88920000,12.150001,12.150001,-1.0,-1.0,0.0,0.0,1.0,1.0,0.0,3,0.0,0.0,0.0,0.0,0.0,0,0,0,0,0,1,1,0,0,0
89424000,12.150001,12.150001,-1.0,-1.0,0.0,0.0,1.0,1.0,0.0,3,0.0,0.0,0.0,0.0,0.0,0,0,0,0,0,1,1,0,0,0
89928000,12.150001,12.150001,-1.0,-1.0,0.0,0.0,1.0,1.0,0.0,3,0.0,0.0,0.0,0.0,0.0,0,0,0,0,0,1,1,0,0,0
90420000,12.150001,12.150001,-1.0,-1.0,0.0,0.0,1.0,1.0,0.0,3,0.0,0.0,0.0,0.0,0.0,0,0,0,0,0,1,1,0,0,0
90924000,12.150001,12.150001,-1.0,-1.0,0.0,0.0,1.0,1.0,0.0,3,0.0,0.0,0.0,0.0,0.0,0,0,0,0,0,1,1,0,0,0
91428000,12.150001,12.150001,-1.0,-1.0,0.0,0.0,1.0,1.0,0.0,3,0.0,0.0,0.0,0.0,0.0,0,0,0,0,0,1,1,0,0,0
91920000,12.150001,12.150001,-1.0,-1.0,0.0,0.0,1.0,1.0,0.0,3,0.0,0.0,0.0,0.0,0.0,0,0,0,0,0,1,1,0,0,0
92424000,12.150001,12.150001,-1.0,-1.0,0.0,0.0,1.0,1.0,0.0,3,0.0,0.0,0.0,0.0,0.0,0,0,0,0,0,1,1,0,0,0
92928000,12.150001,12.150001,-1.0,-1.0,0.0,0.0,1.0,1.0,0.0,3,0.0,0.0,0.0,0.0,0.0,0,0,0,0,0,1,1,0,0,0
93420000,12.150001,12.150001,-1.0,-1.0,0.0,0.0,1.0,1.0,0.0,3,0.0,0.0,0.0,0.0,0.0,0,0,0,0,0,1,1,0,0,0
93924000,12.150001,12.150001,-1.0,-1.0,0.0,0.0,1.0,1.0,0.0,3,0.0,0.0,0.0,0.0,0.0,0,0,0,0,0,1,1,0,0,0
94428000,12.150001,12.150001,-1.0,-1.0,0.0,0.0,1.0,1.0,0.0,3,0.0,0.0,0.0,0.0,0.0,0,0,0,0,0,1,1,0,0,0
94920000,12.150001,12.150001,-1.0,-1.0,0.0,0.0,1.0,1.0,0.0,3,0.0,0.0,0.0,0.0,0.0,0,0,0,0,0,1,1,0,0,0
95424000,12.150001,12.150001,-1.0,-1.0,0.0,0.0,1.0,1.0,0.0,3,0.0,0.0,0.0,0.0,0.0,0,0,0,0,0,1,1,0,0,0
95928000,12.150001,12.150001,-1.0,-1.0,0.0,0.0,1.0,1.0,0.0,3,0.0,0.0,0.0,0.0,0.0,0,0,0,0,0,1,1,0,0,0
96420000,12.150001,12.150001,-1.0,-1.0,0.0,0.0,1.0,1.0,0.0,3,0.0,0.0,0.0,0.0,0.0,0,0,0,0,0,1,1,0,0,0
96924000,12.150001,12.150001,-1.0,-1.0,0.0,0.0,1.0,1.0,0.0,3,0.0,0.0,0.0,0.0,0.0,0,0,0,0,0,1,1,0,0,0
97428000,12.150001,12.150001,-1.0,-1.0,0.0,0.0,1.0,1.0,0.0,3,0.0,0.0,0.0,0.0,0.0,0,0,0,0,0,1,1,0,0,0
97920000,12.150001,12.150001,-1.0,-1.0,0.0,0.0,1.0,1.0,0.0,3,0.0,0.0,0.0,0.0,0.0,0,0,0,0,0,1,1,0,0,0
98424000,12.150001,12.150001,-1.0,-1.0,0.0,0.0,1.0,1.0,0.0,3,0.0,0.0,0.0,0.0,0.0,0,0,0,0,0,1,1,0,0,0
98928000,12.150001,12.150001,-1.0,-1.0,0.0,0.0,1.0,1.0,0.0,3,0.0,0.0,0.0,0.0,0.0,0,0,0,0,0,1,1,0,0,0
99420000,12.150001,12.150001,-1.0,-1.0,0.0,0.0,1.0,1.0,0.0,3,0.0,0.0,0.0,0.0,0.0,0,0,0,0,0,1,1,0,0,0
99924000,12.150001,12.150001,-1.0,-1.0,0.0,0.0,1.0,1.0,0.0,3,0.0,0.0,0.0,0.0,0.0,0,0,0,0,0,1,1,0,0,0
100428000,12.150001,12.150001,-1.0,-1.0,0.0,0.0,1.0,1.0,0.0,3,0.0,0.0,0.0,0.0,0.0,0,0,0,0,0,1,1,0,0,0
100920000,12.150001,12.150001,-1.0,-1.0,0.0,0.0,1.0,1.0,0.0,3,0.0,0.0,0.0,0.0,0.0,0,0,0,0,0,1,1,0,0,0
101424000,12.150001,12.150001,-1.0,-1.0,0.0,0.0,1.0,1.0,0.0,3,0.0,0.0,0.0,0.0,0.0,0,0,0,0,0,1,1,0,0,0
101928000,12.150001,12.150001,-1.0,-1.0,0.0,0.0,1.0,1.0,0.0,3,0.0,0.0,0.0,0.0,0.0,0,0,0,0,0,1,1,0,0,0
102420000,12.150001,12.150001,-1.0,-1.0,0.0,0.0,1.0,1.0,0.0,3,0.0,0.0,0.0,0.0,0.0,0,0,0,0,0,1,1,0,0,0
102924000,12.150001,12.150001,-1.0,-1.0,0.0,0.0,1.0,1.0,0.0,3,0.0,0.0,0.0,0.0,0.0,0,0,0,0,0,1,1,0,0,0
103428000,12.150001,12.150001,-1.0,-1.0,0.0,0.0,1.0,1.0,0.0,3,0.0,0.0,0.0,0.0,0.0,0,0,0,0,0,1,1,0,0,0
103920000,12.150001,12.150001,-1.0,-1.0,0.0,0.0,1.0,1.0,0.0,3,0.0,0.0,0.0,0.0,0.0,0,0,0,0,0,1,1,0,0,0
104424000,12.150001,12.150001,-1.0,-1.0,0.0,0.0,1.0,1.0,0.0,3,0.0,0.0,0.0,0.0,0.0,0,0,0,0,0,1,1,0,0,0
104928000,12.150001,12.150001,-1.0,-1.0,0.0,0.0,1.0,1.0,0.0,3,0.0,0.0,0.0,0.0,0.0,0,0,0,0,0,1,1,0,0,0
105420000,12.150001,12.150001,-1.0,-1.0,0.0,0.0,1.0,1.0,0.0,3,0.0,0.0,0.0,0.0,0.0,0,0,0,0,0,1,1,0,0,0
105924000,12.150001,12.150001,-1.0,-1.0,0.0,0.0,1.0,1.0,0.0,3,0.0,0.0,0.0,0.0,0.0,0,0,0,0,0,1,1,0,0,0
106428000,12.150001,12.150001,-1.0,-1.0,0.0,0.0,1.0,1.0,0.0,3,0.0,0.0,0.0,0.0,0.0,0,0,0,0,0,1,1,0,0,0
106920000,12.150001,12.150001,-1.0,-1.0,0.0,0.0,1.0,1.0,0.0,3,0.0,0.0,0.0,0.0,0.0,0,0,0,0,0,1,1,0,0,0
107424000,12.150001,12.150001,-1.0,-1.0,0.0,0.0,1.0,1.0,0.0,3,0.0,0.0,0.0,0.0,0.0,0,0,0,0,0,1,1,0,0,0
107928000,12.150001,12.150001,-1.0,-1.0,0.0,0.0,1.0,1.0,0.0,3,0.0,0.0,0.0,0.0,0.0,0,0,0,0,0,1,1,0,0,0
108420000,12.150001,12.150001,-1.0,-1.0,0.0,0.0,1.0,1.0,0.0,3,0.0,0.0,0.0,0.0,0.0,0,0,0,0,0,1,1,0,0,0
108924000,12.150001,12.150001,-1.0,-1.0,0.0,0.0,1.0,1.0,0.0,3,0.0,0.0,0.0,0.0,0.0,0,0,0,0,0,1,1,0,0,0
109428000,12.150001,12.150001,-1.0,-1.0,0.0,0.0,1.0,1.0,0.0,3,0.0,0.0,0.0,0.0,0.0,0,0,0,0,0,1,1,0,0,0
109920000,12.150001,12.150001,-1.0,-1.0,0.0,0.0,1.0,1.0,0.0,3,0.0,0.0,0.0,0.0,0.0,0,0,0,0,0,1,1,0,0,0
110424000,12.150001,12.150001,-1.0,-1.0,0.0,0.0,1.0,1.0,0.0,3,0.0,0.0,0.0,0.0,0.0,0,0,0,0,0,1,1,0,0,0
110928000,12.150001,12.150001,-1.0,-1.0,0.0,0.0,1.0,1.0,0.0,3,0.0,0.0,0.0,0.0,0.0,0,0,0,0,0,1,1,0,0,0
111420000,12.150001,12.150001,-1.0,-1.0,0.0,0.0,1.0,1.0,0.0,3,0.0,0.0,0.0,0.0,0.0,0,0,0,0,0,1,1,0,0,0
111924000,12.150001,12.150001,-1.0,-1.0,0.0,0.0,1.0,1.0,0.0,3,0.0,0.0,0.0,0.0,0.0,0,0,0,0,0,1,1,0,0,0
112428000,12.150001,12.150001,-1.0,-1.0,0.0,0.0,1.0,1.0,0.0,3,0.0,0.0,0.0,0.0,0.0,0,0,0,0,0,1,1,0,0,0
112920000,12.150001,12.150001,-1.0,-1.0,0.0,0.0,1.0,1.0,0.0,3,0.0,0.0,0.0,0.0,0.0,0,0,0,0,0,1,1,0,0,0
113424000,12.150001,12.150001,-1.0,-1.0,0.0,0.0,1.0,1.0,0.0,3,0.0,0.0,0.0,0.0,0.0,0,0,0,0,0,1,1,0,0,0
113928000,12.150001,12.150001,-1.0,-1.0,0.0,0.0,1.0,1.0,0.0,3,0.0,0.0,0.0,0.0,0.0,0,0,0,0,0,1,1,0,0,0
114420000,12.150001,12.150001,-1.0,-1.0,0.0,0.0,1.0,1.0,0.0,3,0.0,0.0,0.0,0.0,0.0,0,0,0,0,0,1,1,0,0,0
114924000,12.150001,12.150001,-1.0,-1.0,0.0,0.0,1.0,1.0,0.0,3,0.0,0.0,0.0,0.0,0.0,0,0,0,0,0,1,1,0,0,0
115416000,12.150001,12.150001,-1.0,-1.0,0.0,0.0,1.0,1.0,0.0,3,0.0,0.0,0.0,0.0,0.0,0,0,0,0,0,1,1,0,0,0
115920000,12.150001,12.150001,-1.0,-1.0,0.0,0.0,1.0,1.0,0.0,3,0.0,0.0,0.0,0.0,0.0,0,0,0,0,0,1,1,0,0,0
116424000,12.150001,12.150001,-1.0,-1.0,0.0,0.0,1.0,1.0,0.0,3,0.0,0.0,0.0,0.0,0.0,0,0,0,0,0,1,1,0,0,0
116928000,12.150001,12.150001,-1.0,-1.0,0.0,0.0,1.0,1.0,0.0,3,0.0,0.0,0.0,0.0,0.0,0,0,0,0,0,1,1,0,0,0
117420000,12.150001,12.150001,-1.0,-1.0,0.0,0.0,1.0,1.0,0.0,3,0.0,0.0,0.0,0.0,0.0,0,0,0,0,0,1,1,0,0,0
117924000,12.150001,12.150001,-1.0,-1.0,0.0,0.0,1.0,1.0,0.0,3,0.0,0.0,0.0,0.0,0.0,0,0,0,0,0,1,1,0,0,0
118416000,12.150001,12.150001,-1.0,-1.0,0.0,0.0,1.0,1.0,0.0,3,0.0,0.0,0.0,0.0,0.0,0,0,0,0,0,1,1,0,0,0
118920000,12.150001,12.150001,-1.0,-1.0,0.0,0.0,1.0,1.0,0.0,3,0.0,0.0,0.0,0.0,0.0,0,0,0,0,0,1,1,0,0,0
119424000,12.150001,12.150001,-1.0,-1.0,0.0,0.0,1.0,1.0,0.0,3,0.0,0.0,0.0,0.0,0.0,0,0,0,0,0,1,1,0,0,0
119928000,12.150001,12.150001,-1.0,-1.0,0.0,0.0,1.0,1.0,0.0,3,0.0,0.0,0.0,0.0,0.0,0,0,0,0,0,1,1,0,0,0
120420000,12.150001,12.150001,-1.0,-1.0,0.0,0.0,1.0,1.0,0.0,3,0.0,0.0,0.0,0.0,0.0,0,0,0,0,0,1,1,0,0,0
120924000,12.150001,12.150001,-1.0,-1.0,0.0,0.0,1.0,1.0,0.0,3,0.0,0.0,0.0,0.0,0.0,0,0,0,0,0,1,1,0,0,0
121428000,12.150001,12.150001,-1.0,-1.0,0.0,0.0,1.0,1.0,0.0,3,0.0,0.0,0.0,0.0,0.0,0,0,0,0,0,1,1,0,0,0
121920000,12.150001,12.150001,-1.0,-1.0,0.0,0.0,1.0,1.0,0.0,3,0.0,0.0,0.0,0.0,0.0,0,0,0,0,0,1,1,0,0,0
122424000,12.150001,12.150001,-1.0,-1.0,0.0,0.0,1.0,1.0,0.0,3,0.0,0.0,0.0,0.0,0.0,0,0,0,0,0,1,1,0,0,0
122928000,12.150001,12.150001,-1.0,-1.0,0.0,0.0,1.0,1.0,0.0,3,0.0,0.0,0.0,0.0,0.0,0,0,0,0,0,1,1,0,0,0
123420000,12.150001,12.150001,-1.0,-1.0,0.0,0.0,1.0,1.0,0.0,3,0.0,0.0,0.0,0.0,0.0,0,0,0,0,0,1,1,0,0,0
123924000,12.150001,12.150001,-1.0,-1.0,0.0,0.0,1.0,1.0,0.0,3,0.0,0.0,0.0,0.0,0.0,0,0,0,0,0,1,1,0,0,0
124428000,12.150001,12.150001,-1.0,-1.0,0.0,0.0,1.0,1.0,0.0,3,0.0,0.0,0.0,0.0,0.0,0,0,0,0,0,1,1,0,0,0
124920000,12.150001,12.150001,-1.0,-1.0,0.0,0.0,1.0,1.0,0.0,3,0.0,0.0,0.0,0.0,0.0,0,0,0,0,0,1,1,0,0,0
125424000,12.150001,12.150001,-1.0,-1.0,0.0,0.0,1.0,1.0,0.0,3,0.0,0.0,0.0,0.0,0.0,0,0,0,0,0,1,1,0,0,0
125928000,12.150001,12.150001,-1.0,-1.0,0.0,0.0,1.0,1.0,0.0,3,0.0,0.0,0.0,0.0,0.0,0,0,0,0,0,1,1,0,0,0
126420000,12.150001,12.150001,-1.0,-1.0,0.0,0.0,1.0,1.0,0.0,3,0.0,0.0,0.0,0.0,0.0,0,0,0,0,0,1,1,0,0,0
126924000,12.150001,12.150001,-1.0,-1.0,0.0,0.0,1.0,1.0,0.0,3,0.0,0.0,0.0,0.0,0.0,0,0,0,0,0,1,1,0,0,0
127428000,12.150001,12.150001,-1.0,-1.0,0.0,0.0,1.0,1.0,0.0,3,0.0,0.0,0.0,0.0,0.0,0,0,0,0,0,1,1,0,0,0
127920000,12.150001,12.150001,-1.0,-1.0,0.0,0.0,1.0,1.0,0.0,3,0.0,0.0,0.0,0.0,0.0,0,0,0,0,0,1,1,0,0,0
128424000,12.150001,12.150001,-1.0,-1.0,0.0,0.0,1.0,1.0,0.0,3,0.0,0.0,0.0,0.0,0.0,0,0,0,0,0,1,1,0,0,0
128927999,12.150001,12.150001,-1.0,-1.0,0.0,0.0,1.0,1.0,0.0,3,0.0,0.0,0.0,0.0,0.0,0,0,0,0,0,1,1,0,0,0
129432000,12.150001,12.150001,-1.0,-1.0,0.0,0.0,1.0,1.0,0.0,3,0.0,0.0,0.0,0.0,0.0,0,0,0,0,0,1,1,0,0,0
129924000,12.150001,12.150001,-1.0,-1.0,0.0,0.0,1.0,1.0,0.0,3,0.0,0.0,0.0,0.0,0.0,0,0,0,0,0,1,1,0,0,0
130427999,12.150001,12.150001,-1.0,-1.0,0.0,0.0,1.0,1.0,0.0,3,0.0,0.0,0.0,0.0,0.0,0,0,0,0,0,1,1,0,0,0
130932000,12.150001,12.150001,-1.0,-1.0,0.0,0.0,1.0,1.0,0.0,3,0.0,0.0,0.0,0.0,0.0,0,0,0,0,0,1,1,0,0,0
131424000,12.150001,12.150001,-1.0,-1.0,0.0,0.0,1.0,1.0,0.0,3,0.0,0.0,0.0,0.0,0.0,0,0,0,0,0,1,1,0,0,0
131927999,12.150001,12.150001,-1.0,-1.0,0.0,0.0,1.0,1.0,0.0,3,0.0,0.0,0.0,0.0,0.0,0,0,0,0,0,1,1,0,0,0
132432000,12.150001,12.150001,-1.0,-1.0,0.0,0.0,1.0,1.0,0.0,3,0.0,0.0,0.0,0.0,0.0,0,0,0,0,0,1,1,0,0,0
132924000,12.150001,12.150001,-1.0,-1.0,0.0,0.0,1.0,1.0,0.0,3,0.0,0.0,0.0,0.0,0.0,0,0,0,0,0,1,1,0,0,0
133427999,12.150001,12.150001,-1.0,-1.0,0.0,0.0,1.0,1.0,0.0,3,0.0,0.0,0.0,0.0,0.0,0,0,0,0,0,1,1,0,0,0
133920000,12.150001,12.150001,-1.0,-1.0,0.0,0.0,1.0,1.0,0.0,3,0.0,0.0,0.0,0.0,0.0,0,0,0,0,0,1,1,0,0,0
134424000,12.150001,12.150001,-1.0,-1.0,0.0,0.0,1.0,1.0,0.0,3,0.0,0.0,0.0,0.0,0.0,0,0,0,0,0,1,1,0,0,0
134928000,12.150001,12.150001,-1.0,-1.0,0.0,0.0,1.0,1.0,0.0,3,0.0,0.0,0.0,0.0,0.0,0,0,0,0,0,1,1,0,0,0
135432000,12.150001,12.150001,-1.0,-1.0,0.0,0.0,1.0,1.0,0.0,3,0.0,0.0,0.0,0.0,0.0,0,0,0,0,0,1,1,0,0,0
135924000,12.150001,12.150001,-1.0,-1.0,0.0,0.0,1.0,1.0,0.0,3,0.0,0.0,0.0,0.0,0.0,0,0,0,0,0,1,1,0,0,0
136428000,12.150001,12.150001,-1.0,-1.0,0.0,0.0,1.0,1.0,0.0,3,0.0,0.0,0.0,0.0,0.0,0,0,0,0,0,1,1,0,0,0
136920000,12.150001,12.150001,-1.0,-1.0,0.0,0.0,1.0,1.0,0.0,3,0.0,0.0,0.0,0.0,0.0,0,0,0,0,0,1,1,0,0,0
137424000,12.150001,12.150001,-1.0,-1.0,0.0,0.0,1.0,1.0,0.0,3,0.0,0.0,0.0,0.0,0.0,0,0,0,0,0,1,1,0,0,0
137928000,12.150001,12.150001,-1.0,-1.0,0.0,0.0,1.0,1.0,0.0,3,0.0,0.0,0.0,0.0,0.0,0,0,0,0,0,1,1,0,0,0
138432000,12.150001,12.150001,-1.0,-1.0,0.0,0.0,1.0,1.0,0.0,3,0.0,0.0,0.0,0.0,0.0,0,0,0,0,0,1,1,0,0,0
138924000,12.150001,12.150001,-1.0,-1.0,0.0,0.0,1.0,1.0,0.0,3,0.0,0.0,0.0,0.0,0.0,0,0,0,0,0,1,1,0,0,0
139428000,12.150001,12.150001,-1.0,-1.0,0.0,0.0,1.0,1.0,0.0,3,0.0,0.0,0.0,0.0,0.0,0,0,0,0,0,1,1,0,0,0
139932000,12.150001,12.150001,-1.0,-1.0,0.0,0.0,1.0,1.0,0.0,3,0.0,0.0,0.0,0.0,0.0,0,0,0,0,0,1,1,0,0,0
140424000,12.150001,12.150001,-1.0,-1.0,0.0,0.0,1.0,1.0,0.0,3,0.0,0.0,0.0,0.0,0.0,0,0,0,0,0,1,1,0,0,0
140928000,12.150001,12.150001,-1.0,-1.0,0.0,0.0,1.0,1.0,0.0,3,0.0,0.0,0.0,0.0,0.0,0,0,0,0,0,1,1,0,0,0
141432000,12.150001,12.150001,-1.0,-1.0,0.0,0.0,1.0,1.0,0.0,3,0.0,0.0,0.0,0.0,0.0,0,0,0,0,0,1,1,0,0,0
141924000,12.150001,12.150001,-1.0,-1.0,0.0,0.0,1.0,1.0,0.0,3,0.0,0.0,0.0,0.0,0.0,0,0,0,0,0,1,1,0,0,0
142428000,12.1467,12.149825,-1.0,-1.0,0.0,0.0,0.99989337,1.0000144,0.0,3,0.0,0.0,0.0,0.0,0.0,0,0,0,0,0,1,1,0,0,0
142932000,12.13284,12.146146,-1.0,-1.0,0.0,0.0,0.9976635,1.0003175,0.0,3,0.0,0.0,0.0,0.0,0.0,0,0,0,0,0,1,1,0,0,0
143424000,12.11931,12.139159,-1.0,-1.0,0.0,0.0,0.9934292,1.0008931,0.0,3,0.0,0.0,0.0,0.0,0.0,0,0,0,0,0,1,1,0,0,0
143928000,12.10545,12.129721,-1.0,-1.0,0.0,0.0,0.98770887,1.0016719,0.0,3,0.0,0.0,0.0,0.0,0.0,0,0,0,0,0,1,1,0,0,0
144432000,12.09159,12.118756,-1.0,-1.0,0.0,0.0,0.9810644,1.0025781,0.0,3,0.0,0.0,0.0,0.0,0.0,0,0,0,0,0,1,1,0,0,0
144924000,12.07806,12.10709,-1.0,-1.0,0.0,0.0,0.9739933,1.0035443,0.0,3,0.0,0.0,0.0,0.0,0.0,0,0,0,0,0,1,1,0,0,0
145428000,12.064201,12.094487,-1.0,-1.0,0.0,0.0,0.9663552,1.00459,0.0,3,0.0,0.0,0.0,0.0,0.0,0,0,0,0,0,1,1,0,0,0
145932000,12.050341,12.08145,-1.0,-1.0,0.0,0.0,0.9584545,1.005674,0.0,3,0.0,0.0,0.0,0.0,0.0,0,0,0,0,0,1,1,0,0,0
146424000,12.03681,12.068451,-1.0,-1.0,0.0,0.0,0.95057625,1.0067573,0.0,3,0.0,0.0,0.0,0.0,0.0,0,0,0,0,0,1,1,0,0,0
146928000,12.022951,12.05495,-1.0,-1.0,0.0,0.0,0.9423937,1.0078847,0.0,3,0.0,0.0,0.0,0.0,0.0,0,0,0,0,0,1,1,0,0,0
147432000,12.00909,12.041325,-1.0,-1.0,0.0,0.0,0.9341358,1.0090252,0.0,3,0.0,0.0,0.0,0.0,0.0,0,0,0,0,0,1,1,0,0,0
147924000,11.995561,12.027947,-1.0,-1.0,0.0,0.0,0.92602867,1.0101475,0.0,3,0.0,0.0,0.0,0.0,0.0,0,0,0,0,0,1,1,0,0,0
148428000,11.981701,12.014189,-1.0,-1.0,0.0,0.0,0.9176901,1.0113043,0.0,3,0.0,0.0,0.0,0.0,0.0,0,0,0,0,0,1,1,0,0,0
148932000,11.96784,12.000397,-1.0,-1.0,0.0,0.0,0.9093307,1.0124667,0.0,3,0.0,0.0,0.0,0.0,0.0,0,0,0,0,0,1,1,0,0,0
149424000,11.95431,11.986908,-1.0,-1.0,0.0,0.0,0.901156,1.013606,0.0,3,0.0,0.0,0.0,0.0,0.0,0,0,0,0,0,1,1,0,0,0
149928000,11.940451,11.973077,-1.0,-1.0,0.0,0.0,0.8927736,1.0147768,0.0,3,0.0,0.0,0.0,0.0,0.0,0,0,0,0,0,1,1,0,0,0
150432000,11.92659,11.959236,-1.0,-1.0,0.0,0.0,0.8843852,1.0159513,0.0,3,0.0,0.0,0.0,0.0,0.0,0,0,0,0,0,1,1,0,0,0
150924000,11.913061,11.945717,-1.0,-1.0,0.0,0.0,0.87619185,1.0171009,0.0,3,0.0,0.0,0.0,0.0,0.0,0,0,0,0,0,1,1,0,0,0
151428000,11.8992,11.931867,-1.0,-1.0,0.0,0.0,0.8677978,1.0182816,0.0,3,0.0,0.0,0.0,0.0,0.0,0,0,0,0,0,1,1,0,0,0
151932000,11.88534,11.918011,-1.0,-1.0,0.0,0.0,0.8594003,1.0194654,0.0,3,0.0,0.0,0.0,0.0,0.0,0,0,0,0,0,1,1,0,0,0
152424000,11.871811,11.904484,-1.0,-1.0,0.0,0.0,0.85120213,1.0206239,0.0,3,0.0,0.0,0.0,0.0,0.0,0,0,0,0,0,1,1,0,0,0
152928000,11.85795,11.890627,-1.0,-1.0,0.0,0.0,0.8428037,1.0218133,0.0,3,0.0,0.0,0.0,0.0,0.0,0,0,0,0,0,1,1,0,0,0
153432000,11.84409,11.876768,-1.0,-1.0,0.0,0.0,0.83440447,1.0230056,0.0,3,0.0,0.0,0.0,0.0,0.0,0,0,0,0,0,1,1,0,0,0
153924000,11.830561,11.863239,-1.0,-1.0,0.0,0.0,0.8262055,1.0241722,0.0,3,0.0,0.0,0.0,0.0,0.0,0,0,0,0,0,1,1,0,0,0
154428000,11.816701,11.8493805,-1.0,-1.0,0.0,0.0,0.8178062,1.0253701,0.0,3,0.0,0.0,0.0,0.0,0.0,0,0,0,0,0,1,1,0,0,0
154932000,11.80284,11.83552,-1.0,-1.0,0.0,0.0,0.8094056,1.0265709,0.0,3,0.0,0.0,0.0,0.0,0.0,0,0,0,0,0,1,1,0,0,0
155424000,11.78931,11.82199,-1.0,-1.0,0.0,0.0,0.80120575,1.0277458,0.0,3,0.0,0.0,0.0,0.0,0.0,0,0,0,0,0,1,1,0,0,0
155928000,11.775451,11.80813,-1.0,-1.0,0.0,0.0,0.7928061,1.0289521,0.0,3,0.0,0.0,0.0,0.0,0.0,0,0,0,0,0,1,1,0,0,0
156432000,11.76159,11.79427,-1.0,-1.0,0.0,0.0,0.7844055,1.0301614,0.0,3,0.0,0.0,0.0,0.0,0.0,0,0,0,0,0,1,1,0,0,0
156924000,11.74806,11.78074,-1.0,-1.0,0.0,0.0,0.77620566,1.0313444,0.0,3,0.0,0.0,0.0,0.0,0.0,0,0,0,0,0,1,1,0,0,0
157428000,11.7342005,11.76688,-1.0,-1.0,0.0,0.0,0.76780593,1.0325592,0.0,3,0.0,0.0,0.0,0.0,0.0,0,0,0,0,0,1,1,0,0,0
157932000,11.720341,11.753019,-1.0,-1.0,0.0,0.0,0.7594054,1.033777,0.0,3,0.0,0.0,0.0,0.0,0.0,0,0,0,0,0,1,1,0,0,0
158424000,11.70681,11.73949,-1.0,-1.0,0.0,0.0,0.7512055,1.0349684,0.0,3,0.0,0.0,0.0,0.0,0.0,0,0,0,0,0,1,1,0,0,0
158928000,11.692951,11.72563,-1.0,-1.0,0.0,0.0,0.74280584,1.0361917,0.0,3,0.0,0.0,0.0,0.0,0.0,0,0,0,0,0,1,1,0,0,0
159432000,11.6790905,11.711769,-1.0,-1.0,0.0,0.0,0.7344053,1.037418,0.0,3,0.0,0.0,0.0,0.0,0.0,0,0,0,0,0,1,1,0,0,0
159924000,11.665561,11.698239,-1.0,-1.0,0.0,0.0,0.7262054,1.0386178,0.0,3,0.0,0.0,0.0,0.0,0.0,0,0,0,0,0,1,1,0,0,0
160428000,11.651701,11.68438,-1.0,-1.0,0.0,0.0,0.7178057,1.0398499,0.0,3,0.0,0.0,0.0,0.0,0.0,0,0,0,0,0,1,1,0,0,0
160932000,11.63784,11.67052,-1.0,-1.0,0.0,0.0,0.70940554,1.0410848,0.0,3,0.0,0.0,0.0,0.0,0.0,0,0,0,0,0,1,1,0,0,0
161424000,11.6243105,11.65699,-1.0,-1.0,0.0,0.0,0.7012057,1.0422932,0.0,3,0.0,0.0,0.0,0.0,0.0,0,0,0,0,0,1,1,0,0,0
161928000,11.610451,11.643131,-1.0,-1.0,0.0,0.0,0.6928064,1.0435338,0.0,3,0.0,0.0,0.0,0.0,0.0,0,0,0,0,0,1,1,0,0,0
162432000,11.59659,11.629271,-1.0,-1.0,0.0,0.0,0.6844063,1.0447775,0.0,3,0.0,0.0,0.0,0.0,0.0,0,0,0,0,0,1,1,0,0,0
162924000,11.58306,11.61574,-1.0,-1.0,0.0,0.0,0.6762056,1.0459945,0.0,3,0.0,0.0,0.0,0.0,0.0,0,0,0,0,0,1,1,0,0,0
163428000,11.5692005,11.601881,-1.0,-1.0,0.0,0.0,0.66780627,1.0472441,0.0,3,0.0,0.0,0.0,0.0,0.0,0,0,0,0,0,1,1,0,0,0
163932000,11.555341,11.58802,-1.0,-1.0,0.0,0.0,0.6594062,1.0484966,0.0,3,0.0,0.0,0.0,0.0,0.0,0,0,0,0,0,1,1,0,0,0
164424000,11.54181,11.57449,-1.0,-1.0,0.0,0.0,0.6512054,1.0497224,0.0,3,0.0,0.0,0.0,0.0,0.0,0,0,0,0,0,1,1,0,0,0
164928000,11.52795,11.560631,-1.0,-1.0,0.0,0.0,0.6428062,1.0509808,0.0,3,0.0,0.0,0.0,0.0,0.0,0,0,0,0,0,1,1,0,0,0
165432000,11.514091,11.54677,-1.0,-1.0,0.0,0.0,0.63440603,1.0522423,0.0,3,0.0,0.0,0.0,0.0,0.0,0,0,0,0,0,1,1,0,0,0
165924000,11.500561,11.533239,-1.0,-1.0,0.0,0.0,0.6262053,1.0534768,0.0,3,0.0,0.0,0.0,0.0,0.0,0,0,0,0,0,1,1,0,0,0
166428000,11.4867,11.519381,-1.0,-1.0,0.0,0.0,0.617806,1.0547442,0.0,3,0.0,0.0,0.0,0.0,0.0,0,0,0,0,0,1,1,0,0,0
166932000,11.47284,11.50552,-1.0,-1.0,0.0,0.0,0.6094059,1.0560149,0.0,3,0.0,0.0,0.0,0.0,0.0,0,0,0,0,0,1,1,0,0,0
167424000,11.459311,11.491989,-1.0,-1.0,0.0,0.0,0.60120517,1.0572582,0.0,3,0.0,0.0,0.0,0.0,0.0,0,0,0,0,0,1,1,0,0,0
167928000,11.44545,11.47813,-1.0,-1.0,0.0,0.0,0.5928059,1.0585349,0.0,3,0.0,0.0,0.0,0.0,0.0,0,0,0,0,0,1,1,0,0,0
168432000,11.431591,11.46427,-1.0,-1.0,0.0,0.0,0.5844058,1.0598146,0.0,3,0.0,0.0,0.0,0.0,0.0,0,0,0,0,0,1,1,0,0,0
168924000,11.41806,11.450739,-1.0,-1.0,0.0,0.0,0.576205,1.061067,0.0,3,0.0,0.0,0.0,0.0,0.0,0,0,0,0,0,1,1,0,0,0
169428000,11.404201,11.43688,-1.0,-1.0,0.0,0.0,0.56780577,1.0623528,0.0,3,0.0,0.0,0.0,0.0,0.0,0,0,0,0,0,1,1,0,0,0
169932000,11.390341,11.423019,-1.0,-1.0,0.0,0.0,0.5594056,1.0636418,0.0,3,0.0,0.0,0.0,0.0,0.0,0,0,0,0,0,1,1,0,0,0
170424000,11.37681,11.409489,-1.0,-1.0,0.0,0.0,0.5512049,1.0649031,0.0,3,0.0,0.0,0.0,0.0,0.0,0,0,0,0,0,1,1,0,0,0
170928000,11.36295,11.39563,-1.0,-1.0,0.0,0.0,0.5428057,1.0661982,0.0,3,0.0,0.0,0.0,0.0,0.0,0,0,0,0,0,1,1,0,0,0
171432000,11.349091,11.381769,-1.0,-1.0,0.0,0.0,0.5344055,1.0674967,0.0,3,0.0,0.0,0.0,0.0,0.0,0,0,0,0,0,1,1,0,0,0
171924000,11.33556,11.368239,-1.0,-1.0,0.0,0.0,0.52620566,1.0687671,0.0,3,0.0,0.0,0.0,0.0,0.0,0,0,0,0,0,1,1,0,0,0
172428000,11.32335,11.354429,-1.0,-1.0,0.0,0.0,0.51783586,1.070067,0.0,3,0.0,0.0,0.0,0.0,0.0,0,0,0,0,0,1,1,0,0,0
172932000,11.32335,11.343732,-1.0,-1.0,0.0,0.0,0.5113526,1.0710762,0.0,3,0.0,0.0,0.0,0.0,0.0,0,0,0,0,0,1,1,0,0,0
173424000,11.32335,11.336856,-1.0,-1.0,0.0,0.0,0.50718504,1.0717258,0.0,3,0.0,0.0,0.0,0.0,0.0,0,0,0,0,0,1,1,0,0,0
173928000,11.32335,11.332209,-1.0,-1.0,0.0,0.0,0.50436866,1.0721653,0.0,3,0.0,0.0,0.0,0.0,0.0,0,0,0,0,0,1,1,0,0,0
174432000,11.32335,11.329163,-1.0,-1.0,0.0,0.0,0.50252247,1.0724536,0.0,3,0.0,0.0,0.0,0.0,0.0,0,0,0,0,0,1,1,0,0,0
174924000,11.32335,11.327206,-1.0,-1.0,0.0,0.0,0.50133646,1.0726389,0.0,3,0.0,0.0,0.0,0.0,0.0,0,0,0,0,0,1,1,0,0,0
175428000,11.32335,11.325884,-1.0,-1.0,0.0,0.0,0.50053537,1.072764,0.0,3,0.0,0.0,0.0,0.0,0.0,0,0,0,0,0,1,1,0,0,0
175932000,11.32335,11.325017,-1.0,-1.0,0.0,0.0,0.50000995,1.0728462,0.0,3,0.0,0.0,0.0,0.0,0.0,0,0,0,0,0,1,1,0,0,0
176424000,11.32335,11.32446,-1.0,-1.0,0.0,0.0,0.4996727,1.0728989,0.0,3,0.0,0.0,0.0,0.0,0.0,0,0,0,0,0,1,1,0,0,0
176928000,11.32335,11.324084,-1.0,-1.0,0.0,0.0,0.4994447,1.0729345,0.0,3,0.0,0.0,0.0,0.0,0.0,0,0,0,0,0,1,1,0,0,0
177432000,11.32335,11.323839,-1.0,-1.0,0.0,0.0,0.49929643,1.0729576,0.0,3,0.0,0.0,0.0,0.0,0.0,0,0,0,0,0,1,1,0,0,0
177924000,11.32335,11.323681,-1.0,-1.0,0.0,0.0,0.4992002,1.0729728,0.0,3,0.0,0.0,0.0,0.0,0.0,0,0,0,0,0,1,1,0,0,0
178428000,11.32335,11.323575,-1.0,-1.0,0.0,0.0,0.49913606,1.0729828,0.0,3,0.0,0.0,0.0,0.0,0.0,0,0,0,0,0,1,1,0,0,0
178932000,11.32335,11.323503,-1.0,-1.0,0.0,0.0,0.49909228,1.0729896,0.0,3,0.0,0.0,0.0,0.0,0.0,0,0,0,0,0,1,1,0,0,0
179424000,11.32335,11.323463,-1.0,-1.0,0.0,0.0,0.49906844,1.0729933,0.0,3,0.0,0.0,0.0,0.0,0.0,0,0,0,0,0,1,1,0,0,0
179928000,11.32335,11.323423,-1.0,-1.0,0.0,0.0,0.49904415,1.0729971,0.0,3,0.0,0.0,0.0,0.0,0.0,0,0,0,0,0,1,1,0,0,0
180432000,11.32335,11.323415,-1.0,-1.0,0.0,0.0,0.49903893,1.0729979,0.0,3,0.0,0.0,0.0,0.0,0.0,0,0,0,0,0,1,1,0,0,0
180924000,11.32335,11.323415,-1.0,-1.0,0.0,0.0,0.49903893,1.0729979,0.0,3,0.0,0.0,0.0,0.0,0.0,0,0,0,0,0,1,1,0,0,0
181428000,11.32335,11.323415,-1.0,-1.0,0.0,0.0,0.49903893,1.0729979,0.0,3,0.0,0.0,0.0,0.0,0.0,0,0,0,0,0,1,1,0,0,0
181932000,11.32335,11.323415,-1.0,-1.0,0.0,0.0,0.49903893,1.0729979,0.0,3,0.0,0.0,0.0,0.0,0.0,0,0,0,0,0,1,1,0,0,0
182424000,11.32335,11.323415,-1.0,-1.0,0.0,0.0,0.49903893,1.0729979,0.0,3,0.0,0.0,0.0,0.0,0.0,0,0,0,0,0,1,1,0,0,0
182928000,11.32335,11.323415,-1.0,-1.0,0.0,0.0,0.49903893,1.0729979,0.0,3,0.0,0.0,0.0,0.0,0.0,0,0,0,0,0,1,1,0,0,0
183432000,11.32335,11.323415,-1.0,-1.0,0.0,0.0,0.49903893,1.0729979,0.0,3,0.0,0.0,0.0,0.0,0.0,0,0,0,0,0,1,1,0,0,0
183924000,11.32335,11.323415,-1.0,-1.0,0.0,0.0,0.49903893,1.0729979,0.0,3,0.0,0.0,0.0,0.0,0.0,0,0,0,0,0,1,1,0,0,0
184428000,11.32335,11.323415,-1.0,-1.0,0.0,0.0,0.49903893,1.0729979,0.0,3,0.0,0.0,0.0,0.0,0.0,0,0,0,0,0,1,1,0,0,0
184932000,11.32335,11.323415,-1.0,-1.0,0.0,0.0,0.49903893,1.0729979,0.0,3,0.0,0.0,0.0,0.0,0.0,0,0,0,0,0,1,1,0,0,0
185424000,11.32335,11.323415,-1.0,-1.0,0.0,0.0,0.49903893,1.0729979,0.0,3,0.0,0.0,0.0,0.0,0.0,0,0,0,0,0,1,1,0,0,0
185928000,11.32335,11.323415,-1.0,-1.0,0.0,0.0,0.49903893,1.0729979,0.0,3,0.0,0.0,0.0,0.0,0.0,0,0,0,0,0,1,1,0,0,0
186432000,11.32335,11.323415,-1.0,-1.0,0.0,0.0,0.49903893,1.0729979,0.0,3,0.0,0.0,0.0,0.0,0.0,0,0,0,0,0,1,1,0,0,0
186924000,11.32335,11.323415,-1.0,-1.0,0.0,0.0,0.49903893,1.0729979,0.0,3,0.0,0.0,0.0,0.0,0.0,0,0,0,0,0,1,1,0,0,0
187428000,11.32335,11.323415,-1.0,-1.0,0.0,0.0,0.49903893,1.0729979,0.0,3,0.0,0.0,0.0,0.0,0.0,0,0,0,0,0,1,1,0,0,0
187932000,11.32335,11.323415,-1.0,-1.0,0.0,0.0,0.49903893,1.0729979,0.0,3,0.0,0.0,0.0,0.0,0.0,0,0,0,0,0,1,1,0,0,0
188424000,11.32335,11.323415,-1.0,-1.0,0.0,0.0,0.49903893,1.0729979,0.0,3,0.0,0.0,0.0,0.0,0.0,0,0,0,0,0,1,1,0,0,0
188928000,11.32335,11.323415,-1.0,-1.0,0.0,0.0,0.49903893,1.0729979,0.0,3,0.0,0.0,0.0,0.0,0.0,0,0,0,0,0,1,1,0,0,0
189432000,11.32335,11.323415,-1.0,-1.0,0.0,0.0,0.49903893,1.0729979,0.0,3,0.0,0.0,0.0,0.0,0.0,0,0,0,0,0,1,1,0,0,0
189924000,11.32335,11.323415,-1.0,-1.0,0.0,0.0,0.49903893,1.0729979,0.0,3,0.0,0.0,0.0,0.0,0.0,0,0,0,0,0,1,1,0,0,0
190428000,11.32335,11.323415,-1.0,-1.0,0.0,0.0,0.49903893,1.0729979,0.0,3,0.0,0.0,0.0,0.0,0.0,0,0,0,0,0,1,1,0,0,0
190932000,11.32335,11.323415,-1.0,-1.0,0.0,0.0,0.49903893,1.0729979,0.0,3,0.0,0.0,0.0,0.0,0.0,0,0,0,0,0,1,1,0,0,0
191424000,11.32335,11.323415,-1.0,-1.0,0.0,0.0,0.49903893,1.0729979,0.0,3,0.0,0.0,0.0,0.0,0.0,0,0,0,0,0,1,1,0,0,0
191928000,11.32335,11.323415,-1.0,-1.0,0.0,0.0,0.49903893,1.0729979,0.0,3,0.0,0.0,0.0,0.0,0.0,0,0,0,0,0,1,1,0,0,0
192432000,11.32335,11.323415,-1.0,-1.0,0.0,0.0,0.49903893,1.0729979,0.0,3,0.0,0.0,0.0,0.0,0.0,0,0,0,0,0,1,1,0,0,0
192924000,11.32335,11.323415,-1.0,-1.0,0.0,0.0,0.49903893,1.0729979,0.0,3,0.0,0.0,0.0,0.0,0.0,0,0,0,0,0,1,1,0,0,0
193428000,11.32335,11.323415,-1.0,-1.0,0.0,0.0,0.49903893,1.0729979,0.0,3,0.0,0.0,0.0,0.0,0.0,0,0,0,0,0,1,1,0,0,0
193932000,11.32335,11.323415,-1.0,-1.0,0.0,0.0,0.49903893,1.0729979,0.0,3,0.0,0.0,0.0,0.0,0.0,0,0,0,0,0,1,1,0,0,0
194424000,11.32335,11.323415,-1.0,-1.0,0.0,0.0,0.49903893,1.0729979,0.0,3,0.0,0.0,0.0,0.0,0.0,0,0,0,0,0,1,1,0,0,0
194928000,11.32335,11.323415,-1.0,-1.0,0.0,0.0,0.49903893,1.0729979,0.0,3,0.0,0.0,0.0,0.0,0.0,0,0,0,0,0,1,1,0,0,0
195432000,11.32335,11.323415,-1.0,-1.0,0.0,0.0,0.49903893,1.0729979,0.0,3,0.0,0.0,0.0,0.0,0.0,0,0,0,0,0,1,1,0,0,0
195924000,11.32335,11.323415,-1.0,-1.0,0.0,0.0,0.49903893,1.0729979,0.0,3,0.0,0.0,0.0,0.0,0.0,0,0,0,0,0,1,1,0,0,0
196428000,11.32335,11.323415,-1.0,-1.0,0.0,0.0,0.49903893,1.0729979,0.0,3,0.0,0.0,0.0,0.0,0.0,0,0,0,0,0,1,1,0,0,0
196932000,11.32335,11.323415,-1.0,-1.0,0.0,0.0,0.49903893,1.0729979,0.0,3,0.0,0.0,0.0,0.0,0.0,0,0,0,0,0,1,1,0,0,0
197424000,11.32335,11.323415,-1.0,-1.0,0.0,0.0,0.49903893,1.0729979,0.0,3,0.0,0.0,0.0,0.0,0.0,0,0,0,0,0,1,1,0,0,0
197928000,11.32335,11.323415,-1.0,-1.0,0.0,0.0,0.49903893,1.0729979,0.0,3,0.0,0.0,0.0,0.0,0.0,0,0,0,0,0,1,1,0,0,0
198432000,11.32335,11.323415,-1.0,-1.0,0.0,0.0,0.49903893,1.0729979,0.0,3,0.0,0.0,0.0,0.0,0.0,0,0,0,0,0,1,1,0,0,0
198924000,11.32335,11.323415,-1.0,-1.0,0.0,0.0,0.49903893,1.0729979,0.0,3,0.0,0.0,0.0,0.0,0.0,0,0,0,0,0,1,1,0,0,0
199428000,11.32335,11.323415,-1.0,-1.0,0.0,0.0,0.49903893,1.0729979,0.0,3,0.0,0.0,0.0,0.0,0.0,0,0,0,0,0,1,1,0,0,0
199932000,11.32335,11.323415,-1.0,-1.0,0.0,0.0,0.49903893,1.0729979,0.0,3,0.0,0.0,0.0,0.0,0.0,0,0,0,0,0,1,1,0,0,0
200424000,11.32335,11.323415,-1.0,-1.0,0.0,0.0,0.49903893,1.0729979,0.0,3,0.0,0.0,0.0,0.0,0.0,0,0,0,0,0,1,1,0,0,0
200928000,11.32335,11.323415,-1.0,-1.0,0.0,0.0,0.49903893,1.0729979,0.0,3,0.0,0.0,0.0,0.0,0.0,0,0,0,0,0,1,1,0,0,0
201432000,11.32335,11.323415,-1.0,-1.0,0.0,0.0,0.49903893,1.0729979,0.0,3,0.0,0.0,0.0,0.0,0.0,0,0,0,0,0,1,1,0,0,0
201924000,11.32335,11.323415,-1.0,-1.0,0.0,0.0,0.49903893,1.0729979,0.0,3,0.0,0.0,0.0,0.0,0.0,0,0,0,0,0,1,1,0,0,0
202428000,11.32335,11.323415,-1.0,-1.0,0.0,0.0,0.49903893,1.0729979,0.0,3,0.0,0.0,0.0,0.0,0.0,0,0,0,0,0,1,1,0,0,0
202932000,11.32335,11.323415,-1.0,-1.0,0.0,0.0,0.49903893,1.0729979,0.0,3,0.0,0.0,0.0,0.0,0.0,0,0,0,0,0,1,1,0,0,0
203424000,11.32335,11.323415,-1.0,-1.0,0.0,0.0,0.49903893,1.0729979,0.0,3,0.0,0.0,0.0,0.0,0.0,0,0,0,0,0,1,1,0,0,0
203928000,11.32335,11.323415,-1.0,-1.0,0.0,0.0,0.49903893,1.0729979,0.0,3,0.0,0.0,0.0,0.0,0.0,0,0,0,0,0,1,1,0,0,0
204432000,11.32335,11.323415,-1.0,-1.0,0.0,0.0,0.49903893,1.0729979,0.0,3,0.0,0.0,0.0,0.0,0.0,0,0,0,0,0,1,1,0,0,0
204924000,11.32335,11.323415,-1.0,-1.0,0.0,0.0,0.49903893,1.0729979,0.0,3,0.0,0.0,0.0,0.0,0.0,0,0,0,0,0,1,1,0,0,0
205428000,11.32335,11.323415,-1.0,-1.0,0.0,0.0,0.49903893,1.0729979,0.0,3,0.0,0.0,0.0,0.0,0.0,0,0,0,0,0,1,1,0,0,0
205932000,11.32335,11.323415,-1.0,-1.0,0.0,0.0,0.49903893,1.0729979,0.0,3,0.0,0.0,0.0,0.0,0.0,0,0,0,0,0,1,1,0,0,0
206424000,11.32335,11.323415,-1.0,-1.0,0.0,0.0,0.49903893,1.0729979,0.0,3,0.0,0.0,0.0,0.0,0.0,0,0,0,0,0,1,1,0,0,0
206928000,11.32335,11.323415,-1.0,-1.0,0.0,0.0,0.49903893,1.0729979,0.0,3,0.0,0.0,0.0,0.0,0.0,0,0,0,0,0,1,1,0,0,0
207432000,11.32335,11.323415,-1.0,-1.0,0.0,0.0,0.49903893,1.0729979,0.0,3,0.0,0.0,0.0,0.0,0.0,0,0,0,0,0,1,1,0,0,0
207924000,11.32335,11.323415,-1.0,-1.0,0.0,0.0,0.49903893,1.0729979,0.0,3,0.0,0.0,0.0,0.0,0.0,0,0,0,0,0,1,1,0,0,0
208428000,11.32335,11.323415,-1.0,-1.0,0.0,0.0,0.49903893,1.0729979,0.0,3,0.0,0.0,0.0,0.0,0.0,0,0,0,0,0,1,1,0,0,0
208932000,11.32335,11.323415,-1.0,-1.0,0.0,0.0,0.49903893,1.0729979,0.0,3,0.0,0.0,0.0,0.0,0.0,0,0,0,0,0,1,1,0,0,0
209424000,11.32335,11.323415,-1.0,-1.0,0.0,0.0,0.49903893,1.0729979,0.0,3,0.0,0.0,0.0,0.0,0.0,0,0,0,0,0,1,1,0,0,0
209928000,11.32335,11.323415,-1.0,-1.0,0.0,0.0,0.49903893,1.0729979,0.0,3,0.0,0.0,0.0,0.0,0.0,0,0,0,0,0,1,1,0,0,0
210432000,11.32335,11.323415,-1.0,-1.0,0.0,0.0,0.49903893,1.0729979,0.0,3,0.0,0.0,0.0,0.0,0.0,0,0,0,0,0,1,1,0,0,0
210924000,11.32335,11.323415,-1.0,-1.0,0.0,0.0,0.49903893,1.0729979,0.0,3,0.0,0.0,0.0,0.0,0.0,0,0,0,0,0,1,1,0,0,0
211428000,11.32335,11.323415,-1.0,-1.0,0.0,0.0,0.49903893,1.0729979,0.0,3,0.0,0.0,0.0,0.0,0.0,0,0,0,0,0,1,1,0,0,0
211932000,11.32335,11.323415,-1.0,-1.0,0.0,0.0,0.49903893,1.0729979,0.0,3,0.0,0.0,0.0,0.0,0.0,0,0,0,0,0,1,1,0,0,0
212424000,11.32335,11.323415,-1.0,-1.0,0.0,0.0,0.49903893,1.0729979,0.0,3,0.0,0.0,0.0,0.0,0.0,0,0,0,0,0,1,1,0,0,0
212928000,11.32335,11.323415,-1.0,-1.0,0.0,0.0,0.49903893,1.0729979,0.0,3,0.0,0.0,0.0,0.0,0.0,0,0,0,0,0,1,1,0,0,0
213432000,11.32335,11.323415,-1.0,-1.0,0.0,0.0,0.49903893,1.0729979,0.0,3,0.0,0.0,0.0,0.0,0.0,0,0,0,0,0,1,1,0,0,0
213924000,11.32335,11.323415,-1.0,-1.0,0.0,0.0,0.49903893,1.0729979,0.0,3,0.0,0.0,0.0,0.0,0.0,0,0,0,0,0,1,1,0,0,0
214428000,11.32335,11.323415,-1.0,-1.0,0.0,0.0,0.49903893,1.0729979,0.0,3,0.0,0.0,0.0,0.0,0.0,0,0,0,0,0,1,1,0,0,0
214932000,11.32335,11.323415,-1.0,-1.0,0.0,0.0,0.49903893,1.0729979,0.0,3,0.0,0.0,0.0,0.0,0.0,0,0,0,0,0,1,1,0,0,0
215424000,11.32335,11.323415,-1.0,-1.0,0.0,0.0,0.49903893,1.0729979,0.0,3,0.0,0.0,0.0,0.0,0.0,0,0,0,0,0,1,1,0,0,0
215928000,11.32335,11.323415,-1.0,-1.0,0.0,0.0,0.49903893,1.0729979,0.0,3,0.0,0.0,0.0,0.0,0.0,0,0,0,0,0,1,1,0,0,0
216432000,11.32335,11.323415,-1.0,-1.0,0.0,0.0,0.49903893,1.0729979,0.0,3,0.0,0.0,0.0,0.0,0.0,0,0,0,0,0,1,1,0,0,0
216924000,11.32335,11.323415,-1.0,-1.0,0.0,0.0,0.49903893,1.0729979,0.0,3,0.0,0.0,0.0,0.0,0.0,0,0,0,0,0,1,1,0,0,0
217428000,11.32335,11.323415,-1.0,-1.0,0.0,0.0,0.49903893,1.0729979,0.0,3,0.0,0.0,0.0,0.0,0.0,0,0,0,0,0,1,1,0,0,0
217932000,11.32335,11.323415,-1.0,-1.0,0.0,0.0,0.49903893,1.0729979,0.0,3,0.0,0.0,0.0,0.0,0.0,0,0,0,0,0,1,1,0,0,0
218424000,11.32335,11.323415,-1.0,-1.0,0.0,0.0,0.49903893,1.0729979,0.0,3,0.0,0.0,0.0,0.0,0.0,0,0,0,0,0,1,1,0,0,0
218928000,11.32335,11.323415,-1.0,-1.0,0.0,0.0,0.49903893,1.0729979,0.0,3,0.0,0.0,0.0,0.0,0.0,0,0,0,0,0,1,1,0,0,0
219432000,11.32335,11.323415,-1.0,-1.0,0.0,0.0,0.49903893,1.0729979,0.0,3,0.0,0.0,0.0,0.0,0.0,0,0,0,0,0,1,1,0,0,0
219924000,11.32335,11.323415,-1.0,-1.0,0.0,0.0,0.49903893,1.0729979,0.0,3,0.0,0.0,0.0,0.0,0.0,0,0,0,0,0,1,1,0,0,0
220428000,11.32335,11.323415,-1.0,-1.0,0.0,0.0,0.49903893,1.0729979,0.0,3,0.0,0.0,0.0,0.0,0.0,0,0,0,0,0,1,1,0,0,0
220932000,11.32335,11.323415,-1.0,-1.0,0.0,0.0,0.49903893,1.0729979,0.0,3,0.0,0.0,0.0,0.0,0.0,0,0,0,0,0,1,1,0,0,0
221424000,11.32335,11.323415,-1.0,-1.0,0.0,0.0,0.49903893,1.0729979,0.0,3,0.0,0.0,0.0,0.0,0.0,0,0,0,0,0,1,1,0,0,0
221928000,11.32335,11.323415,-1.0,-1.0,0.0,0.0,0.49903893,1.0729979,0.0,3,0.0,0.0,0.0,0.0,0.0,0,0,0,0,0,1,1,0,0,0
222432000,11.32335,11.323415,-1.0,-1.0,0.0,0.0,0.49903893,1.0729979,0.0,3,0.0,0.0,0.0,0.0,0.0,0,0,0,0,0,1,1,0,0,0
222924000,11.32335,11.323415,-1.0,-1.0,0.0,0.0,0.49903893,1.0729979,0.0,3,0.0,0.0,0.0,0.0,0.0,0,0,0,0,0,1,1,0,0,0
223428000,11.32335,11.323415,-1.0,-1.0,0.0,0.0,0.49903893,1.0729979,0.0,3,0.0,0.0,0.0,0.0,0.0,0,0,0,0,0,1,1,0,0,0
223932000,11.32335,11.323415,-1.0,-1.0,0.0,0.0,0.49903893,1.0729979,0.0,3,0.0,0.0,0.0,0.0,0.0,0,0,0,0,0,1,1,0,0,0
224424000,11.32335,11.323415,-1.0,-1.0,0.0,0.0,0.49903893,1.0729979,0.0,3,0.0,0.0,0.0,0.0,0.0,0,0,0,0,0,1,1,0,0,0
224928000,11.32335,11.323415,-1.0,-1.0,0.0,0.0,0.49903893,1.0729979,0.0,3,0.0,0.0,0.0,0.0,0.0,0,0,0,0,0,1,1,0,0,0
225432000,11.32335,11.323415,-1.0,-1.0,0.0,0.0,0.49903893,1.0729979,0.0,3,0.0,0.0,0.0,0.0,0.0,0,0,0,0,0,1,1,0,0,0
225924000,11.32335,11.323415,-1.0,-1.0,0.0,0.0,0.49903893,1.0729979,0.0,3,0.0,0.0,0.0,0.0,0.0,0,0,0,0,0,1,1,0,0,0
226428000,11.32335,11.323415,-1.0,-1.0,0.0,0.0,0.49903893,1.0729979,0.0,3,0.0,0.0,0.0,0.0,0.0,0,0,0,0,0,1,1,0,0,0
226932000,11.32335,11.323415,-1.0,-1.0,0.0,0.0,0.49903893,1.0729979,0.0,3,0.0,0.0,0.0,0.0,0.0,0,0,0,0,0,1,1,0,0,0
227424000,11.32335,11.323415,-1.0,-1.0,0.0,0.0,0.49903893,1.0729979,0.0,3,0.0,0.0,0.0,0.0,0.0,0,0,0,0,0,1,1,0,0,0
227928000,11.32335,11.323415,-1.0,-1.0,0.0,0.0,0.49903893,1.0729979,0.0,3,0.0,0.0,0.0,0.0,0.0,0,0,0,0,0,1,1,0,0,0
228432000,11.32335,11.323415,-1.0,-1.0,0.0,0.0,0.49903893,1.0729979,0.0,3,0.0,0.0,0.0,0.0,0.0,0,0,0,0,0,1,1,0,0,0
228924000,11.32335,11.323415,-1.0,-1.0,0.0,0.0,0.49903893,1.0729979,0.0,3,0.0,0.0,0.0,0.0,0.0,0,0,0,0,0,1,1,0,0,0
229428000,11.32335,11.323415,-1.0,-1.0,0.0,0.0,0.49903893,1.0729979,0.0,3,0.0,0.0,0.0,0.0,0.0,0,0,0,0,0,1,1,0,0,0
229932000,11.32335,11.323415,-1.0,-1.0,0.0,0.0,0.49903893,1.0729979,0.0,3,0.0,0.0,0.0,0.0,0.0,0,0,0,0,0,1,1,0,0,0
230424000,11.32335,11.323415,-1.0,-1.0,0.0,0.0,0.49903893,1.0729979,0.0,3,0.0,0.0,0.0,0.0,0.0,0,0,0,0,0,1,1,0,0,0
230928000,11.32335,11.323415,-1.0,-1.0,0.0,0.0,0.49903893,1.0729979,0.0,3,0.0,0.0,0.0,0.0,0.0,0,0,0,0,0,1,1,0,0,0
231432000,11.32335,11.323415,-1.0,-1.0,0.0,0.0,0.49903893,1.0729979,0.0,3,0.0,0.0,0.0,0.0,0.0,0,0,0,0,0,1,1,0,0,0
231924000,11.32335,11.323415,-1.0,-1.0,0.0,0.0,0.49903893,1.0729979,0.0,3,0.0,0.0,0.0,0.0,0.0,0,0,0,0,0,1,1,0,0,0
232428000,11.32335,11.323415,-1.0,-1.0,0.0,0.0,0.49903893,1.0729979,0.0,3,0.0,0.0,0.0,0.0,0.0,0,0,0,0,0,1,1,0,0,0
232932000,11.32335,11.323415,-1.0,-1.0,0.0,0.0,0.49903893,1.0729979,0.0,3,0.0,0.0,0.0,0.0,0.0,0,0,0,0,0,1,1,0,0,0
233424000,11.32335,11.323415,-1.0,-1.0,0.0,0.0,0.49903893,1.0729979,0.0,3,0.0,0.0,0.0,0.0,0.0,0,0,0,0,0,1,1,0,0,0
233928000,11.32335,11.323415,-1.0,-1.0,0.0,0.0,0.49903893,1.0729979,0.0,3,0.0,0.0,0.0,0.0,0.0,0,0,0,0,0,1,1,0,0,0
234432000,11.32335,11.323415,-1.0,-1.0,0.0,0.0,0.49903893,1.0729979,0.0,3,0.0,0.0,0.0,0.0,0.0,0,0,0,0,0,1,1,0,0,0
234924000,11.32335,11.323415,-1.0,-1.0,0.0,0.0,0.49903893,1.0729979,0.0,3,0.0,0.0,0.0,0.0,0.0,0,0,0,0,0,1,1,0,0,0
235428000,11.32335,11.323415,-1.0,-1.0,0.0,0.0,0.49903893,1.0729979,0.0,3,0.0,0.0,0.0,0.0,0.0,0,0,0,0,0,1,1,0,0,0
235932000,11.32335,11.323415,-1.0,-1.0,0.0,0.0,0.49903893,1.0729979,0.0,3,0.0,0.0,0.0,0.0,0.0,0,0,0,0,0,1,1,0,0,0
236424000,11.32335,11.323415,-1.0,-1.0,0.0,0.0,0.49903893,1.0729979,0.0,3,0.0,0.0,0.0,0.0,0.0,0,0,0,0,0,1,1,0,0,0
236928000,11.32335,11.323415,-1.0,-1.0,0.0,0.0,0.49903893,1.0729979,0.0,3,0.0,0.0,0.0,0.0,0.0,0,0,0,0,0,1,1,0,0,0
237432000,11.32335,11.323415,-1.0,-1.0,0.0,0.0,0.49903893,1.0729979,0.0,3,0.0,0.0,0.0,0.0,0.0,0,0,0,0,0,1,1,0,0,0
237924000,11.32335,11.323415,-1.0,-1.0,0.0,0.0,0.49903893,1.0729979,0.0,3,0.0,0.0,0.0,0.0,0.0,0,0,0,0,0,1,1,0,0,0
238428000,11.32335,11.323415,-1.0,-1.0,0.0,0.0,0.49903893,1.0729979,0.0,3,0.0,0.0,0.0,0.0,0.0,0,0,0,0,0,1,1,0,0,0
238932000,11.32335,11.323415,-1.0,-1.0,0.0,0.0,0.49903893,1.0729979,0.0,3,0.0,0.0,0.0,0.0,0.0,0,0,0,0,0,1,1,0,0,0
239424000,11.32335,11.323415,-1.0,-1.0,0.0,0.0,0.49903893,1.0729979,0.0,3,0.0,0.0,0.0,0.0,0.0,0,0,0,0,0,1,1,0,0,0
239928000,11.32335,11.323415,-1.0,-1.0,0.0,0.0,0.49903893,1.0729979,0.0,3,0.0,0.0,0.0,0.0,0.0,0,0,0,0,0,1,1,0,0,0
240432000,11.32335,11.323415,-1.0,-1.0,0.0,0.0,0.49903893,1.0729979,0.0,3,0.0,0.0,0.0,0.0,0.0,0,0,0,0,0,1,1,0,0,0
240924000,11.32335,11.323415,-1.0,-1.0,0.0,0.0,0.49903893,1.0729979,0.0,3,0.0,0.0,0.0,0.0,0.0,0,0,0,0,0,1,1,0,0,0
241428000,11.32335,11.323415,-1.0,-1.0,0.0,0.0,0.49903893,1.0729979,0.0,3,0.0,0.0,0.0,0.0,0.0,0,0,0,0,0,1,1,0,0,0
241932000,11.32335,11.323415,-1.0,-1.0,0.0,0.0,0.49903893,1.0729979,0.0,3,0.0,0.0,0.0,0.0,0.0,0,0,0,0,0,1,1,0,0,0
242424000,11.32335,11.323415,-1.0,-1.0,0.0,0.0,0.49903893,1.0729979,0.0,3,0.0,0.0,0.0,0.0,0.0,0,0,0,0,0,1,1,0,0,0
242928000,11.32335,11.323415,-1.0,-1.0,0.0,0.0,0.49903893,1.0729979,0.0,3,0.0,0.0,0.0,0.0,0.0,0,0,0,0,0,1,1,0,0,0
243432000,11.32335,11.323415,-1.0,-1.0,0.0,0.0,0.49903893,1.0729979,0.0,3,0.0,0.0,0.0,0.0,0.0,0,0,0,0,0,1,1,0,0,0
243924000,11.32335,11.323415,-1.0,-1.0,0.0,0.0,0.49903893,1.0729979,0.0,3,0.0,0.0,0.0,0.0,0.0,0,0,0,0,0,1,1,0,0,0
244428000,11.32335,11.323415,-1.0,-1.0,0.0,0.0,0.49903893,1.0729979,0.0,3,0.0,0.0,0.0,0.0,0.0,0,0,0,0,0,1,1,0,0,0
244932000,11.32335,11.323415,-1.0,-1.0,0.0,0.0,0.49903893,1.0729979,0.0,3,0.0,0.0,0.0,0.0,0.0,0,0,0,0,0,1,1,0,0,0
245424000,11.32335,11.323415,-1.0,-1.0,0.0,0.0,0.49903893,1.0729979,0.0,3,0.0,0.0,0.0,0.0,0.0,0,0,0,0,0,1,1,0,0,0
245928000,11.32335,11.323415,-1.0,-1.0,0.0,0.0,0.49903893,1.0729979,0.0,3,0.0,0.0,0.0,0.0,0.0,0,0,0,0,0,1,1,0,0,0
246432000,11.32335,11.323415,-1.0,-1.0,0.0,0.0,0.49903893,1.0729979,0.0,3,0.0,0.0,0.0,0.0,0.0,0,0,0,0,0,1,1,0,0,0
246924000,11.32335,11.323415,-1.0,-1.0,0.0,0.0,0.49903893,1.0729979,0.0,3,0.0,0.0,0.0,0.0,0.0,0,0,0,0,0,1,1,0,0,0
247428000,11.32335,11.323415,-1.0,-1.0,0.0,0.0,0.49903893,1.0729979,0.0,3,0.0,0.0,0.0,0.0,0.0,0,0,0,0,0,1,1,0,0,0
247932000,11.32335,11.323415,-1.0,-1.0,0.0,0.0,0.49903893,1.0729979,0.0,3,0.0,0.0,0.0,0.0,0.0,0,0,0,0,0,1,1,0,0,0
248424000,11.32335,11.323415,-1.0,-1.0,0.0,0.0,0.49903893,1.0729979,0.0,3,0.0,0.0,0.0,0.0,0.0,0,0,0,0,0,1,1,0,0,0
248928000,11.32335,11.323415,-1.0,-1.0,0.0,0.0,0.49903893,1.0729979,0.0,3,0.0,0.0,0.0,0.0,0.0,0,0,0,0,0,1,1,0,0,0
249432000,11.32335,11.323415,-1.0,-1.0,0.0,0.0,0.49903893,1.0729979,0.0,3,0.0,0.0,0.0,0.0,0.0,0,0,0,0,0,1,1,0,0,0
249924000,11.32335,11.323415,-1.0,-1.0,0.0,0.0,0.49903893,1.0729979,0.0,3,0.0,0.0,0.0,0.0,0.0,0,0,0,0,0,1,1,0,0,0
250428000,11.32335,11.323415,-1.0,-1.0,0.0,0.0,0.49903893,1.0729979,0.0,3,0.0,0.0,0.0,0.0,0.0,0,0,0,0,0,1,1,0,0,0
250932000,11.32335,11.323415,-1.0,-1.0,0.0,0.0,0.49903893,1.0729979,0.0,3,0.0,0.0,0.0,0.0,0.0,0,0,0,0,0,1,1,0,0,0
251424000,11.32335,11.323415,-1.0,-1.0,0.0,0.0,0.49903893,1.0729979,0.0,3,0.0,0.0,0.0,0.0,0.0,0,0,0,0,0,1,1,0,0,0
251928000,11.32335,11.323415,-1.0,-1.0,0.0,0.0,0.49903893,1.0729979,0.0,3,0.0,0.0,0.0,0.0,0.0,0,0,0,0,0,1,1,0,0,0
252432000,11.32335,11.323415,-1.0,-1.0,0.0,0.0,0.49903893,1.0729979,0.0,3,0.0,0.0,0.0,0.0,0.0,0,0,0,0,0,1,1,0,0,0
252924000,11.32335,11.323415,-1.0,-1.0,0.0,0.0,0.49903893,1.0729979,0.0,3,0.0,0.0,0.0,0.0,0.0,0,0,0,0,0,1,1,0,0,0
253428000,11.32335,11.323415,-1.0,-1.0,0.0,0.0,0.49903893,1.0729979,0.0,3,0.0,0.0,0.0,0.0,0.0,0,0,0,0,0,1,1,0,0,0
253932000,11.32335,11.323415,-1.0,-1.0,0.0,0.0,0.49903893,1.0729979,0.0,3,0.0,0.0,0.0,0.0,0.0,0,0,0,0,0,1,1,0,0,0
254424000,11.32335,11.323415,-1.0,-1.0,0.0,0.0,0.49903893,1.0729979,0.0,3,0.0,0.0,0.0,0.0,0.0,0,0,0,0,0,1,1,0,0,0
254928000,11.32335,11.323415,-1.0,-1.0,0.0,0.0,0.49903893,1.0729979,0.0,3,0.0,0.0,0.0,0.0,0.0,0,0,0,0,0,1,1,0,0,0
255432000,11.32335,11.323415,-1.0,-1.0,0.0,0.0,0.49903893,1.0729979,0.0,3,0.0,0.0,0.0,0.0,0.0,0,0,0,0,0,1,1,0,0,0
255924000,11.32335,11.323415,-1.0,-1.0,0.0,0.0,0.49903893,1.0729979,0.0,3,0.0,0.0,0.0,0.0,0.0,0,0,0,0,0,1,1,0,0,0
256428000,11.32335,11.323415,-1.0,-1.0,0.0,0.0,0.49903893,1.0729979,0.0,3,0.0,0.0,0.0,0.0,0.0,0,0,0,0,0,1,1,0,0,0
256931999,11.32335,11.323415,-1.0,-1.0,0.0,0.0,0.49903893,1.0729979,0.0,3,0.0,0.0,0.0,0.0,0.0,0,0,0,0,0,1,1,0,0,0
257436000,11.32335,11.323415,-1.0,-1.0,0.0,0.0,0.49903893,1.0729979,0.0,3,0.0,0.0,0.0,0.0,0.0,0,0,0,0,0,1,1,0,0,0
257928000,11.32335,11.323415,-1.0,-1.0,0.0,0.0,0.49903893,1.0729979,0.0,3,0.0,0.0,0.0,0.0,0.0,0,0,0,0,0,1,1,0,0,0
258431999,11.32335,11.323415,-1.0,-1.0,0.0,0.0,0.49903893,1.0729979,0.0,3,0.0,0.0,0.0,0.0,0.0,0,0,0,0,0,1,1,0,0,0
258936000,11.32335,11.323415,-1.0,-1.0,0.0,0.0,0.49903893,1.0729979,0.0,3,0.0,0.0,0.0,0.0,0.0,0,0,0,0,0,1,1,0,0,0
259428000,11.32335,11.323415,-1.0,-1.0,0.0,0.0,0.49903893,1.0729979,0.0,3,0.0,0.0,0.0,0.0,0.0,0,0,0,0,0,1,1,0,0,0
259931999,11.32335,11.323415,-1.0,-1.0,0.0,0.0,0.49903893,1.0729979,0.0,3,0.0,0.0,0.0,0.0,0.0,0,0,0,0,0,1,1,0,0,0
260436000,11.32335,11.323415,-1.0,-1.0,0.0,0.0,0.49903893,1.0729979,0.0,3,0.0,0.0,0.0,0.0,0.0,0,0,0,0,0,1,1,0,0,0
260928000,11.32335,11.323415,-1.0,-1.0,0.0,0.0,0.49903893,1.0729979,0.0,3,0.0,0.0,0.0,0.0,0.0,0,0,0,0,0,1,1,0,0,0
261431999,11.32335,11.323415,-1.0,-1.0,0.0,0.0,0.49903893,1.0729979,0.0,3,0.0,0.0,0.0,0.0,0.0,0,0,0,0,0,1,1,0,0,0
261936000,11.32335,11.323415,-1.0,-1.0,0.0,0.0,0.49903893,1.0729979,0.0,3,0.0,0.0,0.0,0.0,0.0,0,0,0,0,0,1,1,0,0,0
262428000,11.32335,11.323415,-1.0,-1.0,0.0,0.0,0.49903893,1.0729979,0.0,3,0.0,0.0,0.0,0.0,0.0,0,0,0,0,0,1,1,0,0,0
262931999,11.32335,11.323415,-1.0,-1.0,0.0,0.0,0.49903893,1.0729979,0.0,3,0.0,0.0,0.0,0.0,0.0,0,0,0,0,0,1,1,0,0,0
263436000,11.32335,11.323415,-1.0,-1.0,0.0,0.0,0.49903893,1.0729979,0.0,3,0.0,0.0,0.0,0.0,0.0,0,0,0,0,0,1,1,0,0,0
263928000,11.32335,11.323415,-1.0,-1.0,0.0,0.0,0.49903893,1.0729979,0.0,3,0.0,0.0,0.0,0.0,0.0,0,0,0,0,0,1,1,0,0,0
264431999,11.32335,11.323415,-1.0,-1.0,0.0,0.0,0.49903893,1.0729979,0.0,3,0.0,0.0,0.0,0.0,0.0,0,0,0,0,0,1,1,0,0,0
264936000,11.32335,11.323415,-1.0,-1.0,0.0,0.0,0.49903893,1.0729979,0.0,3,0.0,0.0,0.0,0.0,0.0,0,0,0,0,0,1,1,0,0,0
265428000,11.32335,11.323415,-1.0,-1.0,0.0,0.0,0.49903893,1.0729979,0.0,3,0.0,0.0,0.0,0.0,0.0,0,0,0,0,0,1,1,0,0,0
265931999,11.32335,11.323415,-1.0,-1.0,0.0,0.0,0.49903893,1.0729979,0.0,3,0.0,0.0,0.0,0.0,0.0,0,0,0,0,0,1,1,0,0,0
266436000,11.32335,11.323415,-1.0,-1.0,0.0,0.0,0.49903893,1.0729979,0.0,3,0.0,0.0,0.0,0.0,0.0,0,0,0,0,0,1,1,0,0,0
266928000,11.32335,11.323415,-1.0,-1.0,0.0,0.0,0.49903893,1.0729979,0.0,3,0.0,0.0,0.0,0.0,0.0,0,0,0,0,0,1,1,0,0,0
267431999,11.32335,11.323415,-1.0,-1.0,0.0,0.0,0.49903893,1.0729979,0.0,3,0.0,0.0,0.0,0.0,0.0,0,0,0,0,0,1,1,0,0,0
267936000,11.32335,11.323415,-1.0,-1.0,0.0,0.0,0.49903893,1.0729979,0.0,3,0.0,0.0,0.0,0.0,0.0,0,0,0,0,0,1,1,0,0,0
268428000,11.32335,11.323415,-1.0,-1.0,0.0,0.0,0.49903893,1.0729979,0.0,3,0.0,0.0,0.0,0.0,0.0,0,0,0,0,0,1,1,0,0,0
268932000,11.32335,11.323415,-1.0,-1.0,0.0,0.0,0.49903893,1.0729979,0.0,3,0.0,0.0,0.0,0.0,0.0,0,0,0,0,0,1,1,0,0,0
269436000,11.32335,11.323415,-1.0,-1.0,0.0,0.0,0.49903893,1.0729979,0.0,3,0.0,0.0,0.0,0.0,0.0,0,0,0,0,0,1,1,0,0,0
269928000,11.32335,11.323415,-1.0,-1.0,0.0,0.0,0.49903893,1.0729979,0.0,3,0.0,0.0,0.0,0.0,0.0,0,0,0,0,0,1,1,0,0,0
270432000,11.32335,11.323415,-1.0,-1.0,0.0,0.0,0.49903893,1.0729979,0.0,3,0.0,0.0,0.0,0.0,0.0,0,0,0,0,0,1,1,0,0,0
270936000,11.32335,11.323415,-1.0,-1.0,0.0,0.0,0.49903893,1.0729979,0.0,3,0.0,0.0,0.0,0.0,0.0,0,0,0,0,0,1,1,0,0,0
271428000,11.32335,11.323415,-1.0,-1.0,0.0,0.0,0.49903893,1.0729979,0.0,3,0.0,0.0,0.0,0.0,0.0,0,0,0,0,0,1,1,0,0,0
271932000,11.32335,11.323415,-1.0,-1.0,0.0,0.0,0.49903893,1.0729979,0.0,3,0.0,0.0,0.0,0.0,0.0,0,0,0,0,0,1,1,0,0,0
272436000,11.32335,11.323415,-1.0,-1.0,0.0,0.0,0.49903893,1.0729979,0.0,3,0.0,0.0,0.0,0.0,0.0,0,0,0,0,0,1,1,0,0,0
272928000,11.32335,11.323415,-1.0,-1.0,0.0,0.0,0.49903893,1.0729979,0.0,3,0.0,0.0,0.0,0.0,0.0,0,0,0,0,0,1,1,0,0,0
273432000,11.32335,11.323415,-1.0,-1.0,0.0,0.0,0.49903893,1.0729979,0.0,3,0.0,0.0,0.0,0.0,0.0,0,0,0,0,0,1,1,0,0,0
273936000,11.32335,11.323415,-1.0,-1.0,0.0,0.0,0.49903893,1.0729979,0.0,3,0.0,0.0,0.0,0.0,0.0,0,0,0,0,0,1,1,0,0,0
274428000,11.32335,11.323415,-1.0,-1.0,0.0,0.0,0.49903893,1.0729979,0.0,3,0.0,0.0,0.0,0.0,0.0,0,0,0,0,0,1,1,0,0,0
274932000,11.32335,11.323415,-1.0,-1.0,0.0,0.0,0.49903893,1.0729979,0.0,3,0.0,0.0,0.0,0.0,0.0,0,0,0,0,0,1,1,0,0,0
275436000,11.32335,11.323415,-1.0,-1.0,0.0,0.0,0.49903893,1.0729979,0.0,3,0.0,0.0,0.0,0.0,0.0,0,0,0,0,0,1,1,0,0,0
275928000,11.32335,11.323415,-1.0,-1.0,0.0,0.0,0.49903893,1.0729979,0.0,3,0.0,0.0,0.0,0.0,0.0,0,0,0,0,0,1,1,0,0,0
276432000,11.32335,11.323415,-1.0,-1.0,0.0,0.0,0.49903893,1.0729979,0.0,3,0.0,0.0,0.0,0.0,0.0,0,0,0,0,0,1,1,0,0,0
276936000,11.32335,11.323415,-1.0,-1.0,0.0,0.0,0.49903893,1.0729979,0.0,3,0.0,0.0,0.0,0.0,0.0,0,0,0,0,0,1,1,0,0,0
277428000,11.32335,11.323415,-1.0,-1.0,0.0,0.0,0.49903893,1.0729979,0.0,3,0.0,0.0,0.0,0.0,0.0,0,0,0,0,0,1,1,0,0,0
277932000,11.32335,11.323415,-1.0,-1.0,0.0,0.0,0.49903893,1.0729979,0.0,3,0.0,0.0,0.0,0.0,0.0,0,0,0,0,0,1,1,0,0,0
278436000,11.32335,11.323415,-1.0,-1.0,0.0,0.0,0.49903893,1.0729979,0.0,3,0.0,0.0,0.0,0.0,0.0,0,0,0,0,0,1,1,0,0,0
278928000,11.32335,11.323415,-1.0,-1.0,0.0,0.0,0.49903893,1.0729979,0.0,3,0.0,0.0,0.0,0.0,0.0,0,0,0,0,0,1,1,0,0,0
