timestamp,ref_timestamp,ref_lat,ref_lon,x,y,z,delta_xy[0],delta_xy[1],delta_z,vx,vy,vz,z_deriv,delta_vxy[0],delta_vxy[1],delta_vz,ax,ay,az,yaw,ref_alt,dist_bottom,dist_bottom_rate,eph,epv,evh,evv,vxy_max,vz_max,hagl_min,hagl_max,xy_valid,z_valid,v_xy_valid,v_z_valid,xy_reset_counter,z_reset_counter,vxy_reset_counter,vz_reset_counter,xy_global,z_global,dist_bottom_valid
3224000,0,0.0,0.0,0.0116300415,-0.00069828087,-0.08126891,-1.7307005e-06,-1.7753391e-06,0.0,0.036639646,-0.00016149276,-0.14554767,-0.14513683,-0.00043267512,-0.00044383475,0.0,0.09047047,-0.023357533,-0.120288685,0.40876085,0.0,0.1381609,0.14554767,0.22440296,0.43406546,0.4435562,0.65189296,inf,inf,inf,inf,1,1,1,1,1,0,1,1,0,0,0
3328000,0,0.0,0.0,0.014091244,-0.00035851874,-0.08995817,-1.7307005e-06,-1.7753391e-06,0.0,0.042088546,0.0010590348,-0.15419953,-0.14666487,-0.00043267512,-0.00044383475,0.0,0.04907738,-0.018649552,-0.11434964,0.4088164,0.0,0.15044081,0.15419953,0.20859921,0.42929354,0.38807344,0.6199644,inf,inf,inf,inf,1,1,1,1,1,0,1,1,0,0,0
3432000,0,0.0,0.0,0.016755493,2.5458805e-05,-0.09686998,-1.7307005e-06,-1.7753391e-06,0.0,0.046982042,0.0024392419,-0.15828934,-0.14257964,-0.00043267512,-0.00044383475,0.0,0.09604848,0.009540927,-0.043916512,0.4087366,0.0,0.14709637,0.15828934,0.2043698,0.43452975,0.36115587,0.59460455,inf,inf,inf,inf,1,1,1,1,1,0,1,1,0,0,0
3528000,0,0.0,0.0,0.01941214,0.00036680282,-0.10456534,-1.7307005e-06,-1.7753391e-06,0.0,0.052865963,0.0024162042,-0.16355596,-0.14260416,-0.00043267512,-0.00044383475,0.0,0.18291505,-0.03414011,-0.09460467,0.40865293,0.0,0.14099863,0.16355596,0.19851461,0.4353319,0.3424455,0.56855863,inf,inf,inf,inf,1,1,1,1,1,0,1,1,0,0,0
3624000,0,0.0,0.0,0.022216357,0.0007027084,-0.111592285,-1.7307005e-06,-1.7753391e-06,0.0,0.05808213,0.001769909,-0.16698498,-0.14026156,-0.00043267512,-0.00044383475,0.0,0.1341922,-0.023078537,-0.055545937,0.4085583,0.0,0.15532207,0.16698498,0.19407226,0.4355838,0.33183712,0.5435621,inf,inf,inf,inf,1,1,1,1,1,0,1,1,0,0,0
3728000,0,0.0,0.0,0.025583507,0.0009638675,-0.11593085,-1.7307005e-06,-1.7753391e-06,0.0,0.06526505,0.0027966085,-0.17138867,-0.13576952,-0.00043267512,-0.00044383475,0.0,0.12552834,-0.008827402,-0.121879384,0.40882683,0.0,0.15957567,0.17138867,0.1858588,0.42807037,0.3219203,0.51258814,inf,inf,inf,inf,1,1,1,1,1,0,1,1,0,0,0
3824000,0,0.0,0.0,0.028796537,0.0012040075,-0.12117076,-1.7307005e-06,-1.7753391e-06,0.0,0.06927897,0.0026923614,-0.17419319,-0.13260348,-0.00043267512,-0.00044383475,0.0,0.084827855,-0.073180445,-0.102282494,0.4088009,0.0,0.15028636,0.17419319,0.18344559,0.42644095,0.3212233,0.4902324,inf,inf,inf,inf,1,1,1,1,1,0,1,1,0,0,0
3928000,0,0.0,0.0,0.032192174,0.0013917789,-0.12800694,-1.7307005e-06,-1.7753391e-06,0.0,0.07436368,0.0037558044,-0.17993848,-0.13345224,-0.00043267512,-0.00044383475,0.0,0.104592174,0.03675458,-0.087861896,0.40846586,0.0,0.15093264,0.17993848,0.18423633,0.42762443,0.3262195,0.47082335,inf,inf,inf,inf,1,1,1,1,1,0,1,1,0,0,0
4028000,0,0.0,0.0,0.035743285,0.0016842437,-0.13521941,-1.7307005e-06,-1.7753391e-06,0.0,0.08155485,0.0048492746,-0.18305124,-0.13229449,-0.00043267512,-0.00044383475,0.0,0.14023793,-0.0326282,-0.10804273,0.4083359,0.0,0.15205334,0.18305124,0.18367884,0.42500058,0.3300881,0.45242277,inf,inf,inf,inf,1,1,1,1,1,0,1,1,0,0,0
4132000,0,0.0,0.0,0.039370544,0.0019792747,-0.14306301,-1.7307005e-06,-1.7753391e-06,0.0,0.086492814,0.0045140153,-0.1883989,-0.1338945,-0.00043267512,-0.00044383475,0.0,0.11572404,-0.023424307,-0.116590135,0.40793616,0.0,0.15108784,0.1883989,0.17976841,0.41558373,0.33050984,0.43042237,inf,inf,inf,inf,1,1,1,1,1,0,1,1,0,0,0
4236000,0,0.0,0.0,0.042871475,0.0022402739,-0.14966765,-1.7307005e-06,-1.7753391e-06,0.0,0.09370471,0.0051784203,-0.19214979,-0.13255942,-0.00043267512,-0.00044383475,0.0,0.1332803,-0.03524598,-0.15647522,0.4076754,0.0,0.16147952,0.19214979,0.17767227,0.40782335,0.33134136,0.41129363,inf,inf,inf,inf,1,1,1,1,1,0,1,1,0,0,0
4340000,0,0.0,0.0,0.04618446,0.0024950271,-0.15239877,-1.7307005e-06,-1.7753391e-06,0.0,0.097457774,0.0044634244,-0.19270322,-0.12457502,-0.00043267512,-0.00044383475,0.0,0.17810762,-0.083543286,-0.13939756,0.4076416,0.0,0.16356435,0.19270322,0.18104592,0.40755352,0.3376709,0.40030894,inf,inf,inf,inf,1,1,1,1,1,0,1,1,0,0,0
4436000,0,0.0,0.0,0.049139753,0.0025876048,-0.15461461,-1.7307005e-06,-1.7753391e-06,0.0,0.10189221,0.003140631,-0.19410023,-0.11876009,-0.00043267512,-0.00044383475,0.0,0.13471203,-0.059579525,-0.2042204,0.40793544,0.0,0.1643589,0.19410023,0.18251859,0.40458336,0.34026268,0.39007154,inf,inf,inf,inf,1,1,1,1,1,0,1,1,0,0,0
4532000,0,0.0,0.0,0.05177302,0.0025030999,-0.155666,-1.7307005e-06,-1.7753391e-06,0.0,0.10504609,0.0016913125,-0.19194953,-0.10914051,-0.00043267512,-0.00044383475,0.0,0.060348853,-0.058151394,-0.085157335,0.4079897,0.0,0.16349044,0.19194953,0.18425769,0.40183267,0.3419321,0.38148785,inf,inf,inf,inf,1,1,1,1,1,0,1,1,0,0,0
4636000,0,0.0,0.0,0.0541456,0.0023369957,-0.15786351,-1.7307005e-06,-1.7753391e-06,0.0,0.10497737,0.0031543246,-0.1935025,-0.10474083,-0.00043267512,-0.00044383475,0.0,0.14445117,0.077193975,-0.060894523,0.4079492,0.0,0.15635112,0.1935025,0.18164833,0.39361346,0.3367522,0.3704233,inf,inf,inf,inf,1,1,1,1,1,0,1,1,0,0,0
4732000,0,0.0,0.0,0.055783108,0.0022432709,-0.16245343,-1.7307005e-06,-1.7753391e-06,0.0,0.10683901,0.0049120914,-0.19707142,-0.10569263,-0.00043267512,-0.00044383475,0.0,0.13787854,0.07014509,-0.09266566,0.40815863,0.0,0.1535471,0.19707142,0.18296401,0.39117166,0.33544683,0.36455476,inf,inf,inf,inf,1,1,1,1,1,0,1,1,0,0,0
4836000,0,0.0,0.0,0.057118226,0.0023327987,-0.16774772,-1.7307005e-06,-1.7753391e-06,0.0,0.10809778,0.0052123633,-0.2000124,-0.10594634,-0.00043267512,-0.00044383475,0.0,0.18945359,0.037756987,-0.20576453,0.40832388,0.0,0.15338477,0.2000124,0.18635523,0.3912595,0.3356088,0.3608646,inf,inf,inf,inf,1,1,1,1,1,0,1,1,0,0,0
4932000,0,0.0,0.0,0.05801363,0.0024051627,-0.17331745,-1.7307005e-06,-1.7753391e-06,0.0,0.108580224,0.004269624,-0.20402046,-0.107792705,-0.00043267512,-0.00044383475,0.0,0.11286273,0.028317312,-0.1467578,0.4085365,0.0,0.15584987,0.20402046,0.18711855,0.38911957,0.33210504,0.35691562,inf,inf,inf,inf,1,1,1,1,1,0,1,1,0,0,0
5036000,0,0.0,0.0,0.0,0.0,-0.17561638,-1.7307005e-06,-1.7753391e-06,0.0,0.1061799,0.008429338,-0.20290871,-0.10059857,-0.00043267512,-0.00044383475,0.0,0.10651192,-0.0020294755,-0.097072676,0.40875962,0.0,0.1607588,0.20290871,0.18361226,0.3824226,0.32278404,0.35087842,inf,inf,inf,inf,0,1,0,1,1,0,1,1,0,0,0
5132000,0,0.0,0.0,0.0,0.0,-0.17872672,-1.7307005e-06,-1.7753391e-06,0.0,0.10411217,0.009605159,-0.20516504,-0.098832674,-0.00043267512,-0.00044383475,0.0,0.014011398,0.008625313,-0.08349399,0.4090155,0.0,0.15936513,0.20516504,0.18405268,0.38093406,0.31843477,0.34852275,inf,inf,inf,inf,0,1,0,1,1,0,1,1,0,0,0
5236000,0,0.0,0.0,0.0,0.0,-0.18241253,-1.7307005e-06,-1.7753391e-06,0.0,0.10194639,0.009759653,-0.2083706,-0.09836286,-0.00043267512,-0.00044383475,0.0,0.20018393,-0.042023163,-0.14552473,0.4093827,0.0,0.15569532,0.2083706,0.18623464,0.38176456,0.31560898,0.34772864,inf,inf,inf,inf,0,1,0,1,1,0,1,1,0,0,0
5332000,0,0.0,0.0,0.0,0.0,-0.18416853,-1.7307005e-06,-1.7753391e-06,0.0,0.101726115,0.011122244,-0.207934,-0.09298779,-0.00043267512,-0.00044383475,0.0,0.07208937,-0.047645792,-0.06930343,0.4095158,0.0,0.16188252,0.207934,0.18022357,0.37404177,0.30370033,0.34248844,inf,inf,inf,inf,0,1,0,1,1,0,1,1,0,0,0
5436000,0,0.0,0.0,0.0,0.0,-0.18627757,-1.7307005e-06,-1.7753391e-06,0.0,0.09928868,0.011318365,-0.20705454,-0.08766006,-0.00043267512,-0.00044383475,0.0,0.035917122,0.06441478,-0.13419706,0.40955287,0.0,0.16171724,0.20705454,0.18217959,0.375419,0.30109754,0.3424926,inf,inf,inf,inf,0,1,0,1,1,0,1,1,0,0,0
5532000,0,0.0,0.0,0.0,0.0,-0.18586367,-1.7307005e-06,-1.7753391e-06,0.0,0.09782903,0.011576937,-0.2054949,-0.08019662,-0.00043267512,-0.00044383475,0.0,0.11153781,-0.0019417347,-0.0832295,0.40965167,0.0,0.1639195,0.2054949,0.1818499,0.37474424,0.296301,0.34142452,inf,inf,inf,inf,0,1,0,1,1,0,1,1,0,0,0
5636000,0,0.0,0.0,0.0,0.0,-0.18218958,-1.7307005e-06,-1.7753391e-06,0.0,0.09590051,0.010963909,-0.20089297,-0.06716739,-0.00043267512,-0.00044383475,0.0,0.08089959,-0.04413074,-0.065391876,0.4098339,0.0,0.16771354,0.20089297,0.17786837,0.37010902,0.28747,0.33810368,inf,inf,inf,inf,0,1,0,1,1,0,1,1,0,0,0
5732000,0,0.0,0.0,0.0,0.0,-0.1797001,-1.7307005e-06,-1.7753391e-06,0.0,0.09548395,0.013283916,-0.19797449,-0.058776703,-0.00043267512,-0.00044383475,0.0,0.159102,0.045509838,-0.102549784,0.40997213,0.0,0.16068351,0.19797449,0.1775885,0.36988953,0.28347865,0.3372367,inf,inf,inf,inf,0,1,0,1,1,0,1,1,0,0,0
5836000,0,0.0,0.0,0.0,0.0,-0.17888121,-1.7307005e-06,-1.7753391e-06,0.0,0.09225222,0.013923676,-0.19557177,-0.05334719,-0.00043267512,-0.00044383475,0.0,0.0804103,-0.0036388736,-0.098078504,0.41025177,0.0,0.15503557,0.19557177,0.17915058,0.37192363,0.28158775,0.33746794,inf,inf,inf,inf,0,1,0,1,1,0,1,1,0,0,0
5932000,0,0.0,0.0,0.0,0.0,-0.17679678,-1.7307005e-06,-1.7753391e-06,0.0,0.09118329,0.013303098,-0.18988162,-0.04401803,-0.00043267512,-0.00044383475,0.0,0.06555812,0.013278214,-0.072088085,0.41022098,0.0,0.158638,0.18988162,0.17899175,0.3720563,0.2784485,0.33656096,inf,inf,inf,inf,0,1,0,1,1,0,1,1,0,0,0
6036000,0,0.0,0.0,0.0,0.0,-0.17356874,-1.7307005e-06,-1.7753391e-06,0.0,0.085363135,0.012981843,-0.18545356,-0.03570685,-0.00043267512,-0.00044383475,0.0,-0.047199775,-0.0689913,-0.08041504,0.4100376,0.0,0.15879528,0.18545356,0.1749254,0.36794174,0.27102387,0.33287647,inf,inf,inf,inf,0,1,0,1,1,0,1,1,0,0,0
6132000,0,0.0,0.0,0.0,0.0,-0.16915895,-1.7307005e-06,-1.7753391e-06,0.0,0.08087198,0.012395217,-0.17903697,-0.025042338,-0.00043267512,-0.00044383475,0.0,0.07538028,-0.0042643803,0.014989636,0.41027132,0.0,0.15796444,0.17903697,0.17473154,0.36817828,0.26834983,0.33161488,inf,inf,inf,inf,0,1,0,1,1,0,1,1,0,0,0
6236000,0,0.0,0.0,0.0,0.0,-0.16368742,-1.7307005e-06,-1.7753391e-06,0.0,0.07816234,0.012571282,-0.17101195,-0.013108934,-0.00043267512,-0.00044383475,0.0,0.057509135,0.041246057,-0.095692456,0.41028696,0.0,0.15028733,0.17101195,0.17640767,0.3706276,0.26786894,0.33129737,inf,inf,inf,inf,0,1,0,1,1,0,1,1,0,0,0
6332000,0,0.0,0.0,0.0,0.0,-0.15947494,-1.7307005e-06,-1.7753391e-06,0.0,0.07649748,0.012384685,-0.16547784,-0.00589313,-0.00043267512,-0.00044383475,0.0,0.08063414,-0.0078066653,-0.07169507,0.4102736,0.0,0.14405349,0.16547784,0.17617051,0.37087473,0.265592,0.32959214,inf,inf,inf,inf,0,1,0,1,1,0,1,1,0,0,0
6436000,0,0.0,0.0,0.0,0.0,-0.15614747,-1.7307005e-06,-1.7753391e-06,0.0,0.07273228,0.014423522,-0.16285394,-0.003190734,-0.00043267512,-0.00044383475,0.0,0.03641273,0.0155683,-0.12872274,0.41055453,0.0,0.14121905,0.16285394,0.17256664,0.3670444,0.25985458,0.32515913,inf,inf,inf,inf,0,1,0,1,1,0,1,1,0,0,0
6532000,0,0.0,0.0,0.0,0.0,-0.15208502,-1.7307005e-06,-1.7753391e-06,0.0,0.06959367,0.016321164,-0.15410264,0.0062869256,-0.00043267512,-0.00044383475,0.0,0.105304495,-0.00023096071,-0.05204696,0.41063207,0.0,0.14502093,0.15410264,0.17254037,0.36735576,0.2582477,0.32309365,inf,inf,inf,inf,0,1,0,1,1,0,1,1,0,0,0
6636000,0,0.0,0.0,0.0,0.0,-0.14829904,-1.7307005e-06,-1.7753391e-06,0.0,0.06747193,0.0172618,-0.14704302,0.012600503,-0.00043267512,-0.00044383475,0.0,0.0077155996,0.03928394,-0.01109857,0.41066292,0.0,0.13414237,0.14704302,0.17414302,0.36964175,0.25826102,0.32174942,inf,inf,inf,inf,0,1,0,1,1,0,1,1,0,0,0
6732000,0,0.0,0.0,0.0,0.0,-0.14536743,-1.7307005e-06,-1.7753391e-06,0.0,0.064080134,0.019660182,-0.14418203,0.013979471,-0.00043267512,-0.00044383475,0.0,0.1512326,0.017995661,-0.06642099,0.41084582,0.0,0.13502371,0.14418203,0.1691696,0.363733,0.2516439,0.3157093,inf,inf,inf,inf,0,1,0,1,1,0,1,1,0,0,0
6836000,0,0.0,0.0,0.0,0.0,-0.14157668,-1.7307005e-06,-1.7753391e-06,0.0,0.062484324,0.023027472,-0.13743187,0.019560797,-0.00043267512,-0.00044383475,0.0,0.064180546,0.011780735,-0.037723217,0.41087756,0.0,0.1297751,0.13743187,0.17090099,0.3659545,0.2519268,0.3139851,inf,inf,inf,inf,0,1,0,1,1,0,1,1,0,0,0
6932000,0,0.0,0.0,0.0,0.0,-0.13674939,-1.7307005e-06,-1.7753391e-06,0.0,0.05760575,0.026012413,-0.13148633,0.025410935,-0.00043267512,-0.00044383475,0.0,0.105234616,-0.02301068,-0.08309632,0.41067138,0.0,0.1333653,0.13148633,0.17086273,0.36596137,0.2505316,0.31103626,inf,inf,inf,inf,0,1,0,1,1,0,1,1,0,0,0
7036000,0,0.0,0.0,0.0,0.0,-0.12952402,-1.7307005e-06,-1.7753391e-06,0.0,0.056774043,0.027912173,-0.12400426,0.034207955,-0.00043267512,-0.00044383475,0.0,0.08438268,0.08004062,-0.019988975,0.41061732,0.0,0.1330714,0.12400426,0.16784227,0.36204103,0.24600834,0.30549598,inf,inf,inf,inf,0,1,0,1,1,0,1,1,0,0,0
7132000,0,0.0,0.0,0.0,0.0,-0.12480134,-1.7307005e-06,-1.7753391e-06,0.0,0.05417939,0.030114384,-0.11791576,0.03876636,-0.00043267512,-0.00044383475,0.0,0.017050186,0.038008705,0.034524124,0.4107718,0.0,0.12804678,0.11791576,0.16794325,0.36198074,0.24473748,0.30230367,inf,inf,inf,inf,0,1,0,1,1,0,1,1,0,0,0
7236000,0,0.0,0.0,0.0,0.0,-0.119092815,-1.7307005e-06,-1.7753391e-06,0.0,0.05371374,0.030004598,-0.11044992,0.044669278,-0.00043267512,-0.00044383475,0.0,0.108514994,0.01855855,0.011336057,0.4109183,0.0,0.124356136,0.11044992,0.16966935,0.36381572,0.24501334,0.29983148,inf,inf,inf,inf,0,1,0,1,1,0,1,1,0,0,0
7332000,0,0.0,0.0,0.0,0.0,-0.1129368,-1.7307005e-06,-1.7753391e-06,0.0,0.050603505,0.030052897,-0.10243083,0.051710464,-0.00043267512,-0.00044383475,0.0,-0.012329458,0.018797966,-0.05022343,0.4107837,0.0,0.12027699,0.10243083,0.16990983,0.3636766,0.24375151,0.29645097,inf,inf,inf,inf,0,1,0,1,1,0,1,1,0,0,0
7436000,0,0.0,0.0,0.0,0.0,-0.10810383,-1.7307005e-06,-1.7753391e-06,0.0,0.049404193,0.02908435,-0.09908333,0.05171479,-0.00043267512,-0.00044383475,0.0,0.0070102685,0.03145717,-0.073756084,0.41060263,0.0,0.11522898,0.09908333,0.16680622,0.35938442,0.23898906,0.29037037,inf,inf,inf,inf,0,1,0,1,1,0,1,1,0,0,0
7532000,0,0.0,0.0,0.0,0.0,-0.10368501,-1.7307005e-06,-1.7753391e-06,0.0,0.045963354,0.029083299,-0.0931917,0.054579314,-0.00043267512,-0.00044383475,0.0,-0.03165903,0.093827814,-0.061551105,0.4108628,0.0,0.115748376,0.0931917,0.16696344,0.35904703,0.23751707,0.28678584,inf,inf,inf,inf,0,1,0,1,1,0,1,1,0,0,0
7636000,0,0.0,0.0,0.0,0.0,-0.099634364,-1.7307005e-06,-1.7753391e-06,0.0,0.042718254,0.02949726,-0.089527585,0.054221652,-0.00043267512,-0.00044383475,0.0,0.082075216,-0.0055036796,0.021911224,0.4111124,0.0,0.1086781,0.089527585,0.16874795,0.36057127,0.23760746,0.28392988,inf,inf,inf,inf,0,1,0,1,1,0,1,1,0,0,0
7732000,0,0.0,0.0,0.0,0.0,-0.09507598,-1.7307005e-06,-1.7753391e-06,0.0,0.04174832,0.028166445,-0.084846236,0.056222364,-0.00043267512,-0.00044383475,0.0,0.0036416748,0.022488762,-0.06907805,0.41112468,0.0,0.11108356,0.084846236,0.1688025,0.36002252,0.23591729,0.28017125,inf,inf,inf,inf,0,1,0,1,1,0,1,1,0,0,0
7836000,0,0.0,0.0,0.0,0.0,-0.09070472,-1.7307005e-06,-1.7753391e-06,0.0,0.03758959,0.025595648,-0.08022438,0.057218794,-0.00043267512,-0.00044383475,0.0,0.04455281,0.03052344,-0.0008530914,0.41123158,0.0,0.10780601,0.08022438,0.16583362,0.35561696,0.2311102,0.27404296,inf,inf,inf,inf,0,1,0,1,1,0,1,1,0,0,0
7932000,0,0.0,0.0,0.0,0.0,-0.087220736,-1.7307005e-06,-1.7753391e-06,0.0,0.033488594,0.025540765,-0.07886066,0.05490636,-0.00043267512,-0.00044383475,0.0,0.057657797,0.013415569,-0.110994086,0.41121015,0.0,0.104041435,0.07886066,0.16595049,0.3550194,0.22940649,0.27030262,inf,inf,inf,inf,0,1,0,1,1,0,1,1,0,0,0
8035999,0,0.0,0.0,0.0,0.0,-0.08352911,-1.7307005e-06,-1.7753391e-06,0.0,0.029536366,0.024711505,-0.07505043,0.055053607,-0.00043267512,-0.00044383475,0.0,0.05122548,-0.012821063,-0.0135886,0.41130805,0.0,0.10315885,0.07505043,0.16747521,0.35608643,0.22888091,0.2671728,inf,inf,inf,inf,0,1,0,1,1,0,1,1,0,0,0
8131999,0,0.0,0.0,0.0,0.0,-0.08026892,-1.7307005e-06,-1.7753391e-06,0.0,0.02843422,0.021980783,-0.07036985,0.0561393,-0.00043267512,-0.00044383475,0.0,0.0118649015,0.014120103,-0.04003453,0.41131315,0.0,0.10399866,0.07036985,0.16306368,0.34989047,0.22274923,0.26051298,inf,inf,inf,inf,0,1,0,1,1,0,1,1,0,0,0
8236000,0,0.0,0.0,0.0,0.0,-0.07673252,-1.7307005e-06,-1.7753391e-06,0.0,0.02486816,0.020444283,-0.064611696,0.05807506,-0.00043267512,-0.00044383475,0.0,0.014937744,-0.009615469,-0.03414228,0.4112176,0.0,0.102348335,0.064611696,0.16459054,0.3508687,0.22208163,0.25742558,inf,inf,inf,inf,0,1,0,1,1,0,1,1,0,0,0
8339999,0,0.0,0.0,0.0,0.0,-0.07151207,-1.7307005e-06,-1.7753391e-06,0.0,0.02331538,0.021377206,-0.059667386,0.060864344,-0.00043267512,-0.00044383475,0.0,3.7465998e-05,-0.0012329791,-0.01873358,0.4114875,0.0,0.10498429,0.059667386,0.1617332,0.34647766,0.21720552,0.25158542,inf,inf,inf,inf,0,1,0,1,1,0,1,1,0,0,0
8436000,0,0.0,0.0,0.0,0.0,-0.06610895,-1.7307005e-06,-1.7753391e-06,0.0,0.020958304,0.021416312,-0.055387154,0.06353152,-0.00043267512,-0.00044383475,0.0,0.057979193,-0.01835171,-0.0480134,0.41169748,0.0,0.10568738,0.055387154,0.1617802,0.34568265,0.21520707,0.2479529,inf,inf,inf,inf,0,1,0,1,1,0,1,1,0,0,0
8540000,0,0.0,0.0,0.0,0.0,-0.060932253,-1.7307005e-06,-1.7753391e-06,0.0,0.01847493,0.020417016,-0.04976474,0.0663345,-0.00043267512,-0.00044383475,0.0,0.0073976694,-0.040978946,-0.04331674,0.4118356,0.0,0.1,0.04976474,0.16342425,0.34662604,0.21465808,0.2450147,inf,inf,inf,inf,0,1,0,1,1,0,1,1,0,0,0
8644000,0,0.0,0.0,0.0,0.0,-0.058632858,-1.7307005e-06,-1.7753391e-06,0.0,0.017911948,0.021227723,-0.04730785,0.06311597,-0.00043267512,-0.00044383475,0.0,-0.0068929507,0.038767662,0.041050833,0.41179577,0.0,0.1,0.04730785,0.16086607,0.34247214,0.21013163,0.2395679,inf,inf,inf,inf,0,1,0,1,1,0,1,1,0,0,0
8740000,0,0.0,0.0,0.0,0.0,-0.05714891,-1.7307005e-06,-1.7753391e-06,0.0,0.01712468,0.021090254,-0.044785243,0.06032105,-0.00043267512,-0.00044383475,0.0,0.12357375,0.02297655,0.009639188,0.41185498,0.0,0.1,0.044785243,0.16098422,0.34169638,0.2082163,0.23613398,inf,inf,inf,inf,0,1,0,1,1,0,1,1,0,0,0
8836000,0,0.0,0.0,0.0,0.0,-0.055794757,-1.7307005e-06,-1.7753391e-06,0.0,0.016201517,0.020221874,-0.042543955,0.057497323,-0.00043267512,-0.00044383475,0.0,0.09104926,-0.0029704096,-0.079594545,0.41199666,0.0,0.1,0.042543955,0.16102594,0.3408578,0.20622991,0.23271829,inf,inf,inf,inf,0,1,0,1,1,0,1,1,0,0,0
8940000,0,0.0,0.0,0.0,0.0,-0.054076165,-1.7307005e-06,-1.7753391e-06,0.0,0.014047581,0.02228661,-0.041419677,0.0539556,-0.00043267512,-0.00044383475,0.0,-0.008703733,0.068616174,-0.079032026,0.4119969,0.0,0.1,0.041419677,0.15838581,0.33673224,0.20160568,0.22752471,inf,inf,inf,inf,0,1,0,1,1,0,1,1,0,0,0
9036000,0,0.0,0.0,0.0,0.0,-0.0519433,-1.7307005e-06,-1.7753391e-06,0.0,0.012904446,0.020113153,-0.039310817,0.052808385,-0.00043267512,-0.00044383475,0.0,0.060329866,-0.044244636,0.042129304,0.4117242,0.0,0.1,0.039310817,0.15832771,0.33583692,0.19952118,0.22421296,inf,inf,inf,inf,0,1,0,1,1,0,1,1,0,0,0
9140000,0,0.0,0.0,0.0,0.0,-0.04858662,-1.7307005e-06,-1.7753391e-06,0.0,0.011184709,0.020797897,-0.03759315,0.052174002,-0.00043267512,-0.00044383475,0.0,0.0049633086,0.08789664,0.011348165,0.41177636,0.0,0.1,0.03759315,0.1596243,0.33644107,0.19854563,0.2214492,inf,inf,inf,inf,0,1,0,1,1,0,1,1,0,0,0
9236000,0,0.0,0.0,0.0,0.0,-0.04693375,-1.7307005e-06,-1.7753391e-06,0.0,0.010443241,0.020653492,-0.035263766,0.050886977,-0.00043267512,-0.00044383475,0.0,-0.016944045,0.09783893,0.007358379,0.41193965,0.0,0.1,0.035263766,0.15957002,0.3355143,0.19649012,0.21824783,inf,inf,inf,inf,0,1,0,1,1,0,1,1,0,0,0
9340000,0,0.0,0.0,0.0,0.0,-0.04662054,-1.7307005e-06,-1.7753391e-06,0.0,0.011759336,0.020909354,-0.034023046,0.046968058,-0.00043267512,-0.00044383475,0.0,0.034134485,-0.026859444,-0.04792213,0.41177148,0.0,0.1,0.034023046,0.15672219,0.33132926,0.1918201,0.21335164,inf,inf,inf,inf,0,1,0,1,1,0,1,1,0,0,0
9436000,0,0.0,0.0,0.0,0.0,-0.04667048,-1.7307005e-06,-1.7753391e-06,0.0,0.0098004555,0.022461582,-0.03358269,0.042804055,-0.00043267512,-0.00044383475,0.0,0.04277186,0.02591546,-0.09966734,0.41171736,0.0,0.1,0.03358269,0.15663308,0.33038476,0.1898152,0.21028695,inf,inf,inf,inf,0,1,0,1,1,0,1,1,0,0,0
9540000,0,0.0,0.0,0.0,0.0,-0.045240212,-1.7307005e-06,-1.7753391e-06,0.0,0.009843949,0.02302177,-0.029081054,0.044245332,-0.00043267512,-0.00044383475,0.0,0.029644724,-0.004172667,-0.012580304,0.41169667,0.0,0.1,0.029081054,0.1577666,0.33081615,0.18872246,0.2076957,inf,inf,inf,inf,0,1,0,1,1,0,1,1,0,0,0
9636000,0,0.0,0.0,0.0,0.0,-0.04601995,-1.7307005e-06,-1.7753391e-06,0.0,0.0082626715,0.021462943,-0.02977335,0.038731955,-0.00043267512,-0.00044383475,0.0,0.008970557,-0.010469884,-0.04302058,0.41154635,0.0,0.1,0.02977335,0.1575113,0.32974678,0.18660137,0.20468353,inf,inf,inf,inf,0,1,0,1,1,0,1,1,0,0,0
9740000,0,0.0,0.0,0.0,0.0,-0.04504557,-1.7307005e-06,-1.7753391e-06,0.0,0.0064292764,0.020539453,-0.02795538,0.037796315,-0.00043267512,-0.00044383475,0.0,0.05157696,-0.014203745,-0.042994503,0.41159508,0.0,0.1,0.02795538,0.15481882,0.32573515,0.18230483,0.2002308,inf,inf,inf,inf,0,1,0,1,1,0,1,1,0,0,0
9836000,0,0.0,0.0,0.0,0.0,-0.044582404,-1.7307005e-06,-1.7753391e-06,0.0,0.0046092365,0.021877997,-0.024677716,0.038109813,-0.00043267512,-0.00044383475,0.0,0.022500578,0.03822687,0.023867002,0.41156888,0.0,0.1,0.024677716,0.15461332,0.32470933,0.18036978,0.197387,inf,inf,inf,inf,0,1,0,1,1,0,1,1,0,0,0
9940000,0,0.0,0.0,0.0,0.0,-0.044088002,-1.7307005e-06,-1.7753391e-06,0.0,0.0036944745,0.020187413,-0.023817526,0.03588764,-0.00043267512,-0.00044383475,0.0,0.059537355,-0.030021705,-0.039611008,0.411288,0.0,0.1,0.023817526,0.15190601,0.32075,0.17618348,0.19312443,inf,inf,inf,inf,0,1,0,1,1,0,1,1,0,0,0
10036000,0,0.0,0.0,0.0,0.0,-0.04356472,-1.7307005e-06,-1.7753391e-06,0.0,0.0023844147,0.018748771,-0.023949973,0.03327503,-0.00043267512,-0.00044383475,0.0,0.041681573,0.024142077,0.046637837,0.41114253,0.0,0.1,0.023949973,0.15175956,0.31977376,0.17437166,0.19044752,inf,inf,inf,inf,0,1,0,1,1,0,1,1,0,0,0
10140000,0,0.0,0.0,0.0,0.0,-0.042910628,-1.7307005e-06,-1.7753391e-06,0.0,0.0025216478,0.017780539,-0.025034525,0.029867446,-0.00043267512,-0.00044383475,0.0,-0.04096757,-0.015231976,-0.044173557,0.4108239,0.0,0.1,0.025034525,0.15269731,0.32002485,0.17334132,0.18816471,inf,inf,inf,inf,0,1,0,1,1,0,1,1,0,0,0
10236000,0,0.0,0.0,0.0,0.0,-0.043502282,-1.7307005e-06,-1.7753391e-06,0.0,0.00020983073,0.016994713,-0.021542694,0.030187419,-0.00043267512,-0.00044383475,0.0,0.0006317277,0.07372005,-0.041297633,0.41076237,0.0,0.1,0.021542694,0.15243888,0.31896508,0.17152594,0.18555784,inf,inf,inf,inf,0,1,0,1,1,0,1,1,0,0,0
10340000,0,0.0,0.0,0.0,0.0,-0.043265253,-1.7307005e-06,-1.7753391e-06,0.0,-0.00057478854,0.01613332,-0.021533191,0.027777819,-0.00043267512,-0.00044383475,0.0,-0.011401687,0.0011797019,-0.11000968,0.41068453,0.0,0.1,0.021533191,0.14992829,0.31521428,0.16784512,0.1817175,inf,inf,inf,inf,0,1,0,1,1,0,1,1,0,0,0
10436000,0,0.0,0.0,0.0,0.0,-0.042816766,-1.7307005e-06,-1.7753391e-06,0.0,6.637216e-05,0.01665033,-0.019986738,0.027513336,-0.00043267512,-0.00044383475,0.0,0.01155422,0.04372015,0.034426335,0.41043147,0.0,0.1,0.019986738,0.14968003,0.314181,0.16607423,0.17925067,inf,inf,inf,inf,0,1,0,1,1,0,1,1,0,0,0
10540000,0,0.0,0.0,0.0,0.0,-0.04379367,-1.7307005e-06,-1.7753391e-06,0.0,0.0025615124,0.012735423,-0.018811883,0.025338836,-0.00043267512,-0.00044383475,0.0,0.034212627,0.06047275,-0.003693625,0.40993553,0.0,0.1,0.018811883,0.15058075,0.31437412,0.16520253,0.17718215,inf,inf,inf,inf,0,1,0,1,1,0,1,1,0,0,0
10636000,0,0.0,0.0,0.0,0.0,-0.043299418,-1.7307005e-06,-1.7753391e-06,0.0,0.0024473625,0.013078383,-0.016703306,0.025953332,-0.00043267512,-0.00044383475,0.0,-0.018546095,0.08169337,-0.033139247,0.4097311,0.0,0.1,0.016703306,0.15038444,0.31336394,0.16360576,0.17483811,inf,inf,inf,inf,0,1,0,1,1,0,1,1,0,0,0
10740000,0,0.0,0.0,0.0,0.0,-0.04158471,-1.7307005e-06,-1.7753391e-06,0.0,0.0014841396,0.009887312,-0.014619623,0.027491553,-0.00043267512,-0.00044383475,0.0,-0.032975484,-0.063061826,0.02988614,0.40927032,0.0,0.1,0.014619623,0.14787549,0.30971202,0.16010857,0.17132443,inf,inf,inf,inf,0,1,0,1,1,0,1,1,0,0,0
10844000,0,0.0,0.0,0.0,0.0,-0.040367812,-1.7307005e-06,-1.7753391e-06,0.0,-0.00024895725,0.0065237414,-0.012374046,0.028511446,-0.00043267512,-0.00044383475,0.0,-0.02358091,-0.029207038,-0.066434026,0.40876615,0.0,0.1,0.012374046,0.14877172,0.3098884,0.15934135,0.16941929,inf,inf,inf,inf,0,1,0,1,1,0,1,1,0,0,0
10940000,0,0.0,0.0,0.0,0.0,-0.039404992,-1.7307005e-06,-1.7753391e-06,0.0,0.0017124715,0.0059491713,-0.010718656,0.028841266,-0.00043267512,-0.00044383475,0.0,-0.10183476,0.0033651374,0.005573965,0.40851203,0.0,0.1,0.010718656,0.14856552,0.30888966,0.15786603,0.1672442,inf,inf,inf,inf,0,1,0,1,1,0,1,1,0,0,0
11036000,0,0.0,0.0,0.0,0.0,-0.037611328,-1.7307005e-06,-1.7753391e-06,0.0,0.00089102716,0.0029384084,-0.010065223,0.028929899,-0.00043267512,-0.00044383475,0.0,-0.004264613,0.03913771,0.052726824,0.40809366,0.0,0.1,0.010065223,0.14830038,0.3078594,0.1563654,0.16510017,inf,inf,inf,inf,0,1,0,1,1,0,1,1,0,0,0
11140000,11096000,47.3977508,8.5456074,0.0,0.0,-0.03538556,-1.7307005e-06,-1.7753391e-06,0.0,-0.00010032386,-0.0010741592,-0.00730953,0.031242924,-0.00043267512,-0.00044383475,0.0,-0.0034513357,0.008289003,0.09232479,0.40334705,488.05832,0.1,0.00730953,0.14594294,0.30442768,0.1487448,0.16194887,inf,inf,inf,inf,0,1,0,1,1,0,1,1,1,1,0
11236000,11096000,47.3977508,8.5456074,-0.0070609213,-0.003318371,-0.03237547,-0.0044250046,-0.00533469,0.0,-0.004407301,-0.015457828,0.010776612,0.03872193,-0.0063061332,-0.012851348,0.014292665,0.010516203,-0.03494146,0.07213558,0.40356106,488.05832,0.1,-0.010776612,1.0003203,0.29379666,0.31706804,0.23733535,inf,inf,inf,inf,1,1,1,1,2,0,2,2,1,1,0
11340000,11096000,47.3977508,8.5456074,-0.007253528,-0.006306852,-0.02792766,-0.0044250046,-0.00533469,0.0,-0.0034383447,-0.018405082,0.012681685,0.04379989,-0.0063061332,-0.012851348,0.014292665,0.00011458177,-0.09758252,0.036370005,0.40415537,488.05832,0.1,-0.012681685,1.0017009,0.28173545,0.31990704,0.2374089,inf,inf,inf,inf,1,1,1,1,2,0,2,2,1,1,0
11436000,11096000,47.3977508,8.5456074,-0.0074639576,-0.008588605,-0.024687825,-0.0044250046,-0.00533469,0.0,-0.004918005,-0.018668346,0.011958364,0.043986242,-0.0063061332,-0.012851348,0.014292665,0.039006088,-0.019051358,-0.034466382,0.40471843,488.05832,0.1,-0.011958364,0.8188844,0.27474844,0.29529598,0.22625324,inf,inf,inf,inf,1,1,1,1,2,0,2,2,1,1,0
11540000,11096000,47.3977508,8.5456074,-0.0076820026,-0.0106603,-0.02130314,-0.0044250046,-0.00533469,0.0,-0.006973912,-0.019681865,0.010976132,0.04357465,-0.0063061332,-0.012851348,0.014292665,0.028568901,-0.022982165,-0.024251638,0.40536323,488.05832,0.1,-0.010976132,0.8217795,0.2708723,0.30165482,0.22592378,inf,inf,inf,inf,1,1,1,1,2,0,2,2,1,1,0
11636000,11096000,47.3977508,8.5456074,-0.0076336376,-0.011812919,-0.019081226,-0.0044250046,-0.00533469,0.0,-0.007003846,-0.019253176,0.009402452,0.04149571,-0.0063061332,-0.012851348,0.014292665,-0.043380827,-0.024704669,-0.09387079,0.4061211,488.05832,0.1,-0.009402452,0.71281856,0.26695237,0.2839652,0.2157587,inf,inf,inf,inf,1,1,1,1,2,0,2,2,1,1,0
11740000,11096000,47.3977508,8.5456074,-0.007530524,-0.012757681,-0.0186221,-0.0044250046,-0.00533469,0.0,-0.0072930497,-0.01739259,0.0068486584,0.036717422,-0.0063061332,-0.012851348,0.014292665,-0.0391661,-0.08338949,0.024172476,0.40687817,488.05832,0.1,-0.0068486584,0.7170971,0.264068,0.29344553,0.21456914,inf,inf,inf,inf,1,1,1,1,2,0,2,2,1,1,0
11836000,11096000,47.3977508,8.5456074,-0.008293745,-0.013090747,-0.016872633,-0.0044250046,-0.00533469,0.0,-0.006143915,-0.016430313,0.00837982,0.03754808,-0.0063061332,-0.012851348,0.014292665,-0.021117156,-0.03009208,-0.023349186,0.4071083,488.05832,0.1,-0.00837982,0.6425328,0.26187345,0.27975553,0.20514119,inf,inf,inf,inf,1,1,1,1,2,0,2,2,1,1,0
11940000,11096000,47.3977508,8.5456074,-0.008805084,-0.013542278,-0.014817554,-0.0044250046,-0.00533469,0.0,-0.005707066,-0.018367426,0.0075238775,0.035994023,-0.0063061332,-0.012851348,0.014292665,0.030200025,-0.0228908,0.0006575137,0.40734687,488.05832,0.1,-0.0075238775,0.64818347,0.26335093,0.29174817,0.20369148,inf,inf,inf,inf,1,1,1,1,2,0,2,2,1,1,0
12036000,11096000,47.3977508,8.5456074,-0.008776714,-0.013956478,-0.012413846,-0.0044250046,-0.00533469,0.0,-0.004718857,-0.018853648,0.009437295,0.0375645,-0.0063061332,-0.012851348,0.014292665,-0.0348062,0.008880669,-0.02542883,0.4072103,488.05832,0.1,-0.009437295,0.5927631,0.26196647,0.28002125,0.19497357,inf,inf,inf,inf,1,1,1,1,2,0,2,2,1,1,0
12140000,11096000,47.3977508,8.5456074,-0.008474089,-0.014655322,-0.009629467,-0.0044250046,-0.00533469,0.0,-0.003154511,-0.020060275,0.009364477,0.03718294,-0.0063061332,-0.012851348,0.014292665,0.008665927,0.014124954,0.043467615,0.40694243,488.05832,0.1,-0.009364477,0.59981716,0.26228973,0.29384527,0.19248383,inf,inf,inf,inf,1,1,1,1,2,0,2,2,1,1,0
12236000,11096000,47.3977508,8.5456074,-0.007960676,-0.014779121,-0.006894774,-0.0044250046,-0.00533469,0.0,-0.0017055884,-0.017089443,0.0115320105,0.039085545,-0.0063061332,-0.012851348,0.014292665,0.0053497204,0.062441915,-0.045545395,0.40672943,488.05832,0.1,-0.0115320105,0.55618256,0.26124343,0.28266433,0.18440211,inf,inf,inf,inf,1,1,1,1,2,0,2,2,1,1,0
12340000,11096000,47.3977508,8.5456074,-0.007260672,-0.014720152,-0.004329069,-0.0044250046,-0.00533469,0.0,-0.0015419445,-0.01389276,0.012397371,0.03899092,-0.0063061332,-0.012851348,0.014292665,-0.07624184,-0.01381315,0.09855534,0.40661708,488.05832,0.1,-0.012397371,0.5646689,0.26434645,0.29768533,0.18212658,inf,inf,inf,inf,1,1,1,1,2,0,2,2,1,1,0
12436000,11096000,47.3977508,8.5456074,-0.006267329,-0.013893306,-0.0024571966,-0.0044250046,-0.00533469,0.0,0.0017097646,-0.0098142335,0.013542917,0.038714346,-0.0063061332,-0.012851348,0.014292665,0.01069589,-0.005883834,0.02430193,0.40610287,488.05832,0.1,-0.013542917,0.52873087,0.26330486,0.28608632,0.17465885,inf,inf,inf,inf,1,1,1,1,2,0,2,2,1,1,0
12540000,11096000,47.3977508,8.5456074,-0.005116925,-0.012908033,-0.0005443066,-0.0044250046,-0.00533469,0.0,-0.00012721418,-0.0068357564,0.014457047,0.037964612,-0.0063061332,-0.012851348,0.014292665,-0.04117982,-0.06807539,0.041250136,0.4058335,488.05832,0.1,-0.014457047,0.5386456,0.2642282,0.30172914,0.17144254,inf,inf,inf,inf,1,1,1,1,2,0,2,2,1,1,0
12636000,11096000,47.3977508,8.5456074,-0.004325642,-0.011786486,0.00089428807,-0.0044250046,-0.00533469,0.0,0.0005244042,-0.006091919,0.014995063,0.036663324,-0.0063061332,-0.012851348,0.014292665,-0.022499938,0.015566925,-0.08063949,0.40580755,488.05832,0.1,-0.014995063,0.5079,0.26313624,0.28924602,0.16460799,inf,inf,inf,inf,1,1,1,1,2,0,2,2,1,1,0
12740000,11096000,47.3977508,8.5456074,-0.0034785855,-0.010750183,0.0037702413,-0.0044250046,-0.00533469,0.0,7.608025e-05,-0.004865426,0.015114412,0.036236506,-0.0063061332,-0.012851348,0.014292665,-0.02312171,-0.055412553,-0.017846001,0.40594274,488.05832,0.1,-0.015114412,0.51919305,0.26384857,0.3050557,0.16118926,inf,inf,inf,inf,1,1,1,1,2,0,2,2,1,1,0
12836000,11096000,47.3977508,8.5456074,-0.0029696908,-0.009816916,0.005053183,-0.0044250046,-0.00533469,0.0,0.0019025235,-0.0047694133,0.015697896,0.03496013,-0.0063061332,-0.012851348,0.014292665,0.060433213,0.059196852,0.08252728,0.40601674,488.05832,0.1,-0.015697896,0.4920048,0.26265666,0.2914766,0.15498228,inf,inf,inf,inf,1,1,1,1,2,0,2,2,1,1,0
12940000,11096000,47.3977508,8.5456074,-0.0021623683,-0.009012086,0.0059921215,-0.0044250046,-0.00533469,0.0,0.0038289735,-0.0039179567,0.017506879,0.034401413,-0.0063061332,-0.012851348,0.014292665,0.03055023,-0.0036927667,0.0113621345,0.4061468,488.05832,0.1,-0.017506879,0.50457937,0.2654121,0.307163,0.15230422,inf,inf,inf,inf,1,1,1,1,2,0,2,2,1,1,0
13036000,11096000,47.3977508,8.5456074,-0.0015387735,-0.00848994,0.0059335744,-0.0044250046,-0.00533469,0.0,0.0030374422,-0.0015941091,0.016216334,0.030250343,-0.0063061332,-0.012851348,0.014292665,-0.019788042,0.02789914,-0.010965391,0.40621543,488.05832,0.1,-0.016216334,0.47984192,0.2640339,0.29252666,0.14666255,inf,inf,inf,inf,1,1,1,1,2,0,2,2,1,1,0
13140000,11096000,47.3977508,8.5456074,-0.0008206863,-0.007954868,0.005350924,-0.0044250046,-0.00533469,0.0,0.0041218167,-0.0016915204,0.016230984,0.027099483,-0.0063061332,-0.012851348,0.014292665,-0.0055782143,-0.02623959,-0.06723124,0.4060935,488.05832,0.1,-0.016230984,0.4935642,0.26416546,0.30782756,0.14330184,inf,inf,inf,inf,1,1,1,1,2,0,2,2,1,1,0
13236000,11096000,47.3977508,8.5456074,-0.0002959523,-0.0068463134,0.0044525163,-0.0044250046,-0.00533469,0.0,0.005480219,0.0007900446,0.014837739,0.022865005,-0.0063061332,-0.012851348,0.014292665,-0.010351999,-0.027170906,0.03900006,0.4059845,488.05832,0.1,-0.014837739,0.47051927,0.26268166,0.29234686,0.13824162,inf,inf,inf,inf,1,1,1,1,2,0,2,2,1,1,0
13340000,11096000,47.3977508,8.5456074,0.00056035415,-0.005582551,0.0034039489,-0.0044250046,-0.00533469,0.0,0.007968142,0.001992917,0.012658061,0.017957881,-0.0063061332,-0.012851348,0.014292665,0.034147553,0.012840631,-0.04575401,0.40589866,488.05832,0.1,-0.012658061,0.48523474,0.26476437,0.30714372,0.13577734,inf,inf,inf,inf,1,1,1,1,2,0,2,2,1,1,0
13436000,11096000,47.3977508,8.5456074,0.0012141084,-0.004139749,0.0019439666,-0.0044250046,-0.00533469,0.0,0.009919457,0.0020807635,0.014091669,0.016783496,-0.0063061332,-0.012851348,0.014292665,-0.06264882,-0.009415977,0.13194698,0.40585378,488.05832,0.1,-0.014091669,0.46336204,0.26317742,0.29103005,0.13125804,inf,inf,inf,inf,1,1,1,1,2,0,2,2,1,1,0
13540000,11096000,47.3977508,8.5456074,0.002201723,-0.0027473168,1.848457e-06,-0.0044250046,-0.00533469,0.0,0.010072349,0.0028894003,0.01099266,0.010893805,-0.0063061332,-0.012851348,0.014292665,0.036614727,-0.07729398,-0.0506537,0.40573937,488.05832,0.1,-0.01099266,0.4789088,0.2626356,0.30525726,0.12825319,inf,inf,inf,inf,1,1,1,1,2,0,2,2,1,1,0
13636000,11096000,47.3977508,8.5456074,0.0025572893,-0.0019064911,-0.0013845691,-0.0044250046,-0.00533469,0.0,0.009576679,0.0029002763,0.011003797,0.009175934,-0.0063061332,-0.012851348,0.014292665,0.04268356,0.04328473,0.081086524,0.40556028,488.05832,0.1,-0.011003797,0.45785633,0.26099962,0.2887742,0.12426734,inf,inf,inf,inf,1,1,1,1,2,0,2,2,1,1,0
13740000,11096000,47.3977508,8.5456074,0.0031996847,-0.0012703148,-0.0019189387,-0.0044250046,-0.00533469,0.0,0.009663638,0.0015010809,0.012133204,0.009532759,-0.0063061332,-0.012851348,0.014292665,0.034780268,0.05420526,0.07060356,0.40558308,488.05832,0.1,-0.012133204,0.47407633,0.26244938,0.30237302,0.12223466,inf,inf,inf,inf,1,1,1,1,2,0,2,2,1,1,0
13836000,11096000,47.3977508,8.5456074,0.003919646,-0.0013869351,-0.0016218413,-0.0044250046,-0.00533469,0.0,0.010605449,0.001165137,0.01413094,0.011407177,-0.0063061332,-0.012851348,0.014292665,0.0105656795,-0.050509024,0.023367813,0.40594095,488.05832,0.1,-0.01413094,0.45360827,0.2607212,0.28575665,0.11871446,inf,inf,inf,inf,1,1,1,1,2,0,2,2,1,1,0
13940000,11096000,47.3977508,8.5456074,0.005098505,-0.001643368,-0.00094700354,-0.0044250046,-0.00533469,0.0,0.012814579,-0.00075116975,0.01372115,0.011142647,-0.0063061332,-0.012851348,0.014292665,-0.06395802,-0.03474345,0.004207715,0.40607572,488.05832,0.1,-0.01372115,0.47035506,0.25971168,0.29870084,0.11628744,inf,inf,inf,inf,1,1,1,1,2,0,2,2,1,1,0
14036000,11096000,47.3977508,8.5456074,0.006548718,-0.0030834966,-2.8136765e-05,-0.0044250046,-0.00533469,0.0,0.014251354,-0.0018332126,0.014243117,0.012066118,-0.0063061332,-0.012851348,0.014292665,0.016174192,6.2274914e-05,-0.0025434417,0.40613723,488.05832,0.1,-0.014243117,0.45031795,0.25800103,0.28213635,0.11325225,inf,inf,inf,inf,1,1,1,1,2,0,2,2,1,1,0
14140000,11096000,47.3977508,8.5456074,0.008435656,-0.0045333263,0.0009153886,-0.0044250046,-0.00533469,0.0,0.016363721,-0.0030205997,0.013343483,0.011399119,-0.0063061332,-0.012851348,0.014292665,-0.040563345,0.006326692,-0.060796734,0.4061223,488.05832,0.1,-0.013343483,0.46746126,0.25679705,0.29450807,0.111140065,inf,inf,inf,inf,1,1,1,1,2,0,2,2,1,1,0
14236000,11096000,47.3977508,8.5456074,0.009264197,-0.0053944155,0.0012596473,-0.0044250046,-0.00533469,0.0,0.015540687,-0.0040167174,0.013898251,0.011662391,-0.0063061332,-0.012851348,0.014292665,0.0480899,-0.020848826,0.026031395,0.40608492,488.05832,0.1,-0.013898251,0.44775426,0.25512332,0.27815646,0.10855934,inf,inf,inf,inf,1,1,1,1,2,0,2,2,1,1,0
14340000,11096000,47.3977508,8.5456074,0.01048309,-0.006159352,0.0030732937,-0.0044250046,-0.00533469,0.0,0.017669823,-0.0032590192,0.014421719,0.013226235,-0.0063061332,-0.012851348,0.014292665,-0.047795936,-0.010850795,-0.04261173,0.40600935,488.05832,0.1,-0.014421719,0.4651826,0.25589085,0.2899436,0.10737115,inf,inf,inf,inf,1,1,1,1,2,0,2,2,1,1,0
14436000,11096000,47.3977508,8.5456074,0.011008743,-0.0070365514,0.004078526,-0.0044250046,-0.00533469,0.0,0.020918824,-0.004460834,0.01122255,0.010235986,-0.0063061332,-0.012851348,0.014292665,-0.047429927,0.0020111836,-0.10974239,0.40589845,488.05832,0.1,-0.01122255,0.4457424,0.25419706,0.27392703,0.1051746,inf,inf,inf,inf,1,1,1,1,2,0,2,2,1,1,0
14540000,11096000,47.3977508,8.5456074,0.01194589,-0.007890145,0.004110185,-0.0044250046,-0.00533469,0.0,0.018243533,-0.0036617562,0.012070426,0.010445307,-0.0063061332,-0.012851348,0.014292665,-0.06078055,-0.015740165,0.03740936,0.40585506,488.05832,0.1,-0.012070426,0.46336067,0.2527957,0.28516608,0.10373395,inf,inf,inf,inf,1,1,1,1,2,0,2,2,1,1,0
14636000,11096000,47.3977508,8.5456074,0.011942612,-0.008168432,0.0043369173,-0.0044250046,-0.00533469,0.0,0.01849153,-0.0037806337,0.008399676,0.0065650376,-0.0063061332,-0.012851348,0.014292665,0.06081606,0.1392154,-0.018899327,0.40563613,488.05832,0.1,-0.008399676,0.4441471,0.2511613,0.26958382,0.10192418,inf,inf,inf,inf,1,1,1,1,2,0,2,2,1,1,0
14740000,11096000,47.3977508,8.5456074,0.012320593,-0.008341195,0.0045031994,-0.0044250046,-0.00533469,0.0,0.016971305,-0.0019745498,0.009307956,0.007301662,-0.0063061332,-0.012851348,0.014292665,-0.0008743663,0.07475214,-0.021173617,0.40544102,488.05832,0.1,-0.009307956,0.46187744,0.25169018,0.28032884,0.1013234,inf,inf,inf,inf,1,1,1,1,2,0,2,2,1,1,0
14836000,11096000,47.3977508,8.5456074,0.0128285745,-0.008044388,0.0050234688,-0.0044250046,-0.00533469,0.0,0.0174878,-0.002023167,0.011232801,0.009343055,-0.0063061332,-0.012851348,0.014292665,-0.010469841,0.0056406204,0.037659887,0.40539593,488.05832,0.1,-0.011232801,0.44286525,0.25010106,0.26519072,0.09984954,inf,inf,inf,inf,1,1,1,1,2,0,2,2,1,1,0
14940000,11096000,47.3977508,8.5456074,0.013849449,-0.007895732,0.00598886,-0.0044250046,-0.00533469,0.0,0.017720979,-0.0035499886,0.011773568,0.010163862,-0.0063061332,-0.012851348,0.014292665,0.027320258,0.00802712,-0.0039469446,0.4054489,488.05832,0.1,-0.011773568,0.46064296,0.24861072,0.27547684,0.09903154,inf,inf,inf,inf,1,1,1,1,2,0,2,2,1,1,0
15036000,11096000,47.3977508,8.5456074,0.015387806,-0.007257074,0.0062786173,-0.0044250046,-0.00533469,0.0,0.02025238,-0.0035599743,0.012294052,0.010294082,-0.0063061332,-0.012851348,0.014292665,0.14246869,0.045056146,0.0019315629,0.40540275,488.05832,0.1,-0.012294052,0.44181743,0.2471061,0.2608031,0.09787588,inf,inf,inf,inf,1,1,1,1,2,0,2,2,1,1,0
15140000,11096000,47.3977508,8.5456074,0.017552452,-0.0065944376,0.0068185166,-0.0044250046,-0.00533469,0.0,0.021538978,-0.0016931295,0.012558626,0.010337508,-0.0063061332,-0.012851348,0.014292665,-0.013699492,0.046048675,0.06738863,0.40542004,488.05832,0.1,-0.012558626,0.4595893,0.24753413,0.27068746,0.09781289,inf,inf,inf,inf,1,1,1,1,2,0,2,2,1,1,0
15236000,11096000,47.3977508,8.5456074,0.018360311,-0.0062653422,0.007589081,-0.0044250046,-0.00533469,0.0,0.022937521,0.00038167275,0.013722749,0.0115197105,-0.0063061332,-0.012851348,0.014292665,0.0075454297,0.0396782,-0.0020181758,0.40559503,488.05832,0.1,-0.013722749,0.440942,0.24607024,0.25654146,0.09691414,inf,inf,inf,inf,1,1,1,1,2,0,2,2,1,1,0
15340000,11096000,47.3977508,8.5456074,0.019794196,-0.005921257,0.008005929,-0.0044250046,-0.00533469,0.0,0.024379203,-0.0011901053,0.013011728,0.010422736,-0.0063061332,-0.012851348,0.014292665,-0.01071731,-0.049346037,-0.01537986,0.4056965,488.05832,0.1,-0.013011728,0.45866778,0.24465097,0.2660632,0.096654154,inf,inf,inf,inf,1,1,1,1,2,0,2,2,1,1,0
15436000,11096000,47.3977508,8.5456074,0.020215629,-0.005841876,0.008666815,-0.0044250046,-0.00533469,0.0,0.01943299,-0.0037856088,0.014309637,0.011592954,-0.0063061332,-0.012851348,0.014292665,-0.0013632815,0.020241793,0.0073397527,0.40563193,488.05832,0.1,-0.014309637,0.44019336,0.24329758,0.25243023,0.09600388,inf,inf,inf,inf,1,1,1,1,2,0,2,2,1,1,0
15540000,11096000,47.3977508,8.5456074,0.020893488,-0.005844787,0.008390026,-0.0044250046,-0.00533469,0.0,0.018982548,-0.0028771632,0.013468194,0.009629614,-0.0063061332,-0.012851348,0.014292665,-0.013508775,-0.061327137,0.007586553,0.4058058,488.05832,0.1,-0.013468194,0.45784184,0.24193278,0.26164117,0.09597436,inf,inf,inf,inf,1,1,1,1,2,0,2,2,1,1,0
15636000,11096000,47.3977508,8.5456074,0.022064703,-0.0059303003,0.0071662427,-0.0044250046,-0.00533469,0.0,0.023229841,-0.0041381884,0.010439757,0.0049388604,-0.0063061332,-0.012851348,0.014292665,-0.010254559,-0.0555749,-0.01633074,0.4058894,488.05832,0.1,-0.010439757,0.47530365,0.24180633,0.270268,0.09628539,inf,inf,inf,inf,1,1,1,1,2,0,2,2,1,1,0
15740000,11096000,47.3977508,8.5456074,0.022646131,-0.006428309,0.0053589,-0.0044250046,-0.00533469,0.0,0.021778917,-0.0040450417,0.011471867,0.0040172543,-0.0063061332,-0.012851348,0.014292665,0.016017176,0.039235234,0.011686235,0.40620598,488.05832,0.1,-0.011471867,0.45494708,0.2411505,0.25555643,0.096067555,inf,inf,inf,inf,1,1,1,1,2,0,2,2,1,1,0
15836000,11096000,47.3977508,8.5456074,0.023488563,-0.006887449,0.0047305655,-0.0044250046,-0.00533469,0.0,0.022084026,-0.0041910578,0.012715825,0.0045132274,-0.0063061332,-0.012851348,0.014292665,0.017496377,0.027588617,0.009301118,0.4062972,488.05832,0.1,-0.012715825,0.47205108,0.24106602,0.26388937,0.09653735,inf,inf,inf,inf,1,1,1,1,2,0,2,2,1,1,0
15940000,11096000,47.3977508,8.5456074,0.02251232,-0.0073325415,0.0042408207,-0.0044250046,-0.00533469,0.0,0.021900587,-0.0026039127,0.012254249,0.0035012597,-0.0063061332,-0.012851348,0.014292665,8.2916806e-05,0.052337233,-0.09401794,0.4062882,488.05832,0.1,-0.012254249,0.45241442,0.2387818,0.25016454,0.09609401,inf,inf,inf,inf,1,1,1,1,2,0,2,2,1,1,0
16043999,11096000,47.3977508,8.5456074,0.022236694,-0.0077116615,0.004189728,-0.0044250046,-0.00533469,0.0,0.022468574,-0.0028889878,0.012073415,0.003267961,-0.0063061332,-0.012851348,0.014292665,0.085276075,-0.036161084,0.057311155,0.40635547,488.05832,0.1,-0.012073415,0.4706426,0.23934467,0.25891075,0.096883215,inf,inf,inf,inf,1,1,1,1,2,0,2,2,1,1,0
16139999,11096000,47.3977508,8.5456074,0.021183802,-0.0061171236,0.004526975,-0.0044250046,-0.00533469,0.0,0.021314,-0.0037705484,0.013759258,0.0052690404,-0.0063061332,-0.012851348,0.014292665,0.014214285,-0.07874198,0.042529233,0.40650994,488.05832,0.1,-0.013759258,0.4501795,0.23830898,0.24540727,0.096767075,inf,inf,inf,inf,1,1,1,1,2,0,2,2,1,1,0
16244000,11096000,47.3977508,8.5456074,0.020860665,-0.0050036227,0.005447168,-0.0044250046,-0.00533469,0.0,0.021269709,-0.004459088,0.016659131,0.008688921,-0.0063061332,-0.012851348,0.014292665,-0.031347297,-0.010103482,-0.039564442,0.40657347,488.05832,0.1,-0.016659131,0.4680941,0.23727936,0.25392643,0.097308755,inf,inf,inf,inf,1,1,1,1,2,0,2,2,1,1,0
16348000,11096000,47.3977508,8.5456074,0.019599594,-0.0047543766,0.0064550163,-0.0044250046,-0.00533469,0.0,0.019614838,-0.0036147493,0.018781906,0.011070578,-0.0063061332,-0.012851348,0.014292665,0.0067767915,-0.050661236,-0.028973652,0.40658712,488.05832,0.1,-0.018781906,0.44950837,0.23691481,0.24182025,0.097465806,inf,inf,inf,inf,1,1,1,1,2,0,2,2,1,1,0
16444000,11096000,47.3977508,8.5456074,0.019208109,-0.004606708,0.007629665,-0.0044250046,-0.00533469,0.0,0.01909665,-0.004214847,0.020490218,0.013050729,-0.0063061332,-0.012851348,0.014292665,-0.03516345,-0.110952914,0.079776704,0.40651962,488.05832,0.1,-0.020490218,0.46582308,0.23710679,0.2495042,0.09828708,inf,inf,inf,inf,1,1,1,1,2,0,2,2,1,1,0
16548000,11096000,47.3977508,8.5456074,0.018048756,-0.0044205817,0.008772148,-0.0044250046,-0.00533469,0.0,0.018928973,-0.0045577837,0.02059232,0.013182617,-0.0063061332,-0.012851348,0.014292665,0.015886499,-0.037004463,0.07742177,0.40631247,488.05832,0.1,-0.02059232,0.447551,0.2351836,0.23793724,0.09813708,inf,inf,inf,inf,1,1,1,1,2,0,2,2,1,1,0
16651999,11096000,47.3977508,8.5456074,0.017674165,-0.004455643,0.009705137,-0.0044250046,-0.00533469,0.0,0.01915789,-0.004423026,0.022555321,0.014788568,-0.0063061332,-0.012851348,0.014292665,-0.0018752503,0.026259035,0.038787175,0.40634063,488.05832,0.1,-0.022555321,0.46499315,0.2360078,0.24613008,0.09920058,inf,inf,inf,inf,1,1,1,1,2,0,2,2,1,1,0
16747999,11096000,47.3977508,8.5456074,0.016728148,-0.0042076623,0.009722279,-0.0044250046,-0.00533469,0.0,0.018021384,-0.0036214301,0.022582147,0.01362668,-0.0063061332,-0.012851348,0.014292665,0.038533267,-0.03035392,0.027556343,0.4064802,488.05832,0.1,-0.022582147,0.44579384,0.23525581,0.23456685,0.09925056,inf,inf,inf,inf,1,1,1,1,2,0,2,2,1,1,0
16852000,11096000,47.3977508,8.5456074,0.016556855,-0.004223922,0.00911736,-0.0044250046,-0.00533469,0.0,0.019908862,-0.004172113,0.023000458,0.012271346,-0.0063061332,-0.012851348,0.014292665,-0.02103194,0.07838014,-0.05291402,0.40644154,488.05832,0.1,-0.023000458,0.4629894,0.23618631,0.24264298,0.10036217,inf,inf,inf,inf,1,1,1,1,2,0,2,2,1,1,0
16948000,11096000,47.3977508,8.5456074,0.016765773,-0.005622061,0.008960898,-0.0044250046,-0.00533469,0.0,0.020053908,-0.00694513,0.022429394,0.010691221,-0.0063061332,-0.012851348,0.014292665,-0.0016694538,-0.10057973,-0.06595719,0.4064706,488.05832,0.1,-0.022429394,0.44420835,0.23390569,0.23163676,0.10006449,inf,inf,inf,inf,1,1,1,1,2,0,2,2,1,1,0
17052000,11096000,47.3977508,8.5456074,0.017709015,-0.007241405,0.008981893,-0.0044250046,-0.00533469,0.0,0.020588808,-0.008811346,0.02322047,0.010677705,-0.0063061332,-0.012851348,0.014292665,0.014776305,0.053624626,0.0020051373,0.406295,488.05832,0.1,-0.02322047,0.46118402,0.2349484,0.23964055,0.10120552,inf,inf,inf,inf,1,1,1,1,2,0,2,2,1,1,0
17148000,11096000,47.3977508,8.5456074,0.017495494,-0.008121439,0.0090430705,-0.0044250046,-0.00533469,0.0,0.018667376,-0.008376851,0.02222462,0.009016474,-0.0063061332,-0.012851348,0.014292665,0.11547576,0.09529684,-0.11441018,0.4063132,488.05832,0.1,-0.02222462,0.44277215,0.23436119,0.22912925,0.10125073,inf,inf,inf,inf,1,1,1,1,2,0,2,2,1,1,0
17252000,11096000,47.3977508,8.5456074,0.01791859,-0.008944105,0.008991768,-0.0044250046,-0.00533469,0.0,0.01914964,-0.0068493416,0.02264058,0.0087370165,-0.0063061332,-0.012851348,0.014292665,0.015030963,0.051161177,-0.018765217,0.40621996,488.05832,0.1,-0.02264058,0.45955205,0.23390427,0.23706965,0.10204219,inf,inf,inf,inf,1,1,1,1,2,0,2,2,1,1,0
17348000,11096000,47.3977508,8.5456074,0.01733308,-0.009070888,0.009278387,-0.0044250046,-0.00533469,0.0,0.01775954,-0.0077096713,0.019122504,0.005127978,-0.0063061332,-0.012851348,0.014292665,0.09437848,0.0206666,0.061557624,0.405988,488.05832,0.1,-0.019122504,0.44146752,0.23340811,0.22698799,0.10206845,inf,inf,inf,inf,1,1,1,1,2,0,2,2,1,1,0
17452000,11096000,47.3977508,8.5456074,0.017418478,-0.009421075,0.009057844,-0.0044250046,-0.00533469,0.0,0.01758228,-0.007543017,0.018321773,0.003947433,-0.0063061332,-0.012851348,0.014292665,0.02879786,-0.017662706,-0.007817521,0.40592378,488.05832,0.1,-0.018321773,0.45807424,0.23464762,0.2349048,0.10321339,inf,inf,inf,inf,1,1,1,1,2,0,2,2,1,1,0
17556000,11096000,47.3977508,8.5456074,0.015996775,-0.009247571,0.009614383,-0.0044250046,-0.00533469,0.0,0.015126504,-0.008426874,0.01737186,0.0034820137,-0.0063061332,-0.012851348,0.014292665,-0.0035719129,-0.047207516,-0.010413117,0.4059892,488.05832,0.1,-0.01737186,0.44151118,0.23321742,0.22581601,0.103042535,inf,inf,inf,inf,1,1,1,1,2,0,2,2,1,1,0
17652000,11096000,47.3977508,8.5456074,0.01548844,-0.009329528,0.010915347,-0.0044250046,-0.00533469,0.0,0.015952513,-0.007753624,0.01821857,0.005584119,-0.0063061332,-0.012851348,0.014292665,0.044138312,-0.010343195,0.06634369,0.40617096,488.05832,0.1,-0.01821857,0.45673648,0.2339609,0.23311238,0.1039738,inf,inf,inf,inf,1,1,1,1,2,0,2,2,1,1,0
17748000,11096000,47.3977508,8.5456074,0.015024995,-0.009132583,0.011568207,-0.0044250046,-0.00533469,0.0,0.016004452,-0.0090288175,0.018361893,0.006055322,-0.0063061332,-0.012851348,0.014292665,0.04024352,-0.0440022,0.057290304,0.4063057,488.05832,0.1,-0.018361893,0.43920064,0.23358132,0.22374013,0.10392081,inf,inf,inf,inf,1,1,1,1,2,0,2,2,1,1,0
17852000,11096000,47.3977508,8.5456074,0.015279227,-0.0093119675,0.011955253,-0.0044250046,-0.00533469,0.0,0.018257843,-0.009666876,0.020357845,0.008015198,-0.0063061332,-0.012851348,0.014292665,0.09220905,-0.032089576,0.031519677,0.40636873,488.05832,0.1,-0.020357845,0.45552486,0.23502477,0.23162678,0.10504275,inf,inf,inf,inf,1,1,1,1,2,0,2,2,1,1,0
17948000,11096000,47.3977508,8.5456074,0.015075095,-0.009258091,0.013005491,-0.0044250046,-0.00533469,0.0,0.019777969,-0.011394244,0.021613894,0.009658491,-0.0063061332,-0.012851348,0.014292665,0.028838519,-0.023046952,0.03757607,0.4062859,488.05832,0.1,-0.021613894,0.43821838,0.23468776,0.2225185,0.104941465,inf,inf,inf,inf,1,1,1,1,2,0,2,2,1,1,0
18052000,11096000,47.3977508,8.5456074,0.015738493,-0.009768876,0.013894071,-0.0044250046,-0.00533469,0.0,0.022537883,-0.014822364,0.021316914,0.009417846,-0.0063061332,-0.012851348,0.014292665,0.041493576,-0.07316892,-0.11319294,0.40628904,488.05832,0.1,-0.021316914,0.45442906,0.23458436,0.23039848,0.10564769,inf,inf,inf,inf,1,1,1,1,2,0,2,2,1,1,0
18148000,11096000,47.3977508,8.5456074,0.015745148,-0.009921837,0.014070848,-0.0044250046,-0.00533469,0.0,0.022362407,-0.013361771,0.021938687,0.009568067,-0.0063061332,-0.012851348,0.014292665,0.027160712,-0.03060221,0.06876606,0.40624428,488.05832,0.1,-0.021938687,0.43732673,0.23429441,0.22153573,0.10550001,inf,inf,inf,inf,1,1,1,1,2,0,2,2,1,1,0
18252000,11096000,47.3977508,8.5456074,0.016290793,-0.010428533,0.014386446,-0.0044250046,-0.00533469,0.0,0.020301543,-0.014526115,0.02191002,0.009091404,-0.0063061332,-0.012851348,0.014292665,-0.063765526,-0.07043696,0.019975005,0.4061989,488.05832,0.1,-0.02191002,0.4534418,0.23587097,0.22947828,0.106558144,inf,inf,inf,inf,1,1,1,1,2,0,2,2,1,1,0
18348000,11096000,47.3977508,8.5456074,0.016761288,-0.01071356,0.014104094,-0.0044250046,-0.00533469,0.0,0.022750916,-0.016522195,0.02290734,0.009111514,-0.0063061332,-0.012851348,0.014292665,0.09277471,-0.04813122,0.011344439,0.40617034,488.05832,0.1,-0.02290734,0.43651876,0.23397732,0.22080429,0.10595932,inf,inf,inf,inf,1,1,1,1,2,0,2,2,1,1,0
18452000,11096000,47.3977508,8.5456074,0.01803845,-0.011537036,0.014611034,-0.0044250046,-0.00533469,0.0,0.023508871,-0.0170256,0.02229345,0.008350069,-0.0063061332,-0.012851348,0.014292665,-0.018319696,0.016538657,0.035748813,0.40615886,488.05832,0.1,-0.02229345,0.45255548,0.23560877,0.22875607,0.106981665,inf,inf,inf,inf,1,1,1,1,2,0,2,2,1,1,0
18548000,11096000,47.3977508,8.5456074,0.018293496,-0.012992333,0.014458855,-0.0044250046,-0.00533469,0.0,0.023426961,-0.019386493,0.02215855,0.007458053,-0.0063061332,-0.012851348,0.014292665,0.07533916,-0.0053960755,-0.005663372,0.40608516,488.05832,0.1,-0.02215855,0.43579108,0.23534161,0.22025427,0.106721155,inf,inf,inf,inf,1,1,1,1,2,0,2,2,1,1,0
18652000,11096000,47.3977508,8.5456074,0.01926828,-0.014868689,0.014531884,-0.0044250046,-0.00533469,0.0,0.021848299,-0.022273289,0.023305587,0.008127527,-0.0063061332,-0.012851348,0.014292665,-0.053014107,-0.040024422,0.042539086,0.40599656,488.05832,0.1,-0.023305587,0.4517652,0.23538673,0.22823821,0.10730076,inf,inf,inf,inf,1,1,1,1,2,0,2,2,1,1,0
18748000,11096000,47.3977508,8.5456074,0.019622674,-0.0153118465,0.014913811,-0.0044250046,-0.00533469,0.0,0.017924182,-0.02377914,0.023597928,0.008215923,-0.0063061332,-0.012851348,0.014292665,0.012334348,-0.023780739,0.02178829,0.40587115,488.05832,0.1,-0.023597928,0.43513966,0.235137,0.21988542,0.1069937,inf,inf,inf,inf,1,1,1,1,2,0,2,2,1,1,0
18852000,11096000,47.3977508,8.5456074,0.020379066,-0.016342482,0.015487305,-0.0044250046,-0.00533469,0.0,0.017810108,-0.023112819,0.021840915,0.006469803,-0.0063061332,-0.012851348,0.014292665,0.06573958,0.021241138,0.0484297,0.40599367,488.05832,0.1,-0.021840915,0.4510656,0.23683557,0.22788984,0.10793502,inf,inf,inf,inf,1,1,1,1,2,0,2,2,1,1,0
18948000,11096000,47.3977508,8.5456074,0.01908447,-0.01625006,0.015167041,-0.0044250046,-0.00533469,0.0,0.017786743,-0.022768743,0.023141652,0.006957404,-0.0063061332,-0.012851348,0.014292665,-0.042068362,0.010972246,0.023057682,0.40588057,488.05832,0.1,-0.023141652,0.43455988,0.23659113,0.21964721,0.10758275,inf,inf,inf,inf,1,1,1,1,2,0,2,2,1,1,0
19052000,11096000,47.3977508,8.5456074,0.018445212,-0.016716322,0.014989683,-0.0044250046,-0.00533469,0.0,0.016010905,-0.021952983,0.022683997,0.0058450974,-0.0063061332,-0.012851348,0.014292665,0.07279345,0.000998596,0.010029412,0.40565068,488.05832,0.1,-0.022683997,0.45045125,0.23666486,0.22770293,0.108068295,inf,inf,inf,inf,1,1,1,1,2,0,2,2,1,1,0
19148000,11096000,47.3977508,8.5456074,0.01760539,-0.015964426,0.014844806,-0.0044250046,-0.00533469,0.0,0.01867064,-0.023375956,0.021545311,0.00428361,-0.0063061332,-0.012851348,0.014292665,-0.021818005,-0.05630346,0.011484138,0.40550295,488.05832,0.1,-0.021545311,0.43404827,0.2363967,0.2195252,0.10766407,inf,inf,inf,inf,1,1,1,1,2,0,2,2,1,1,0
19252000,11096000,47.3977508,8.5456074,0.017630486,-0.016031371,0.014368066,-0.0044250046,-0.00533469,0.0,0.01791342,-0.022146996,0.01950369,0.0016943889,-0.0063061332,-0.012851348,0.014292665,-0.05350989,-0.0732016,-0.02580229,0.40560108,488.05832,0.1,-0.01950369,0.4499168,0.23815848,0.22761321,0.10854254,inf,inf,inf,inf,1,1,1,1,2,0,2,2,1,1,0
19356000,11096000,47.3977508,8.5456074,0.016958863,-0.014050472,0.014220245,-0.0044250046,-0.00533469,0.0,0.01872496,-0.021352613,0.01852313,0.00069198356,-0.0063061332,-0.012851348,0.014292665,-0.046963044,-0.001977052,0.03042817,0.4054488,488.05832,0.1,-0.01852313,0.4347862,0.23684749,0.22013268,0.10786164,inf,inf,inf,inf,1,1,1,1,2,0,2,2,1,1,0
19452000,11096000,47.3977508,8.5456074,0.016974298,-0.01309464,0.013605561,-0.0044250046,-0.00533469,0.0,0.016038677,-0.020200213,0.020008903,0.0016892828,-0.0063061332,-0.012851348,0.014292665,0.043161064,0.0057984865,-0.045764256,0.40543443,488.05832,0.1,-0.020008903,0.44945884,0.23794846,0.22763592,0.1084985,inf,inf,inf,inf,1,1,1,1,2,0,2,2,1,1,0
19548000,11096000,47.3977508,8.5456074,0.01666989,-0.011891912,0.013355917,-0.0044250046,-0.00533469,0.0,0.016088203,-0.019213634,0.020073602,0.0015517204,-0.0063061332,-0.012851348,0.014292665,-0.0042426107,-0.0020284203,-0.04090741,0.4054666,488.05832,0.1,-0.020073602,0.433216,0.23765776,0.219565,0.10802117,inf,inf,inf,inf,1,1,1,1,2,0,2,2,1,1,0
19652000,11096000,47.3977508,8.5456074,0.01708351,-0.011404529,0.013048373,-0.0044250046,-0.00533469,0.0,0.016414022,-0.01933193,0.018746097,7.5182674e-05,-0.0063061332,-0.012851348,0.014292665,-0.012612057,0.0027178319,0.0049341465,0.40549284,488.05832,0.1,-0.018746097,0.4490706,0.23941383,0.22767584,0.108826876,inf,inf,inf,inf,1,1,1,1,2,0,2,2,1,1,0
19748000,11096000,47.3977508,8.5456074,0.017563136,-0.010684364,0.013132842,-0.0044250046,-0.00533469,0.0,0.01883916,-0.018962603,0.017981887,-0.00037117628,-0.0063061332,-0.012851348,0.014292665,0.10532972,-0.007040405,0.04043709,0.4055114,488.05832,0.1,-0.017981887,0.43288743,0.23739986,0.2196184,0.10787086,inf,inf,inf,inf,1,1,1,1,2,0,2,2,1,1,0
19852000,11096000,47.3977508,8.5456074,0.018763816,-0.010641206,0.013286442,-0.0044250046,-0.00533469,0.0,0.019034782,-0.01914813,0.018686086,0.00069214124,-0.0063061332,-0.012851348,0.014292665,0.05710132,0.02048195,-0.014786608,0.40550804,488.05832,0.1,-0.018686086,0.4487468,0.239148,0.22777066,0.10864758,inf,inf,inf,inf,1,1,1,1,2,0,2,2,1,1,0
19948000,11096000,47.3977508,8.5456074,0.018886246,-0.01018564,0.014324647,-0.0044250046,-0.00533469,0.0,0.019299222,-0.018204687,0.018558688,0.0017315147,-0.0063061332,-0.012851348,0.014292665,-0.031914502,0.037653238,0.07020681,0.4055119,488.05832,0.1,-0.018558688,0.432612,0.23879497,0.2197176,0.108103976,inf,inf,inf,inf,1,1,1,1,2,0,2,2,1,1,0
20052000,11096000,47.3977508,8.5456074,0.019528408,-0.010329971,0.015959876,-0.0044250046,-0.00533469,0.0,0.01725197,-0.020081613,0.018457066,0.0032726987,-0.0063061332,-0.012851348,0.014292665,-0.06630121,-0.04249761,0.06251223,0.40555447,488.05832,0.10155423,-0.018457066,0.4484823,0.23882818,0.22786781,0.10840573,inf,inf,inf,inf,1,1,1,1,2,0,2,2,1,1,0
20148000,11096000,47.3977508,8.5456074,0.019484323,-0.010120496,0.017153446,-0.0044250046,-0.00533469,0.0,0.015771672,-0.019891687,0.01984843,0.005518282,-0.0063061332,-0.012851348,0.014292665,0.008688002,0.040141296,-0.018977558,0.4055197,488.05832,0.1,-0.01984843,0.43238485,0.23846442,0.21980873,0.10784633,inf,inf,inf,inf,1,1,1,1,2,0,2,2,1,1,0
20252000,11096000,47.3977508,8.5456074,0.019916516,-0.010480586,0.01742071,-0.0044250046,-0.00533469,0.0,0.01635898,-0.019938864,0.018545952,0.004148157,-0.0063061332,-0.012851348,0.014292665,-0.0022839957,-0.004897694,0.09078532,0.4054737,488.05832,0.1,-0.018545952,0.44827124,0.240174,0.22796471,0.10856872,inf,inf,inf,inf,1,1,1,1,2,0,2,2,1,1,0
20348000,11096000,47.3977508,8.5456074,0.01929499,-0.010343101,0.017823644,-0.0044250046,-0.00533469,0.0,0.01454089,-0.020186033,0.0184804,0.0041821627,-0.0063061332,-0.012851348,0.014292665,0.009536524,-0.07814758,0.028097069,0.40561238,488.05832,0.1,-0.0184804,0.43220156,0.2397923,0.21988453,0.10799476,inf,inf,inf,inf,1,1,1,1,2,0,2,2,1,1,0
20452000,11096000,47.3977508,8.5456074,0.019093826,-0.010951225,0.01852548,-0.0044250046,-0.00533469,0.0,0.012378194,-0.022336006,0.0210865,0.007006863,-0.0063061332,-0.012851348,0.014292665,-0.004095156,-0.052445237,-0.018018296,0.40559727,488.05832,0.1,-0.0210865,0.44810688,0.23976849,0.22803223,0.10824443,inf,inf,inf,inf,1,1,1,1,2,0,2,2,1,1,0
20548000,11096000,47.3977508,8.5456074,0.018046549,-0.010939612,0.018332066,-0.0044250046,-0.00533469,0.0,0.0104113985,-0.02159481,0.019460477,0.004709342,-0.0063061332,-0.012851348,0.014292665,-0.00036500566,-0.024250759,0.014579854,0.40556794,488.05832,0.1,-0.019460477,0.4320576,0.23934829,0.21991296,0.10765156,inf,inf,inf,inf,1,1,1,1,2,0,2,2,1,1,0
20652000,11096000,47.3977508,8.5456074,0.017465167,-0.011440975,0.017544132,-0.0044250046,-0.00533469,0.0,0.009555655,-0.019921146,0.022551894,0.006570804,-0.0063061332,-0.012851348,0.014292665,-0.059997223,-0.08361226,0.040307637,0.40539977,488.05832,0.1,-0.022551894,0.44798312,0.24104567,0.22804834,0.10834992,inf,inf,inf,inf,1,1,1,1,2,0,2,2,1,1,0
20748000,11096000,47.3977508,8.5456074,0.017297419,-0.012293872,0.01730568,-0.0044250046,-0.00533469,0.0,0.008212038,-0.019821389,0.022758897,0.006111443,-0.0063061332,-0.012851348,0.014292665,-0.017478129,-0.035877716,-0.024687497,0.405538,488.05832,0.1,-0.022758897,0.46358678,0.24205463,0.23573825,0.1088215,inf,inf,inf,inf,1,1,1,1,2,0,2,2,1,1,0
20852000,11096000,47.3977508,8.5456074,0.016260289,-0.011693098,0.01635296,-0.0044250046,-0.00533469,0.0,0.0056171655,-0.020584332,0.021288017,0.0034030946,-0.0063061332,-0.012851348,0.014292665,-0.005767491,-0.011585186,-0.079954036,0.4058314,488.05832,0.1,-0.021288017,0.4460863,0.24048203,0.22660512,0.107908025,inf,inf,inf,inf,1,1,1,1,2,0,2,2,1,1,0
20948000,11096000,47.3977508,8.5456074,0.015660899,-0.01191914,0.015566033,-0.0044250046,-0.00533469,0.0,0.0049599186,-0.020147458,0.022173405,0.0033291285,-0.0063061332,-0.012851348,0.014292665,0.03429419,0.045564882,-0.005660578,0.40586352,488.05832,0.1,-0.022173405,0.46154732,0.2414699,0.23423369,0.10837054,inf,inf,inf,inf,1,1,1,1,2,0,2,2,1,1,0
21052000,11096000,47.3977508,8.5456074,0.014851988,-0.011933573,0.015047501,-0.0044250046,-0.00533469,0.0,0.0028440603,-0.01886549,0.019882478,0.0005496462,-0.0063061332,-0.012851348,0.014292665,-0.0066515054,-0.0017506317,0.06449967,0.40597114,488.05832,0.1,-0.019882478,0.4444163,0.24162711,0.22536843,0.107922144,inf,inf,inf,inf,1,1,1,1,2,0,2,2,1,1,0
