timestamp,timestamp_sample,control[0],control[1],control[2],control[3],control[4],control[5],control[6],control[7]
1920000,1920000,-0.007077959,0.0072606094,0.0004361545,0.0,0.0,0.0,0.0,0.0
2020000,2020000,0.0028217528,0.0047583682,-0.000120116594,0.0,0.0,0.0,0.0,0.0
2120000,2120000,-0.0047219764,0.0012620143,0.0019280044,0.0,0.0,0.0,0.0,0.0
2224000,2224000,-0.0011738696,-0.0027919225,-0.0007743348,0.0,0.0,0.0,0.0,0.0
2320000,2320000,0.0067633917,0.008663416,-0.0016587913,0.0,0.0,0.0,0.0,0.0
2420000,2420000,0.025929619,0.027661186,-0.0007330688,0.08,0.0,0.0,0.0,-1.0
2520000,2520000,0.029194146,0.03672284,0.00020816259,0.08,0.0,0.0,0.0,-1.0
2620000,2620000,0.024821045,0.032569837,-0.00019823578,0.08,0.0,0.0,0.0,-1.0
2720000,2720000,0.021450147,0.021236802,-0.0016906699,0.08,0.0,0.0,0.0,-1.0
2820000,2820000,0.03325582,0.028525319,-0.0002391391,0.08,0.0,0.0,0.0,-1.0
2924000,2924000,0.030597482,0.033298735,0.00078485947,0.08,0.0,0.0,0.0,-1.0
3024000,3024000,0.0149092,0.029977292,-0.0006817965,0.08,0.0,0.0,0.0,-1.0
3120000,3120000,0.025266096,0.034547146,-0.00032111458,0.08,0.0,0.0,0.0,-1.0
3220000,3220000,0.03021,0.036572456,0.0006559386,0.08,0.0,0.0,0.0,-1.0
3320000,3320000,0.03499412,0.027860805,0.0010742116,0.08,0.0,0.0,0.0,-1.0
3420000,3420000,0.025890602,0.03768719,0.0014871513,0.08,0.0,0.0,0.0,-1.0
3520000,3520000,0.02321987,0.033873234,-0.0007718392,0.08,0.0,0.0,0.0,-1.0
3620000,3620000,0.01663298,0.03794027,-0.0011610689,0.08,0.0,0.0,0.0,-1.0
3720000,3720000,0.019135883,0.03994518,0.0011621538,0.08,0.0,0.0,0.0,-1.0
3820000,3820000,0.019141663,0.04465804,-0.001150222,0.08,0.0,0.0,0.0,-1.0
3924000,3924000,0.01989951,0.038740464,-2.3285906e-05,0.08,0.0,0.0,0.0,-1.0
4023999,4023999,0.03004944,0.036959235,-0.0006807639,0.08,0.0,0.0,0.0,-1.0
4127999,4127999,0.035695955,0.0374423,0.00089546706,0.08,0.0,0.0,0.0,-1.0
4228000,4228000,0.023001807,0.03906776,0.00040206872,0.08,0.0,0.0,0.0,-1.0
4332000,4332000,0.022456568,0.028788954,0.0007930508,0.08,0.0,0.0,0.0,-1.0
4432000,4432000,0.014533852,0.04846873,-0.0010723361,0.08,0.0,0.0,0.0,-1.0
4528000,4528000,0.037010454,0.046024855,-0.00078824844,0.08,0.0,0.0,0.0,-1.0
4628000,4628000,0.03762491,0.052806765,0.0017539341,0.08,0.0,0.0,0.0,-1.0
4732000,4732000,0.037777144,0.039407797,0.002322913,0.08,0.0,0.0,0.0,-1.0
4832000,4832000,0.028002696,0.03143926,0.0019453509,0.08,0.0,0.0,0.0,-1.0
4928000,4928000,0.028383799,0.051192567,-0.00041149976,0.08,0.0,0.0,0.0,-1.0
5028000,5028000,0.03707094,0.038730122,0.0011315501,0.08,0.0,0.0,0.0,-1.0
5128000,5128000,0.021263957,0.0396467,-0.00089277787,0.08,0.0,0.0,0.0,-1.0
5228000,5228000,0.02344658,0.045680124,0.00031608302,0.08,0.0,0.0,0.0,-1.0
5328000,5328000,0.019850582,0.05013885,0.00038107258,0.08,0.0,0.0,0.0,-1.0
5428000,5428000,0.030575594,0.031685136,0.0008090019,0.08,0.0,0.0,0.0,-1.0
5532000,5532000,0.025802234,0.036551606,-0.00013254746,0.08,0.0,0.0,0.0,-1.0
5628000,5628000,0.024093473,0.040353935,0.0010722388,0.08,0.0,0.0,0.0,-1.0
5728000,5728000,0.028178213,0.044083737,0.00064121495,0.08,0.0,0.0,0.0,-1.0
5828000,5828000,0.028604705,0.03515426,-0.00051709637,0.08,0.0,0.0,0.0,-1.0
5928000,5928000,0.041650966,0.044186886,-0.0020411506,0.08,0.0,0.0,0.0,-1.0
6028000,6028000,0.016150866,0.03618213,-0.00047222586,0.08,0.0,0.0,0.0,-1.0
6128000,6128000,0.030999279,0.05306568,-0.00013987847,0.08,0.0,0.0,0.0,-1.0
6228000,6228000,0.024902187,0.038672425,0.0002946877,0.08,0.0,0.0,0.0,-1.0
6328000,6328000,0.022748008,0.04457256,0.00048991974,0.08,0.0,0.0,0.0,-1.0
6428000,6428000,0.026576372,0.033524495,-0.00031065545,0.08,0.0,0.0,0.0,-1.0
6528000,6528000,0.032245044,0.036302153,-0.0011364121,0.08,0.0,0.0,0.0,-1.0
6628000,6628000,0.022310374,0.04557387,-0.00033534897,0.08,0.0,0.0,0.0,-1.0
6728000,6728000,0.024522344,0.04489387,0.0015254341,0.08,0.0,0.0,0.0,-1.0
6828000,6828000,0.028576776,0.028068088,0.0004896801,0.08,0.0,0.0,0.0,-1.0
6928000,6928000,0.022643022,0.041318353,-0.00048741355,0.08,0.0,0.0,0.0,-1.0
7028000,7028000,0.02163871,0.0408374,0.0016815206,0.08,0.0,0.0,0.0,-1.0
7128000,7128000,0.038862318,0.036491383,-0.0006463878,0.08,0.0,0.0,0.0,-1.0
7228000,7228000,0.027859781,0.03134388,0.0017051708,0.08,0.0,0.0,0.0,-1.0
7328000,7328000,0.018000286,0.028251817,0.0009784955,0.08,0.0,0.0,0.0,-1.0
7432000,7432000,0.019909346,0.033823144,-0.00055847084,0.08,0.0,0.0,0.0,-1.0
7528000,7528000,0.029807197,0.045669246,-0.0005145005,0.08,0.0,0.0,0.0,-1.0
7628000,7628000,0.019477975,0.029424775,0.0004186496,0.08,0.0,0.0,0.0,-1.0
7732000,7732000,0.015341615,0.031242743,0.00091562385,0.08,0.0,0.0,0.0,-1.0
7832000,7832000,0.02091612,0.044275787,0.0028980009,0.08,0.0,0.0,0.0,-1.0
7928000,7928000,0.025151094,0.027700936,-0.00046743965,0.08,0.0,0.0,0.0,-1.0
8028000,8028000,0.022459734,0.029560521,0.00023817735,0.08,0.0,0.0,0.0,-1.0
8136000,8136000,0.020830626,0.030472761,0.0009490177,0.08,0.0,0.0,0.0,-1.0
8232000,8232000,0.03932169,0.028969754,-0.0010317661,0.08,0.0,0.0,0.0,-1.0
8336000,8336000,0.02378797,0.026344469,-0.00064953475,0.08,0.0,0.0,0.0,-1.0
8432000,8432000,0.029014198,0.04361052,0.00071482756,0.08,0.0,0.0,0.0,-1.0
8532000,8532000,0.00811255,0.042875726,0.0010384427,0.08,0.0,0.0,0.0,-1.0
8636000,8636000,0.008713725,0.03169006,0.00014307715,0.08,0.0,0.0,0.0,-1.0
8732000,8732000,0.02984991,0.03688474,-0.0006978704,0.08,0.0,0.0,0.0,-1.0
8836000,8836000,0.02649174,0.028035203,0.0017904073,0.08,0.0,0.0,0.0,-1.0
8932000,8932000,0.026015898,0.030390264,-0.00021008866,0.08,0.0,0.0,0.0,-1.0
9036000,9036000,0.014799259,0.01998838,-0.0005334056,0.08,0.0,0.0,0.0,-1.0
9132000,9132000,0.026325006,0.024057778,-0.0005109651,0.08,0.0,0.0,0.0,-1.0
9232000,9232000,0.016699858,0.021136478,-0.00040742863,0.08,0.0,0.0,0.0,-1.0
9332000,9332000,0.024291735,0.034795124,0.00048924796,0.08,0.0,0.0,0.0,-1.0
9436000,9436000,0.016744357,0.025682261,-0.00029022293,0.08,0.0,0.0,0.0,-1.0
9532000,9532000,0.0283914,0.025915923,-0.0020380514,0.08,0.0,0.0,0.0,-1.0
9632000,9632000,0.032601822,0.020747885,-0.0020339456,0.08,0.0,0.0,0.0,-1.0
9732000,9732000,0.024006795,0.024152406,-0.0017746569,0.08,0.0,0.0,0.0,-1.0
9836000,9836000,0.0181672,0.020775504,0.0005826782,0.08,0.0,0.0,0.0,-1.0
9936000,9936000,0.02394448,0.036774114,0.0010306643,0.08,0.0,0.0,0.0,-1.0
10032000,10032000,0.026158625,0.022223577,-0.00013338237,0.08,0.0,0.0,0.0,-1.0
10132000,10132000,0.021181762,0.038189117,-0.00037470396,0.08,0.0,0.0,0.0,-1.0
10232000,10232000,0.02289366,0.020559572,-0.00069381756,0.08,0.0,0.0,0.0,-1.0
10332000,10332000,0.027032452,0.032049004,2.9533368e-05,0.08,0.0,0.0,0.0,-1.0
10436000,10436000,0.029023854,0.038597044,0.0034786265,0.08,0.0,0.0,0.0,-1.0
10532000,10532000,0.023196485,0.023088504,-0.0011176262,0.08,0.0,0.0,0.0,-1.0
10632000,10632000,0.020833382,0.02510632,5.977922e-05,0.08,0.0,0.0,0.0,-1.0
10732000,10732000,0.01816653,0.031901736,0.0016061504,0.08,0.0,0.0,0.0,-1.0
10832000,10832000,0.022865428,0.026871283,-0.00038980923,0.08,0.0,0.0,0.0,-1.0
10932000,10932000,0.023721157,0.02886346,-0.001764174,0.08,0.0,0.0,0.0,-1.0
11032000,11032000,0.016417887,0.018488545,-0.00027015625,0.08,0.0,0.0,0.0,-1.0
11132000,11132000,0.02273097,0.022837624,0.00092223025,0.08,0.0,0.0,0.0,-1.0
11236000,11236000,0.027993502,0.03787572,0.0014154603,0.08,0.0,0.0,0.0,-1.0
11332000,11332000,0.01623299,0.028000822,0.00043134243,0.08,0.0,0.0,0.0,-1.0
11432000,11432000,0.025467409,0.023031337,0.0006860203,0.08,0.0,0.0,0.0,-1.0
11536000,11536000,0.030774988,0.012223933,0.000118864875,0.08,0.0,0.0,0.0,-1.0
11632000,11632000,0.025649358,0.010184112,-0.00012734458,0.08,0.0,0.0,0.0,-1.0
11732000,11732000,0.022010705,0.0314874,0.002079963,0.08,0.0,0.0,0.0,-1.0
11832000,11832000,0.0208596,0.019600615,0.00083368237,0.08,0.0,0.0,0.0,-1.0
11936000,11936000,0.023182396,0.017628312,0.00036466925,0.08,0.0,0.0,0.0,-1.0
12032000,12032000,0.027960567,0.018206948,-7.1148856e-06,0.08,0.0,0.0,0.0,-1.0
12136000,12136000,0.024301138,0.033796478,0.0011518206,0.08,0.0,0.0,0.0,-1.0
12236000,12236000,0.02359996,0.025918487,0.0012625929,0.08,0.0,0.0,0.0,-1.0
12332000,12332000,0.026435977,0.022707306,-0.0005427656,0.08,0.0,0.0,0.0,-1.0
12432000,12432000,0.030016106,0.021076888,0.0023694376,0.08,0.0,0.0,0.0,-1.0
12536000,12536000,0.031820863,0.020666553,-0.00085239875,0.08,0.0,0.0,0.0,-1.0
12636000,12636000,0.025291283,0.025898492,0.0027637265,0.08,0.0,0.0,0.0,-1.0
12732000,12732000,0.020218072,0.019582378,0.00038560672,0.08,0.0,0.0,0.0,-1.0
12832000,12832000,0.0357303,0.03280292,0.0015545293,0.08,0.0,0.0,0.0,-1.0
12936000,12936000,0.022516606,0.026448166,0.00050955574,0.08,0.0,0.0,0.0,-1.0
13032000,13032000,0.01773101,0.020090517,-0.00079839065,0.08,0.0,0.0,0.0,-1.0
13132000,13132000,0.031087136,0.024748934,0.0014039731,0.08,0.0,0.0,0.0,-1.0
13232000,13232000,0.03607195,0.028229954,0.001574393,0.08,0.0,0.0,0.0,-1.0
13332000,13332000,0.021791037,0.027922738,0.001942941,0.08,0.0,0.0,0.0,-1.0
13432000,13432000,0.022043033,0.027897209,-0.00016093906,0.08,0.0,0.0,0.0,-1.0
13536000,13536000,0.023835458,0.028617764,0.0005981736,0.08,0.0,0.0,0.0,-1.0
13636000,13636000,0.02757697,0.018372424,0.00016162382,0.08,0.0,0.0,0.0,-1.0
13732000,13732000,0.022391636,0.020511247,0.00014114213,0.08,0.0,0.0,0.0,-1.0
13836000,13836000,0.028956015,0.03133137,0.00011444022,0.08,0.0,0.0,0.0,-1.0
13932000,13932000,0.018281521,0.040694397,0.0014227497,0.08,0.0,0.0,0.0,-1.0
14032000,14032000,0.022418763,0.01830308,0.0019375592,0.08,0.0,0.0,0.0,-1.0
14132000,14132000,0.024319932,0.030608617,0.0010165153,0.08,0.0,0.0,0.0,-1.0
14232000,14232000,0.018023727,0.018454596,0.0005711791,0.08,0.0,0.0,0.0,-1.0
14332000,14332000,0.02831651,0.023794418,-0.0014687423,0.08,0.0,0.0,0.0,-1.0
14432000,14432000,0.041858118,0.027079705,0.0016205255,0.08,0.0,0.0,0.0,-1.0
14532000,14532000,0.028284146,0.024641508,0.0014164505,0.08,0.0,0.0,0.0,-1.0
14632000,14632000,0.013857192,0.026625147,0.001718184,0.08,0.0,0.0,0.0,-1.0
14732000,14732000,0.03599652,0.021554412,-0.00016967618,0.08,0.0,0.0,0.0,-1.0
14836000,14836000,0.026908966,0.02922418,0.00048582532,0.08,0.0,0.0,0.0,-1.0
14936000,14936000,0.016140256,0.015595831,-0.00028142362,0.08,0.0,0.0,0.0,-1.0
15032000,15032000,0.028185854,0.02298269,0.00065638893,0.08,0.0,0.0,0.0,-1.0
15132000,15132000,0.004468372,0.024755351,0.0006269901,0.08,0.0,0.0,0.0,-1.0
15232000,15232000,0.02071234,0.027392257,0.00060531165,0.08,0.0,0.0,0.0,-1.0
15332000,15332000,0.029440496,0.021865677,0.0009557158,0.08,0.0,0.0,0.0,-1.0
15432000,15432000,0.01638174,0.015380373,0.0037825822,0.08,0.0,0.0,0.0,-1.0
15532000,15532000,0.018046342,0.023836117,-0.0013386579,0.08,0.0,0.0,0.0,-1.0
15632000,15632000,0.014388069,0.025849244,-7.385304e-05,0.08,0.0,0.0,0.0,-1.0
15732000,15732000,0.019227222,0.03079045,0.00088142295,0.08,0.0,0.0,0.0,-1.0
15836000,15836000,0.016224394,0.021088481,0.0014261275,0.08,0.0,0.0,0.0,-1.0
15932000,15932000,0.03682755,0.026256017,2.7187541e-05,0.08,0.0,0.0,0.0,-1.0
16032000,16032000,0.029305613,0.025102345,0.0010600027,0.08,0.0,0.0,0.0,-1.0
16132000,16132000,0.0241274,0.01907721,0.00071583566,0.08,0.0,0.0,0.0,-1.0
16240000,16240000,0.026508613,0.019376166,0.00075727626,0.08,0.0,0.0,0.0,-1.0
16336000,16336000,0.024968062,0.016367923,0.000525816,0.08,0.0,0.0,0.0,-1.0
16444000,16444000,0.015953407,0.025327664,0.00058148964,0.08,0.0,0.0,0.0,-1.0
16544000,16544000,0.01818696,0.027712727,0.0009803734,0.08,0.0,0.0,0.0,-1.0
16639999,16639999,0.018766925,0.032579534,0.0010551224,0.08,0.0,0.0,0.0,-1.0
16740000,16740000,0.024403023,0.024445273,-0.0006409464,0.08,0.0,0.0,0.0,-1.0
16840000,16840000,0.025668358,0.028627213,-0.0006414717,0.08,0.0,0.0,0.0,-1.0
16944000,16944000,0.030745097,0.030176774,6.3212705e-05,0.08,0.0,0.0,0.0,-1.0
17040000,17040000,0.025871651,0.024804058,0.0032907785,0.08,0.0,0.0,0.0,-1.0
17140000,17140000,0.021731744,0.029810715,0.002591173,0.08,0.0,0.0,0.0,-1.0
17244000,17244000,0.029419016,0.025790207,0.001172331,0.08,0.0,0.0,0.0,-1.0
17340000,17340000,0.02693964,0.022567315,0.0008016212,0.08,0.0,0.0,0.0,-1.0
17440000,17440000,0.021917492,0.022374494,0.0015276927,0.08,0.0,0.0,0.0,-1.0
17540000,17540000,0.028930712,0.020464474,0.00021230467,0.08,0.0,0.0,0.0,-1.0
17640000,17640000,0.032625582,0.032066613,0.00035833995,0.08,0.0,0.0,0.0,-1.0
17740000,17740000,0.018765451,0.014537029,-0.00055866985,0.08,0.0,0.0,0.0,-1.0
17844000,17844000,0.0210573,0.02573361,-0.0007522991,0.08,0.0,0.0,0.0,-1.0
17940000,17940000,0.02158644,0.027489264,0.00029370407,0.08,0.0,0.0,0.0,-1.0
18040000,18040000,0.018748097,0.018338673,0.0015914853,0.08,0.0,0.0,0.0,-1.0
18148000,18148000,0.03573319,0.014837649,6.8275775e-05,0.08,0.0,0.0,0.0,-1.0
18248000,18248000,0.018558756,0.023355002,0.0010140345,0.08,0.0,0.0,0.0,-1.0
18344000,18344000,0.027801681,0.021299994,-0.00017430229,0.08,0.0,0.0,0.0,-1.0
18444000,18444000,0.027629726,0.023891348,0.0020942793,0.08,0.0,0.0,0.0,-1.0
18544000,18544000,0.023386674,0.022714738,0.0015826168,0.08,0.0,0.0,0.0,-1.0
18644000,18644000,0.035389997,0.028514206,0.002030133,0.08,0.0,0.0,0.0,-1.0
18744000,18744000,0.024671566,0.017327892,0.0013339032,0.08,0.0,0.0,0.0,-1.0
18844000,18844000,0.020511575,0.015544457,0.0007921502,0.08,0.0,0.0,0.0,-1.0
18948000,18948000,0.02145492,0.030313414,0.00072713883,0.08,0.0,0.0,0.0,-1.0
19044000,19044000,0.025409998,0.022750877,0.0026225965,0.08,0.0,0.0,0.0,-1.0
19144000,19144000,0.030305479,0.024306871,0.0010970242,0.08,0.0,0.0,0.0,-1.0
19248000,19248000,0.020277264,0.013542209,0.0003114889,0.08,0.0,0.0,0.0,-1.0
19344000,19344000,0.027482381,0.019556869,0.000726727,0.08,0.0,0.0,0.0,-1.0
19448000,19448000,0.016698066,0.024032533,0.0020931964,0.08,0.0,0.0,0.0,-1.0
19544000,19544000,0.026025673,0.023767892,-0.0021280842,0.08,0.0,0.0,0.0,-1.0
19644000,19644000,0.027573224,0.02259608,0.00064860424,0.08,0.0,0.0,0.0,-1.0
19744000,19744000,0.042257227,0.023646837,0.00078849134,0.08,0.0,0.0,0.0,-1.0
19844000,19844000,0.021198072,0.030241782,0.0011849577,0.08,0.0,0.0,0.0,-1.0
19944000,19944000,0.018416852,0.015672011,0.001472054,0.08,0.0,0.0,0.0,-1.0
20048000,20048000,0.020518184,0.022374406,0.00013629836,0.08,0.0,0.0,0.0,-1.0
20144000,20144000,0.023695797,0.0038518002,0.0013949061,0.08,0.0,0.0,0.0,-1.0
20244000,20244000,0.01757808,0.022506198,0.002194571,0.08,0.0,0.0,0.0,-1.0
20344000,20344000,0.029711109,0.024083067,0.0004935595,0.08,0.0,0.0,0.0,-1.0
20444000,20444000,0.023518072,0.030057013,0.0011969095,0.08,0.0,0.0,0.0,-1.0
20548000,20548000,0.024747774,0.021665156,0.0007566635,0.08,0.0,0.0,0.0,-1.0
20644000,20644000,0.026567541,0.015883384,0.00347204,0.08,0.0,0.0,0.0,-1.0
20744000,20744000,0.027594265,0.017660728,0.0021731614,0.08,0.0,0.0,0.0,-1.0
20844000,20844000,0.033663236,0.024077795,0.00089864136,0.08,0.0,0.0,0.0,-1.0
20944000,20944000,0.03289823,0.024184963,0.00079769484,0.08,0.0,0.0,0.0,-1.0
21048000,21048000,0.030137086,0.03120562,-0.00048976217,0.08,0.0,0.0,0.0,-1.0
21148000,21148000,0.026367068,0.019443093,0.0014322583,0.08,0.0,0.0,0.0,-1.0
21248000,21248000,0.019729761,0.018549914,0.0007336998,0.08,0.0,0.0,0.0,-1.0
21348000,21348000,0.02656807,0.022182094,0.000669868,0.08,0.0,0.0,0.0,-1.0
21448000,21448000,0.038125884,0.02585349,0.0006536351,0.08,0.0,0.0,0.0,-1.0
21544000,21544000,0.02172363,0.015822655,0.000699142,0.08,0.0,0.0,0.0,-1.0
21644000,21644000,0.0060543586,0.019623708,-0.0002873038,0.08,0.0,0.0,0.0,-1.0
21748000,21748000,0.025781581,0.031944282,0.0026950752,0.08,0.0,0.0,0.0,-1.0
21844000,21844000,0.029259998,0.03205239,0.0021955215,0.08,0.0,0.0,0.0,-1.0
21944000,21944000,0.0279167,0.017827481,0.0015659843,0.08,0.0,0.0,0.0,-1.0
22044000,22044000,0.019132886,0.012799781,0.0021453805,0.08,0.0,0.0,0.0,-1.0
22144000,22144000,0.024513192,0.030558892,5.1417388e-05,0.08,0.0,0.0,0.0,-1.0
22244000,22244000,0.035014406,0.022104122,0.00031401668,0.08,0.0,0.0,0.0,-1.0
22344000,22344000,0.020135218,0.023059383,0.0016444924,0.08,0.0,0.0,0.0,-1.0
22444000,22444000,0.030014325,0.008406624,0.0012600564,0.08,0.0,0.0,0.0,-1.0
22544000,22544000,0.034042574,0.019939521,0.00010005273,0.08,0.0,0.0,0.0,-1.0
22644000,22644000,0.022587625,0.031608935,0.0019583278,0.08,0.0,0.0,0.0,-1.0
22744000,22744000,0.024988607,0.021290665,-0.0002407265,0.08,0.0,0.0,0.0,-1.0
22844000,22844000,0.025667759,0.026761249,-6.913795e-05,0.08,0.0,0.0,0.0,-1.0
22948000,22948000,0.027510785,0.024941167,0.0013138201,0.08,0.0,0.0,0.0,-1.0
23044000,23044000,0.02598642,0.027032627,-0.0010745574,0.08,0.0,0.0,0.0,-1.0
23144000,23144000,0.01780296,0.021528827,0.0014647732,0.08,0.0,0.0,0.0,-1.0
23244000,23244000,0.030029932,0.020196302,0.0019718427,0.08,0.0,0.0,0.0,-1.0
23344000,23344000,0.020507017,0.023565255,0.00038000653,0.08,0.0,0.0,0.0,-1.0
23444000,23444000,0.020252911,0.027953707,0.0012789611,0.08,0.0,0.0,0.0,-1.0
23548000,23548000,0.018214494,0.017439092,0.0034752376,0.08,0.0,0.0,0.0,-1.0
23644000,23644000,0.021424752,0.030972522,0.00075475394,0.08,0.0,0.0,0.0,-1.0
23744000,23744000,0.023320818,0.008718932,0.0033753016,0.08,0.0,0.0,0.0,-1.0
23844000,23844000,0.020172078,0.01603502,0.002026837,0.08,0.0,0.0,0.0,-1.0
23944000,23944000,0.019272946,0.016191976,0.0030407794,0.08,0.0,0.0,0.0,-1.0
24044000,24044000,0.02744936,0.0173373,0.0023895053,0.08,0.0,0.0,0.0,-1.0
24148000,24148000,0.028796531,0.023231108,0.0037228377,0.08,0.0,0.0,0.0,-1.0
24244000,24244000,0.02708477,0.019580284,0.0024163057,0.08,0.0,0.0,0.0,-1.0
24344000,24344000,0.019958317,0.018536307,0.0011469566,0.08,0.0,0.0,0.0,-1.0
24444000,24444000,0.0265364,0.019586638,-0.00022269665,0.08,0.0,0.0,0.0,-1.0
24544000,24544000,0.04036268,0.014957624,0.0014670923,0.08,0.0,0.0,0.0,-1.0
24644000,24644000,0.01626394,0.019700326,0.0022637516,0.08,0.0,0.0,0.0,-1.0
24748000,24748000,0.028789511,0.017176058,0.0017529812,0.08,0.0,0.0,0.0,-1.0
24848000,24848000,0.014567432,0.019277018,-0.0015419595,0.08,0.0,0.0,0.0,-1.0
24944000,24944000,0.024460169,0.0190548,0.0002890223,0.08,0.0,0.0,0.0,-1.0
25044000,25044000,0.028462147,0.0130973095,0.0018332553,0.08,0.0,0.0,0.0,-1.0
25144000,25144000,0.029924706,0.019102853,-0.0018628428,0.08,0.0,0.0,0.0,-1.0
25244000,25244000,0.022065345,0.022388538,-0.0020758836,0.08,0.0,0.0,0.0,-1.0
25344000,25344000,0.025583968,0.02985019,0.0009393314,0.08,0.0,0.0,0.0,-1.0
25448000,25448000,0.026487878,0.028927682,0.002613421,0.08,0.0,0.0,0.0,-1.0
25544000,25544000,0.026362782,0.026626907,0.0010467982,0.08,0.0,0.0,0.0,-1.0
25648000,25648000,0.025072925,0.021452904,0.0018077776,0.08,0.0,0.0,0.0,-1.0
25748000,25748000,0.037095398,0.019131985,0.0019124951,0.08,0.0,0.0,0.0,-1.0
25844000,25844000,0.018656805,0.023197757,0.00029230566,0.08,0.0,0.0,0.0,-1.0
25944000,25944000,0.02660172,0.025708942,0.00014594081,0.08,0.0,0.0,0.0,-1.0
26044000,26044000,0.024600938,0.033875108,0.0010460642,0.08,0.0,0.0,0.0,-1.0
26148000,26148000,0.017916381,0.020602796,0.0014875479,0.08,0.0,0.0,0.0,-1.0
26244000,26244000,0.02973489,0.018032948,0.0012463365,0.08,0.0,0.0,0.0,-1.0
26344000,26344000,0.033568703,0.019801706,-0.0003832102,0.08,0.0,0.0,0.0,-1.0
26444000,26444000,0.022576246,0.02302523,0.002122019,0.08,0.0,0.0,0.0,-1.0
26544000,26544000,0.02623876,0.016827878,-0.0016372675,0.08,0.0,0.0,0.0,-1.0
26644000,26644000,0.024522357,0.024490602,0.0006154554,0.08,0.0,0.0,0.0,-1.0
26744000,26744000,0.02482711,0.02240814,0.0011222833,0.08,0.0,0.0,0.0,-1.0
26844000,26844000,0.021000717,0.020299299,-0.00053280237,0.08,0.0,0.0,0.0,-1.0
26948000,26948000,0.014536935,0.025168804,0.0029350694,0.08,0.0,0.0,0.0,-1.0
27044000,27044000,0.03410857,0.020544708,0.0013595457,0.08,0.0,0.0,0.0,-1.0
27144000,27144000,0.02306205,0.020368176,0.0010719883,0.08,0.0,0.0,0.0,-1.0
27248000,27248000,0.022754053,0.026575394,0.002274746,0.08,0.0,0.0,0.0,-1.0
27344000,27344000,0.030642137,0.014065211,0.0012308845,0.08,0.0,0.0,0.0,-1.0
27444000,27444000,0.0346767,0.014788646,0.00032687603,0.08,0.0,0.0,0.0,-1.0
27544000,27544000,0.018642746,0.017317822,-0.0008233985,0.08,0.0,0.0,0.0,-1.0
27644000,27644000,0.019378942,0.017469324,-0.00038685976,0.08,0.0,0.0,0.0,-1.0
27744000,27744000,0.017654065,0.026683502,0.00041855135,0.08,0.0,0.0,0.0,-1.0
27844000,27844000,0.032280035,0.029335374,-0.0005878272,0.08,0.0,0.0,0.0,-1.0
27948000,27948000,0.025207613,0.026624845,0.0011252536,0.08,0.0,0.0,0.0,-1.0
28044000,28044000,0.030388847,0.022609895,0.00032128175,0.08,0.0,0.0,0.0,-1.0
28144000,28144000,0.024264801,0.013996649,0.00055610464,0.08,0.0,0.0,0.0,-1.0
28244000,28244000,0.018699616,0.016400244,-0.0008971786,0.08,0.0,0.0,0.0,-1.0
28348000,28348000,0.028083295,0.0318608,0.0015805832,0.08,0.0,0.0,0.0,-1.0
28444000,28444000,0.019597713,0.022300577,0.00053444935,0.08,0.0,0.0,0.0,-1.0
28544000,28544000,0.017918691,0.03936376,0.0016687158,0.08,0.0,0.0,0.0,-1.0
28644000,28644000,0.028208716,0.029652037,-0.00046307288,0.08,0.0,0.0,0.0,-1.0
28748000,28748000,0.021573162,0.023879513,0.0010250233,0.08,0.0,0.0,0.0,-1.0
28844000,28844000,0.024705589,0.01815929,0.0004884535,0.08,0.0,0.0,0.0,-1.0
28944000,28944000,0.019558495,0.0154864825,1.177052e-05,0.08,0.0,0.0,0.0,-1.0
29048000,29048000,0.030833818,0.033597518,-0.00059022027,0.08,0.0,0.0,0.0,-1.0
29144000,29144000,0.015416769,0.025257858,0.002547168,0.08,0.0,0.0,0.0,-1.0
29244000,29244000,0.022079693,0.023224289,6.21819e-05,0.08,0.0,0.0,0.0,-1.0
29348000,29348000,0.030665537,0.03268849,0.0016249977,0.08,0.0,0.0,0.0,-1.0
29444000,29444000,0.0315822,0.022125646,-0.0008528337,0.08,0.0,0.0,0.0,-1.0
29548000,29548000,0.01169914,0.024482425,0.0019180989,0.08,0.0,0.0,0.0,-1.0
29644000,29644000,0.02097668,0.021625878,0.000930986,0.08,0.0,0.0,0.0,-1.0
29744000,29744000,0.025744678,0.020874092,-0.0012339304,0.08,0.0,0.0,0.0,-1.0
29844000,29844000,0.03343288,0.022552056,0.0006821873,0.08,0.0,0.0,0.0,-1.0
29944000,29944000,0.02568331,0.024036342,0.0011072083,0.08,0.0,0.0,0.0,-1.0
30048000,30048000,0.030380208,0.030446518,0.00014082924,0.08,0.0,0.0,0.0,-1.0
30144000,30144000,0.02078594,0.039440617,0.00012259452,0.08,0.0,0.0,0.0,-1.0
30244000,30244000,0.021666167,0.028945131,-0.0014111402,0.08,0.0,0.0,0.0,-1.0
30344000,30344000,0.025468502,0.03175714,-0.00024714918,0.08,0.0,0.0,0.0,-1.0
30448000,30448000,0.010810433,0.022581229,0.001350901,0.08,0.0,0.0,0.0,-1.0
30548000,30548000,0.029973725,0.025746573,-0.0004921872,0.08,0.0,0.0,0.0,-1.0
30644000,30644000,0.017087542,0.03552024,0.0005806136,0.08,0.0,0.0,0.0,-1.0
30744000,30744000,0.017041497,0.0375642,0.0012269565,0.08,0.0,0.0,0.0,-1.0
30844000,30844000,0.025584886,0.029624935,-0.0011684003,0.08,0.0,0.0,0.0,-1.0
30944000,30944000,0.037496284,0.026320845,-0.0003364293,0.08,0.0,0.0,0.0,-1.0
31044000,31044000,0.035091847,0.03419934,0.0003999148,0.08,0.0,0.0,0.0,-1.0
31144000,31144000,0.033424802,0.0263833,0.0004312635,0.08,0.0,0.0,0.0,-1.0
31244000,31244000,0.025475476,0.02623579,0.0020375166,0.08,0.0,0.0,0.0,-1.0
31344000,31344000,0.019823868,0.021769272,0.0013307506,0.08,0.0,0.0,0.0,-1.0
31444000,31444000,0.024067963,0.032406867,0.0007449732,0.08,0.0,0.0,0.0,-1.0
31548000,31548000,0.022735411,0.022473877,0.001318408,0.08,0.0,0.0,0.0,-1.0
31644000,31644000,0.034575596,0.038950708,0.0030879057,0.08,0.0,0.0,0.0,-1.0
31748000,31748000,0.016527358,0.035050694,-0.00018955115,0.08,0.0,0.0,0.0,-1.0
31848000,31848000,0.026025474,0.034349505,-0.0006460747,0.08,0.0,0.0,0.0,-1.0
31944000,31944000,0.02322414,0.031347245,0.0015152681,0.08,0.0,0.0,0.0,-1.0
32044000,32044000,0.034196254,0.022316866,0.0013229419,0.08,0.0,0.0,0.0,-1.0
32148000,32148000,0.018784773,0.017706422,-0.00016089296,0.08,0.0,0.0,0.0,-1.0
32243999,32243999,0.037833,0.007246785,0.00041569603,0.08,0.0,0.0,0.0,-1.0
32347999,32347999,0.03374018,0.024562286,0.0017725343,0.08,0.0,0.0,0.0,-1.0
32448000,32448000,0.013277678,0.022329798,0.0010155606,0.08,0.0,0.0,0.0,-1.0
32551999,32551999,0.02780908,0.032433674,0.00201936,0.08,0.0,0.0,0.0,-1.0
32655999,32655999,0.023455102,0.027240636,0.0010094203,0.08,0.0,0.0,0.0,-1.0
32755999,32755999,0.03200972,0.0119941095,0.0004751925,0.08,0.0,0.0,0.0,-1.0
32859999,32859999,0.050797284,0.013551635,0.0028059613,0.08,0.0,0.0,0.0,-1.0
32960000,32960000,0.019773498,0.038255617,-8.933088e-05,0.08,0.0,0.0,0.0,-1.0
33063999,33063999,0.034020055,0.02179428,0.0016995782,0.08,0.0,0.0,0.0,-1.0
33167999,33167999,0.037029248,0.028957719,0.0019259666,0.08,0.0,0.0,0.0,-1.0
33268000,33268000,0.02536208,0.01820914,0.00032465608,0.08,0.0,0.0,0.0,-1.0
33371999,33371999,0.024749886,0.033396304,0.000649211,0.08,0.0,0.0,0.0,-1.0
33475999,33475999,0.028354488,0.014397245,-0.00026411956,0.08,0.0,0.0,0.0,-1.0
33576000,33576000,0.031688154,0.028044371,-0.0007543717,0.08,0.0,0.0,0.0,-1.0
33680000,33680000,0.029044874,0.027435323,-0.0008512665,0.08,0.0,0.0,0.0,-1.0
33780000,33780000,0.023123467,0.016133482,7.36095e-05,0.08,0.0,0.0,0.0,-1.0
33880000,33880000,0.028148027,0.02453142,0.0008340678,0.08,0.0,0.0,0.0,-1.0
33980000,33980000,0.033657797,0.03524573,0.0029288882,0.08,0.0,0.0,0.0,-1.0
34080000,34080000,0.026753455,0.026126487,0.0008596006,0.08,0.0,0.0,0.0,-1.0
34176000,34176000,0.01661684,0.03320412,0.0010032372,0.08,0.0,0.0,0.0,-1.0
34276000,34276000,0.03149365,0.031032337,0.0016831703,0.08,0.0,0.0,0.0,-1.0
34376000,34376000,0.02253343,0.028280722,0.0016383784,0.08,0.0,0.0,0.0,-1.0
34480000,34480000,0.029753437,0.022014832,0.00075788156,0.08,0.0,0.0,0.0,-1.0
34580000,34580000,0.016461357,0.024525857,0.0027593693,0.08,0.0,0.0,0.0,-1.0
34676000,34676000,0.013591652,0.034125794,0.0007909755,0.08,0.0,0.0,0.0,-1.0
34776000,34776000,0.023020288,0.025705766,0.0006216398,0.08,0.0,0.0,0.0,-1.0
34880000,34880000,0.03057971,0.025070667,0.00095135946,0.08,0.0,0.0,0.0,-1.0
34976000,34976000,0.01452046,0.013990542,0.0019841671,0.08,0.0,0.0,0.0,-1.0
35076000,35076000,0.017775396,0.020871008,0.0004285087,0.08,0.0,0.0,0.0,-1.0
35176000,35176000,0.023079984,0.019503023,0.0013383738,0.08,0.0,0.0,0.0,-1.0
35276000,35276000,0.023296881,0.022214124,0.0019771259,0.08,0.0,0.0,0.0,-1.0
35376000,35376000,0.020561796,0.024417464,0.00025835825,0.08,0.0,0.0,0.0,-1.0
35476000,35476000,0.017931808,0.018551104,0.0024341925,0.08,0.0,0.0,0.0,-1.0
35580000,35580000,0.029636163,0.03096762,0.00065007264,0.08,0.0,0.0,0.0,-1.0
35680000,35680000,0.011123188,0.031676553,0.0012067592,0.08,0.0,0.0,0.0,-1.0
35776000,35776000,0.0211668,0.023156062,0.00058348296,0.08,0.0,0.0,0.0,-1.0
35880000,35880000,0.04017529,0.01957747,0.0016419344,0.08,0.0,0.0,0.0,-1.0
35980000,35980000,0.030557023,0.032029532,0.0020261833,0.08,0.0,0.0,0.0,-1.0
36076000,36076000,0.028231163,0.019978214,0.000985124,0.08,0.0,0.0,0.0,-1.0
36176000,36176000,0.033652592,0.03251559,0.00031961716,0.08,0.0,0.0,0.0,-1.0
36276000,36276000,0.0292334,0.016842142,1.2135133e-06,0.08,0.0,0.0,0.0,-1.0
36376000,36376000,0.03581058,0.018953543,0.0007925937,0.08,0.0,0.0,0.0,-1.0
36480000,36480000,0.02097116,0.025519062,0.001197063,0.08,0.0,0.0,0.0,-1.0
36576000,36576000,0.03281457,0.032531083,0.0019658022,0.08,0.0,0.0,0.0,-1.0
36676000,36676000,0.030985862,0.035949804,0.0015839491,0.08,0.0,0.0,0.0,-1.0
36780000,36780000,0.039188914,0.014865106,0.0013681407,0.08,0.0,0.0,0.0,-1.0
36876000,36876000,0.036488034,0.017426694,0.0022859972,0.08,0.0,0.0,0.0,-1.0
36976000,36976000,0.02773302,0.03321839,0.00054509944,0.08,0.0,0.0,0.0,-1.0
37076000,37076000,0.021400388,0.022759117,0.0007194522,0.08,0.0,0.0,0.0,-1.0
37176000,37176000,0.016736247,0.025027234,0.00072067,0.08,0.0,0.0,0.0,-1.0
37276000,37276000,0.035522237,0.026012294,0.0010348086,0.08,0.0,0.0,0.0,-1.0
37376000,37376000,0.015481585,0.026455611,-0.00046219127,0.08,0.0,0.0,0.0,-1.0
37476000,37476000,0.024897719,0.029386012,-0.00045522992,0.08,0.0,0.0,0.0,-1.0
37576000,37576000,0.017525077,0.029863875,-0.0007867813,0.08,0.0,0.0,0.0,-1.0
37680000,37680000,0.025945509,0.026625602,-0.001612734,0.08,0.0,0.0,0.0,-1.0
37780000,37780000,0.03304448,0.020621665,0.0009630925,0.08,0.0,0.0,0.0,-1.0
37876000,37876000,0.025513731,0.02118869,-0.00028793767,0.08,0.0,0.0,0.0,-1.0
37980000,37980000,0.030777317,0.020329256,0.00088289997,0.08,0.0,0.0,0.0,-1.0
38076000,38076000,0.030572262,0.03931531,0.0017105332,0.08,0.0,0.0,0.0,-1.0
38180000,38180000,0.018857015,0.02880702,-0.00022820095,0.08,0.0,0.0,0.0,-1.0
38276000,38276000,0.038865887,0.035769753,0.0007751553,0.08,0.0,0.0,0.0,-1.0
38376000,38376000,0.023563972,0.026189651,0.0015096309,0.08,0.0,0.0,0.0,-1.0
38476000,38476000,0.029405398,0.028014302,-0.0006570071,0.08,0.0,0.0,0.0,-1.0
38576000,38576000,0.024832852,0.035582807,0.0015074806,0.08,0.0,0.0,0.0,-1.0
38680000,38680000,0.017998913,0.021032376,0.0028466708,0.08,0.0,0.0,0.0,-1.0
38776000,38776000,0.012950153,0.026464278,0.0022813363,0.08,0.0,0.0,0.0,-1.0
38876000,38876000,0.019550279,0.027874552,0.0005047001,0.08,0.0,0.0,0.0,-1.0
38980000,38980000,0.027367335,0.027744263,0.0028203903,0.08,0.0,0.0,0.0,-1.0
39080000,39080000,0.026550489,0.021849876,0.001084503,0.08,0.0,0.0,0.0,-1.0
39176000,39176000,0.02436995,0.027557023,0.00083744264,0.08,0.0,0.0,0.0,-1.0
39276000,39276000,0.023323655,0.025687559,0.0014711667,0.08,0.0,0.0,0.0,-1.0
39376000,39376000,0.021065153,0.024070367,0.00089482294,0.08,0.0,0.0,0.0,-1.0
39480000,39480000,0.026510563,0.026052611,0.0015332422,0.08,0.0,0.0,0.0,-1.0
39576000,39576000,0.023913462,0.03552087,0.0016516395,0.08,0.0,0.0,0.0,-1.0
39680000,39680000,0.017440401,0.012263538,-0.0011486947,0.08,0.0,0.0,0.0,-1.0
39780000,39780000,0.026702028,0.01662039,-0.0005402636,0.08,0.0,0.0,0.0,-1.0
39876000,39876000,0.028072877,0.03599372,0.00010012826,0.08,0.0,0.0,0.0,-1.0
39976000,39976000,0.015052697,0.026239393,-0.0010447403,0.08,0.0,0.0,0.0,-1.0
40076000,40076000,0.02552215,0.032010805,-0.0016306778,0.08,0.0,0.0,0.0,-1.0
40176000,40176000,0.030559598,0.02934989,-0.00032004304,0.08,0.0,0.0,0.0,-1.0
40276000,40276000,0.0012759026,0.027965443,0.000118966425,0.08,0.0,0.0,0.0,-1.0
40376000,40376000,0.020495681,0.028641297,-0.0007703567,0.08,0.0,0.0,0.0,-1.0
40476000,40476000,0.02508017,0.018513426,-0.0008410352,0.08,0.0,0.0,0.0,-1.0
40576000,40576000,0.030291246,0.03465051,0.00055296114,0.08,0.0,0.0,0.0,-1.0
40676000,40676000,0.025044994,0.021026202,6.8347086e-05,0.08,0.0,0.0,0.0,-1.0
40776000,40776000,0.024895744,0.02580913,-0.0017895912,0.08,0.0,0.0,0.0,-1.0
40880000,40880000,0.017263848,0.044417214,-0.00054771657,0.08,0.0,0.0,0.0,-1.0
40980000,40980000,0.018851783,0.028221931,0.0001948786,0.08,0.0,0.0,0.0,-1.0
41076000,41076000,0.01859432,0.02810002,-0.0011346238,0.08,0.0,0.0,0.0,-1.0
41176000,41176000,0.02907048,0.034492996,-0.0008258245,0.08,0.0,0.0,0.0,-1.0
41276000,41276000,0.03363651,0.030036192,-0.000811672,0.08,0.0,0.0,0.0,-1.0
41380000,41380000,0.035979353,0.028183006,-0.001244159,0.08,0.0,0.0,0.0,-1.0
41476000,41476000,0.025129512,0.024230996,0.00029190513,0.08,0.0,0.0,0.0,-1.0
41576000,41576000,0.020890651,0.015782166,-0.0010849455,0.08,0.0,0.0,0.0,-1.0
41676000,41676000,0.018624332,0.020518133,0.0016061756,0.08,0.0,0.0,0.0,-1.0
41780000,41780000,0.023330094,0.025301395,-0.0008009518,0.08,0.0,0.0,0.0,-1.0
41880000,41880000,0.017659428,0.022212967,0.00031802524,0.08,0.0,0.0,0.0,-1.0
41980000,41980000,0.00670412,0.023487417,-0.00087195187,0.08,0.0,0.0,0.0,-1.0
42076000,42076000,0.030456997,0.033933446,-0.00013398254,0.08,0.0,0.0,0.0,-1.0
42180000,42180000,0.028726295,0.032846257,-0.00017178273,0.08,0.0,0.0,0.0,-1.0
42276000,42276000,0.019485414,0.029061384,-0.0016379722,0.08,0.0,0.0,0.0,-1.0
42376000,42376000,0.035146028,0.021563856,-0.0017042294,0.08,0.0,0.0,0.0,-1.0
42476000,42476000,0.025227051,0.028356872,0.0011007645,0.08,0.0,0.0,0.0,-1.0
42576000,42576000,0.021069096,0.036833465,0.0011184452,0.08,0.0,0.0,0.0,-1.0
42676000,42676000,0.025847618,0.028975366,-0.0012513358,0.08,0.0,0.0,0.0,-1.0
42776000,42776000,0.020837158,0.03967802,-0.0001965086,0.08,0.0,0.0,0.0,-1.0
42880000,42880000,0.028747,0.025900882,-0.0019892242,0.08,0.0,0.0,0.0,-1.0
42980000,42980000,0.016824959,0.039869394,-0.00014533177,0.08,0.0,0.0,0.0,-1.0
43080000,43080000,0.022509528,0.038263693,-0.001913346,0.08,0.0,0.0,0.0,-1.0
43176000,43176000,0.0337548,0.027310554,-0.0019256885,0.08,0.0,0.0,0.0,-1.0
43280000,43280000,0.016739048,0.02463507,-0.0009817004,0.08,0.0,0.0,0.0,-1.0
43376000,43376000,0.018776182,0.028012384,-0.0021208436,0.08,0.0,0.0,0.0,-1.0
43476000,43476000,0.031922013,0.032774143,-0.0029344563,0.08,0.0,0.0,0.0,-1.0
43580000,43580000,0.016605405,0.027611608,-0.0027202435,0.08,0.0,0.0,0.0,-1.0
43676000,43676000,0.02311982,0.025968486,-0.0018633631,0.08,0.0,0.0,0.0,-1.0
43780000,43780000,0.029835451,0.0362625,-0.0017648032,0.08,0.0,0.0,0.0,-1.0
43876000,43876000,0.00850841,0.032446876,-0.0011304328,0.08,0.0,0.0,0.0,-1.0
43976000,43976000,0.025455186,0.0296235,-0.00021935561,0.08,0.0,0.0,0.0,-1.0
44076000,44076000,0.016422905,0.042955536,-0.004774328,0.08,0.0,0.0,0.0,-1.0
44180000,44180000,0.010125296,0.035746433,-0.00063727034,0.08,0.0,0.0,0.0,-1.0
44276000,44276000,0.016744928,0.03390989,-0.0023077265,0.08,0.0,0.0,0.0,-1.0
44376000,44376000,0.008666704,0.03483869,-0.0037658368,0.08,0.0,0.0,0.0,-1.0
44480000,44480000,0.019512061,0.02299881,-0.0020343598,0.08,0.0,0.0,0.0,-1.0
44580000,44580000,0.021427734,0.031171931,-0.0015558655,0.08,0.0,0.0,0.0,-1.0
44676000,44676000,0.01909748,0.028202344,-0.0032194809,0.08,0.0,0.0,0.0,-1.0
44776000,44776000,0.026755117,0.024853105,-0.0025728846,0.08,0.0,0.0,0.0,-1.0
44876000,44876000,0.018417928,0.028498774,-0.0028407413,0.08,0.0,0.0,0.0,-1.0
44980000,44980000,0.023078345,0.017513417,-0.0036684868,0.08,0.0,0.0,0.0,-1.0
45076000,45076000,0.015167642,0.028178945,-0.0020832666,0.08,0.0,0.0,0.0,-1.0
45176000,45176000,0.029743958,0.043709807,-0.001379067,0.08,0.0,0.0,0.0,-1.0
45276000,45276000,0.024746899,0.025741553,-0.0018787868,0.08,0.0,0.0,0.0,-1.0
45380000,45380000,0.012635953,0.035697587,-0.0004910516,0.08,0.0,0.0,0.0,-1.0
45476000,45476000,0.02607917,0.035924148,-0.002808541,0.08,0.0,0.0,0.0,-1.0
45576000,45576000,0.02204991,0.023615098,-0.0018527663,0.08,0.0,0.0,0.0,-1.0
45676000,45676000,0.023595039,0.03380482,-0.003273826,0.08,0.0,0.0,0.0,-1.0
45780000,45780000,0.023125388,0.021657221,-0.0033526272,0.08,0.0,0.0,0.0,-1.0
45876000,45876000,0.0067788865,0.03779434,-0.0016473335,0.08,0.0,0.0,0.0,-1.0
45976000,45976000,0.017889269,0.020701095,-0.0009019781,0.08,0.0,0.0,0.0,-1.0
46080000,46080000,0.026091842,0.027484251,-0.0030454397,0.08,0.0,0.0,0.0,-1.0
46176000,46176000,0.022371555,0.024296846,-0.0027816428,0.08,0.0,0.0,0.0,-1.0
46276000,46276000,0.026617732,0.03920077,-0.0021536294,0.08,0.0,0.0,0.0,-1.0
46380000,46380000,0.02510276,0.032202903,-0.0034093007,0.08,0.0,0.0,0.0,-1.0
46476000,46476000,0.03153336,0.0297934,-0.0022911972,0.08,0.0,0.0,0.0,-1.0
46580000,46580000,0.017328307,0.020943036,-0.0008410808,0.08,0.0,0.0,0.0,-1.0
46676000,46676000,0.029099733,0.029207781,-0.002894514,0.08,0.0,0.0,0.0,-1.0
46776000,46776000,0.023121998,0.02415212,-0.0027578655,0.08,0.0,0.0,0.0,-1.0
46876000,46876000,0.030784486,0.042862494,-0.0025850267,0.08,0.0,0.0,0.0,-1.0
46976000,46976000,0.021677276,0.022227142,-0.0044446737,0.08,0.0,0.0,0.0,-1.0
47080000,47080000,0.02350748,0.02152657,-0.0027092681,0.08,0.0,0.0,0.0,-1.0
47176000,47176000,0.017729642,0.032010254,-0.0024728433,0.08,0.0,0.0,0.0,-1.0
47280000,47280000,0.024561891,0.019900786,-0.0030951637,0.08,0.0,0.0,0.0,-1.0
47376000,47376000,0.014936077,0.033983722,-0.0035262876,0.08,0.0,0.0,0.0,-1.0
47476000,47476000,0.025789749,0.02879836,-0.003713262,0.08,0.0,0.0,0.0,-1.0
47576000,47576000,0.027536105,0.03523035,-0.0039485,0.08,0.0,0.0,0.0,-1.0
47676000,47676000,0.0072186207,0.027251642,-0.0037546516,0.08,0.0,0.0,0.0,-1.0
47776000,47776000,0.020076161,0.031259008,-0.0036893531,0.08,0.0,0.0,0.0,-1.0
47876000,47876000,0.022099113,0.039151482,-0.002544877,0.08,0.0,0.0,0.0,-1.0
47976000,47976000,0.024209056,0.034125872,-0.0036653266,0.08,0.0,0.0,0.0,-1.0
48080000,48080000,0.028696164,0.02583694,-0.0020313517,0.08,0.0,0.0,0.0,-1.0
48176000,48176000,0.0057276934,0.034706663,-0.0041723684,0.08,0.0,0.0,0.0,-1.0
48280000,48280000,0.018545898,0.03023766,-0.0027744893,0.08,0.0,0.0,0.0,-1.0
48376000,48376000,0.017858941,0.032491166,-0.0036575634,0.08,0.0,0.0,0.0,-1.0
48480000,48480000,0.017567333,0.02320236,-0.004099814,0.08,0.0,0.0,0.0,-1.0
48576000,48576000,0.01879471,0.031721592,-0.003566386,0.08,0.0,0.0,0.0,-1.0
48676000,48676000,0.024449348,0.022042857,-0.004013335,0.08,0.0,0.0,0.0,-1.0
48776000,48776000,0.03066102,0.027510278,-0.0042347373,0.08,0.0,0.0,0.0,-1.0
48876000,48876000,0.014942345,0.023171589,-0.0036894958,0.08,0.0,0.0,0.0,-1.0
48976000,48976000,0.0120156985,0.039409976,-0.0041245013,0.08,0.0,0.0,0.0,-1.0
49076000,49076000,0.013921257,0.027045477,-0.0044844192,0.08,0.0,0.0,0.0,-1.0
49176000,49176000,0.017562054,0.034463298,-0.0062914803,0.08,0.0,0.0,0.0,-1.0
49280000,49280000,0.023866102,0.028910646,-0.0043555344,0.08,0.0,0.0,0.0,-1.0
49376000,49376000,0.024131132,0.02193227,-0.0037602496,0.08,0.0,0.0,0.0,-1.0
49480000,49480000,0.016306287,0.025940118,-0.004576954,0.08,0.0,0.0,0.0,-1.0
49580000,49580000,0.033886194,0.032162007,-0.0036492757,0.08,0.0,0.0,0.0,-1.0
49676000,49676000,0.021896837,0.030895282,-0.005621131,0.08,0.0,0.0,0.0,-1.0
49780000,49780000,0.036095593,0.023924226,-0.0049705375,0.08,0.0,0.0,0.0,-1.0
49876000,49876000,0.0141024105,0.02888801,-0.0031983566,0.08,0.0,0.0,0.0,-1.0
49976000,49976000,0.026353622,0.026829628,-0.0038259574,0.08,0.0,0.0,0.0,-1.0
50076000,50076000,0.017911784,0.02918568,-0.0050455695,0.08,0.0,0.0,0.0,-1.0
50176000,50176000,0.008960013,0.025979139,-0.0058297995,0.08,0.0,0.0,0.0,-1.0
50276000,50276000,0.027851684,0.028658593,-0.003136777,0.08,0.0,0.0,0.0,-1.0
50376000,50376000,0.028832264,0.042333372,-0.0024692793,0.08,0.0,0.0,0.0,-1.0
50476000,50476000,0.019065576,0.036390584,-0.005147806,0.08,0.0,0.0,0.0,-1.0
50576000,50576000,0.021517353,0.030683426,-0.00387747,0.08,0.0,0.0,0.0,-1.0
50676000,50676000,0.027247852,0.03477081,-0.0047673206,0.08,0.0,0.0,0.0,-1.0
50776000,50776000,0.02621887,0.037500117,-0.004485751,0.08,0.0,0.0,0.0,-1.0
50876000,50876000,0.0157756,0.02456266,-0.004921934,0.08,0.0,0.0,0.0,-1.0
50976000,50976000,0.020577818,0.030102188,-0.0040808613,0.08,0.0,0.0,0.0,-1.0
51076000,51076000,0.009036247,0.041951597,-0.0046986453,0.08,0.0,0.0,0.0,-1.0
51176000,51176000,0.011967277,0.036726255,-0.0052172453,0.08,0.0,0.0,0.0,-1.0
51280000,51280000,0.022719136,0.04049212,-0.005013979,0.08,0.0,0.0,0.0,-1.0
51380000,51380000,0.023891574,0.029054165,-0.0045330497,0.08,0.0,0.0,0.0,-1.0
51480000,51480000,0.015352909,0.034443714,-0.005040674,0.08,0.0,0.0,0.0,-1.0
51580000,51580000,0.018353643,0.02417507,-0.005176585,0.08,0.0,0.0,0.0,-1.0
51680000,51680000,0.013798412,0.02924618,-0.0048784846,0.08,0.0,0.0,0.0,-1.0
51780000,51780000,0.023433762,0.02247973,-0.0044129537,0.08,0.0,0.0,0.0,-1.0
51880000,51880000,0.017216312,0.035387654,-0.0043563745,0.08,0.0,0.0,0.0,-1.0
51976000,51976000,0.01356473,0.022223597,-0.005167198,0.08,0.0,0.0,0.0,-1.0
52080000,52080000,0.02703049,0.033782437,-0.0043810396,0.08,0.0,0.0,0.0,-1.0
52176000,52176000,0.0232166,0.019816592,-0.002884779,0.08,0.0,0.0,0.0,-1.0
52276000,52276000,0.020851303,0.030598419,-0.0064908885,0.08,0.0,0.0,0.0,-1.0
52376000,52376000,0.03409705,0.037495162,-0.003831987,0.08,0.0,0.0,0.0,-1.0
52476000,52476000,0.023291064,0.028263368,-0.0025392566,0.08,0.0,0.0,0.0,-1.0
52576000,52576000,0.020687895,0.031112177,-0.006470762,0.08,0.0,0.0,0.0,-1.0
52676000,52676000,0.029330472,0.031817634,-0.005751019,0.08,0.0,0.0,0.0,-1.0
52780000,52780000,0.022608597,0.040513046,-0.0060911924,0.08,0.0,0.0,0.0,-1.0
52880000,52880000,0.008735111,0.020051207,-0.006110869,0.08,0.0,0.0,0.0,-1.0
52976000,52976000,0.033697814,0.024848895,-0.005069762,0.08,0.0,0.0,0.0,-1.0
53076000,53076000,0.018655717,0.024876941,-0.006247828,0.08,0.0,0.0,0.0,-1.0
53180000,53180000,0.0137382075,0.033659916,-0.004440596,0.08,0.0,0.0,0.0,-1.0
53280000,53280000,0.020751871,0.024058368,-0.0073395553,0.08,0.0,0.0,0.0,-1.0
53380000,53380000,0.024514701,0.023528783,-0.007426583,0.08,0.0,0.0,0.0,-1.0
53476000,53476000,0.017300837,0.032817874,-0.0046842746,0.08,0.0,0.0,0.0,-1.0
53576000,53576000,0.016669698,0.033681724,-0.0062617115,0.08,0.0,0.0,0.0,-1.0
53676000,53676000,0.01835433,0.030820247,-0.0049960003,0.08,0.0,0.0,0.0,-1.0
53780000,53780000,0.029113717,0.032583866,-0.004229045,0.08,0.0,0.0,0.0,-1.0
53880000,53880000,0.0148412455,0.02978349,-0.0053218957,0.08,0.0,0.0,0.0,-1.0
53980000,53980000,0.033262387,0.038706075,-0.0045922324,0.08,0.0,0.0,0.0,-1.0
54076000,54076000,0.02690347,0.037510492,-0.0050699497,0.08,0.0,0.0,0.0,-1.0
54180000,54180000,0.012330961,0.02048222,-0.006726215,0.08,0.0,0.0,0.0,-1.0
54276000,54276000,0.02135915,0.031403486,-0.005132855,0.08,0.0,0.0,0.0,-1.0
54376000,54376000,0.0251089,0.039981663,-0.006632591,0.08,0.0,0.0,0.0,-1.0
54476000,54476000,0.024650492,0.028798457,-0.004874866,0.08,0.0,0.0,0.0,-1.0
54576000,54576000,0.026881486,0.029909428,-0.0049143,0.08,0.0,0.0,0.0,-1.0
54676000,54676000,0.029177856,0.04072526,-0.00894221,0.08,0.0,0.0,0.0,-1.0
54776000,54776000,0.021748392,0.023133114,-0.0057573854,0.08,0.0,0.0,0.0,-1.0
54876000,54876000,0.019529251,0.031814687,-0.0074364617,0.08,0.0,0.0,0.0,-1.0
54980000,54980000,0.021682806,0.025601983,-0.0061996165,0.08,0.0,0.0,0.0,-1.0
55076000,55076000,0.013870148,0.03287435,-0.0071540596,0.08,0.0,0.0,0.0,-1.0
55176000,55176000,0.02872582,0.032458264,-0.0059598335,0.08,0.0,0.0,0.0,-1.0
55276000,55276000,0.035303064,0.032135285,-0.0080936905,0.08,0.0,0.0,0.0,-1.0
55376000,55376000,0.020014422,0.033242,-0.0061703883,0.08,0.0,0.0,0.0,-1.0
55476000,55476000,0.020567471,0.045532525,-0.0059463475,0.08,0.0,0.0,0.0,-1.0
55576000,55576000,0.01254615,0.03300996,-0.0062893266,0.08,0.0,0.0,0.0,-1.0
55680000,55680000,0.023538511,0.035868786,-0.006411869,0.08,0.0,0.0,0.0,-1.0
55780000,55780000,0.011324989,0.03900173,-0.006464177,0.08,0.0,0.0,0.0,-1.0
55876000,55876000,0.021467175,0.026872456,-0.0081678135,0.08,0.0,0.0,0.0,-1.0
55980000,55980000,0.02545813,0.037132896,-0.006777612,0.08,0.0,0.0,0.0,-1.0
56076000,56076000,0.020273266,0.032294337,-0.0046157558,0.08,0.0,0.0,0.0,-1.0
56176000,56176000,0.022834796,0.021477126,-0.007104168,0.08,0.0,0.0,0.0,-1.0
56276000,56276000,0.018430471,0.033463046,-0.0074248463,0.08,0.0,0.0,0.0,-1.0
56376000,56376000,0.02430698,0.033457827,-0.005890056,0.08,0.0,0.0,0.0,-1.0
56476000,56476000,0.021946065,0.03553411,-0.008329222,0.08,0.0,0.0,0.0,-1.0
56580000,56580000,0.020806028,0.03269417,-0.0059600985,0.08,0.0,0.0,0.0,-1.0
56676000,56676000,0.026556583,0.039890505,-0.007636764,0.08,0.0,0.0,0.0,-1.0
56776000,56776000,0.025483955,0.028923044,-0.0074973362,0.08,0.0,0.0,0.0,-1.0
56880000,56880000,0.015776193,0.026828863,-0.007532708,0.08,0.0,0.0,0.0,-1.0
56980000,56980000,0.010645917,0.035308704,-0.0072131413,0.08,0.0,0.0,0.0,-1.0
57076000,57076000,0.011317546,0.036184553,-0.0061378255,0.08,0.0,0.0,0.0,-1.0
57176000,57176000,0.01851168,0.02668836,-0.008460461,0.08,0.0,0.0,0.0,-1.0
57280000,57280000,0.025944173,0.025257617,-0.006133726,0.08,0.0,0.0,0.0,-1.0
57376000,57376000,0.021461794,0.029178003,-0.007001344,0.08,0.0,0.0,0.0,-1.0
57480000,57480000,0.019650156,0.04152037,-0.008542481,0.08,0.0,0.0,0.0,-1.0
57576000,57576000,0.01895756,0.020652398,-0.008231798,0.08,0.0,0.0,0.0,-1.0
57676000,57676000,0.02370034,0.0342064,-0.00927713,0.08,0.0,0.0,0.0,-1.0
57776000,57776000,0.010106001,0.039474577,-0.0076815947,0.08,0.0,0.0,0.0,-1.0
57876000,57876000,0.0282229,0.027593296,-0.006867328,0.08,0.0,0.0,0.0,-1.0
57976000,57976000,0.034950655,0.024520447,-0.007525086,0.08,0.0,0.0,0.0,-1.0
58080000,58080000,0.026825259,0.0419114,-0.006485318,0.08,0.0,0.0,0.0,-1.0
58180000,58180000,0.028838908,0.017402397,-0.007968526,0.08,0.0,0.0,0.0,-1.0
58276000,58276000,0.030150292,0.0396125,-0.007401764,0.08,0.0,0.0,0.0,-1.0
58380000,58380000,0.022276448,0.02791414,-0.008816094,0.08,0.0,0.0,0.0,-1.0
58480000,58480000,0.036854044,0.029382024,-0.007916848,0.08,0.0,0.0,0.0,-1.0
58580000,58580000,0.029020507,0.03718389,-0.007978919,0.08,0.0,0.0,0.0,-1.0
58676000,58676000,0.02094353,0.04462345,-0.0077431053,0.08,0.0,0.0,0.0,-1.0
58776000,58776000,0.027406491,0.039828442,-0.005439588,0.08,0.0,0.0,0.0,-1.0
58880000,58880000,0.021591125,0.04059078,-0.008019495,0.08,0.0,0.0,0.0,-1.0
58980000,58980000,0.020190842,0.03730399,-0.0101505825,0.08,0.0,0.0,0.0,-1.0
59076000,59076000,0.020601746,0.03815808,-0.010119143,0.08,0.0,0.0,0.0,-1.0
59176000,59176000,0.02809283,0.041082982,-0.008272382,0.08,0.0,0.0,0.0,-1.0
59280000,59280000,0.029051125,0.027366359,-0.007428877,0.08,0.0,0.0,0.0,-1.0
59380000,59380000,0.027932484,0.033707913,-0.0062859356,0.08,0.0,0.0,0.0,-1.0
59476000,59476000,0.020841058,0.03551492,-0.008793474,0.08,0.0,0.0,0.0,-1.0
59576000,59576000,0.033198662,0.0315595,-0.00905079,0.08,0.0,0.0,0.0,-1.0
59676000,59676000,0.011260644,0.036139693,-0.007514745,0.08,0.0,0.0,0.0,-1.0
59776000,59776000,0.023662934,0.035513684,-0.009185902,0.08,0.0,0.0,0.0,-1.0
59880000,59880000,0.031833995,0.039988637,-0.006823659,0.08,0.0,0.0,0.0,-1.0
59976000,59976000,0.021003628,0.025888061,-0.0090582175,0.08,0.0,0.0,0.0,-1.0
60076000,60076000,0.031826995,0.030048097,-0.0070071253,0.08,0.0,0.0,0.0,-1.0
60180000,60180000,0.019709695,0.03647807,-0.008499766,0.08,0.0,0.0,0.0,-1.0
60280000,60280000,0.025895605,0.03111429,-0.006947224,0.08,0.0,0.0,0.0,-1.0
60376000,60376000,0.02765087,0.032224078,-0.0069112377,0.08,0.0,0.0,0.0,-1.0
60480000,60480000,0.029520119,0.026025245,-0.006537538,0.08,0.0,0.0,0.0,-1.0
60576000,60576000,0.026065424,0.040832795,-0.0068124854,0.08,0.0,0.0,0.0,-1.0
60676000,60676000,0.024985405,0.032035142,-0.0076006777,0.08,0.0,0.0,0.0,-1.0
60776000,60776000,0.029156588,0.035400465,-0.009256805,0.08,0.0,0.0,0.0,-1.0
60880000,60880000,0.02320104,0.034181233,-0.008107356,0.08,0.0,0.0,0.0,-1.0
60976000,60976000,0.026746416,0.03146668,-0.008444125,0.08,0.0,0.0,0.0,-1.0
61076000,61076000,0.024251968,0.029411124,-0.008166719,0.08,0.0,0.0,0.0,-1.0
61176000,61176000,0.018575871,0.0334201,-0.009281061,0.08,0.0,0.0,0.0,-1.0
61276000,61276000,0.020105155,0.028482296,-0.009413987,0.08,0.0,0.0,0.0,-1.0
61376000,61376000,0.025228683,0.034253597,-0.008469527,0.08,0.0,0.0,0.0,-1.0
61480000,61480000,0.022601323,0.03069089,-0.009119864,0.08,0.0,0.0,0.0,-1.0
61576000,61576000,0.027169999,0.01975093,-0.007937341,0.08,0.0,0.0,0.0,-1.0
61676000,61676000,0.016264206,0.02261627,-0.0071541467,0.08,0.0,0.0,0.0,-1.0
61780000,61780000,0.01584373,0.052164733,-0.008268885,0.08,0.0,0.0,0.0,-1.0
61876000,61876000,0.020498903,0.0364458,-0.0062662116,0.08,0.0,0.0,0.0,-1.0
61976000,61976000,0.028277412,0.047536578,-0.0098872,0.08,0.0,0.0,0.0,-1.0
62076000,62076000,0.02117329,0.039545916,-0.0074431286,0.08,0.0,0.0,0.0,-1.0
62176000,62176000,0.018330265,0.029138422,-0.008744213,0.08,0.0,0.0,0.0,-1.0
62276000,62276000,0.04035346,0.034116946,-0.008118349,0.08,0.0,0.0,0.0,-1.0
62376000,62376000,0.02261031,0.033066347,-0.007453795,0.08,0.0,0.0,0.0,-1.0
62476000,62476000,0.020275757,0.045180626,-0.009776938,0.08,0.0,0.0,0.0,-1.0
62576000,62576000,0.022062544,0.034099244,-0.008094842,0.08,0.0,0.0,0.0,-1.0
62676000,62676000,0.0320118,0.031040497,-0.0060815266,0.08,0.0,0.0,0.0,-1.0
62776000,62776000,0.014742018,0.024845079,-0.009160654,0.08,0.0,0.0,0.0,-1.0
62876000,62876000,0.036890343,0.04109141,-0.008925161,0.08,0.0,0.0,0.0,-1.0
62976000,62976000,0.020454636,0.03695228,-0.006858139,0.08,0.0,0.0,0.0,-1.0
63080000,63080000,0.03645163,0.031754315,-0.005600565,0.08,0.0,0.0,0.0,-1.0
63176000,63176000,0.028936388,0.028958868,-0.00904901,0.08,0.0,0.0,0.0,-1.0
63276000,63276000,0.025666697,0.024089327,-0.006861627,0.08,0.0,0.0,0.0,-1.0
63380000,63380000,0.03532565,0.034080148,-0.008530762,0.08,0.0,0.0,0.0,-1.0
63476000,63476000,0.024573334,0.042849496,-0.008566837,0.08,0.0,0.0,0.0,-1.0
63576000,63576000,0.024977509,0.037784386,-0.0055404822,0.08,0.0,0.0,0.0,-1.0
63676000,63676000,0.023017459,0.029987287,-0.0060207294,0.08,0.0,0.0,0.0,-1.0
63776000,63776000,0.020890918,0.042957127,-0.009420372,0.08,0.0,0.0,0.0,-1.0
63876000,63876000,0.022530992,0.029780354,-0.0070935385,0.08,0.0,0.0,0.0,-1.0
63976000,63976000,0.00811162,0.019787047,-0.007618319,0.08,0.0,0.0,0.0,-1.0
64076000,64076000,0.025565535,0.032230448,-0.011601575,0.08,0.0,0.0,0.0,-1.0
64176000,64176000,0.033711713,0.02730422,-0.0097196745,0.08,0.0,0.0,0.0,-1.0
64276000,64276000,0.011443053,0.0265843,-0.0071846577,0.08,0.0,0.0,0.0,-1.0
64375999,64375999,0.020541837,0.0373243,-0.009908537,0.08,0.0,0.0,0.0,-1.0
64479999,64479999,0.030665834,0.0254198,-0.0059613613,0.08,0.0,0.0,0.0,-1.0
64583999,64583999,0.029875789,0.0313473,-0.00756425,0.08,0.0,0.0,0.0,-1.0
64687999,64687999,0.024047388,0.018538438,-0.0075942734,0.08,0.0,0.0,0.0,-1.0
64788000,64788000,0.01965042,0.025717847,-0.008311844,0.08,0.0,0.0,0.0,-1.0
64887999,64887999,0.012794123,0.02735645,-0.0084951855,0.08,0.0,0.0,0.0,-1.0
64991999,64991999,0.030576672,0.040651098,-0.010015053,0.08,0.0,0.0,0.0,-1.0
65100000,65100000,0.014895143,0.02968292,-0.0083556725,0.08,0.0,0.0,0.0,-1.0
65199999,65199999,0.019188045,0.029331367,-0.006755378,0.08,0.0,0.0,0.0,-1.0
65300000,65300000,0.015509099,0.04180685,-0.008800461,0.08,0.0,0.0,0.0,-1.0
65404000,65404000,0.026929162,0.023363506,-0.0075446265,0.08,0.0,0.0,0.0,-1.0
65503999,65503999,0.018026821,0.03242035,-0.008098348,0.08,0.0,0.0,0.0,-1.0
65607999,65607999,0.0130372895,0.032999385,-0.007527716,0.08,0.0,0.0,0.0,-1.0
65716000,65716000,0.027263798,0.04302624,-0.009278547,0.08,0.0,0.0,0.0,-1.0
65820000,65820000,0.010223751,0.030719174,-0.008307202,0.08,0.0,0.0,0.0,-1.0
65916000,65916000,0.025790557,0.028331263,-0.0088188145,0.08,0.0,0.0,0.0,-1.0
66020000,66020000,0.022024203,0.03295293,-0.0056686806,0.08,0.0,0.0,0.0,-1.0
66119999,66119999,0.026101932,0.021860538,-0.008208317,0.08,0.0,0.0,0.0,-1.0
66223999,66223999,0.026846016,0.037853315,-0.009259815,0.08,0.0,0.0,0.0,-1.0
66327999,66327999,0.018148704,0.02398856,-0.0084102005,0.08,0.0,0.0,0.0,-1.0
66428000,66428000,0.023469724,0.048224848,-0.0076009776,0.08,0.0,0.0,0.0,-1.0
66528000,66528000,0.012742122,0.035338163,-0.00723558,0.08,0.0,0.0,0.0,-1.0
66631999,66631999,0.026120082,0.04207848,-0.008981877,0.08,0.0,0.0,0.0,-1.0
66740000,66740000,0.016225152,0.043207183,-0.007370098,0.08,0.0,0.0,0.0,-1.0
66839999,66839999,0.018368326,0.03340093,-0.0090991445,0.08,0.0,0.0,0.0,-1.0
66943999,66943999,0.01705179,0.037082292,-0.00894119,0.08,0.0,0.0,0.0,-1.0
67044000,67044000,0.028789775,0.03072285,-0.008246694,0.08,0.0,0.0,0.0,-1.0
67144000,67144000,0.023229014,0.019540196,-0.0059312745,0.08,0.0,0.0,0.0,-1.0
67244000,67244000,0.022059197,0.023655128,-0.006086476,0.08,0.0,0.0,0.0,-1.0
67344000,67344000,0.012298114,0.02206155,-0.008552407,0.08,0.0,0.0,0.0,-1.0
67444000,67444000,0.016541958,0.02907085,-0.006913382,0.08,0.0,0.0,0.0,-1.0
67544000,67544000,0.025941402,0.026366806,-0.0084799,0.08,0.0,0.0,0.0,-1.0
67644000,67644000,0.020363169,0.037475515,-0.0069110203,0.08,0.0,0.0,0.0,-1.0
67744000,67744000,0.009840873,0.024516355,-0.009257901,0.08,0.0,0.0,0.0,-1.0
67844000,67844000,0.0052796276,0.036450848,-0.0071018883,0.08,0.0,0.0,0.0,-1.0
67944000,67944000,0.028514687,0.036889825,-0.009169163,0.08,0.0,0.0,0.0,-1.0
68044000,68044000,0.020875929,0.02809079,-0.008166174,0.08,0.0,0.0,0.0,-1.0
68144000,68144000,0.026038252,0.021123558,-0.008842523,0.08,0.0,0.0,0.0,-1.0
68248000,68248000,0.029429024,0.041936934,-0.007626156,0.08,0.0,0.0,0.0,-1.0
68344000,68344000,0.019658936,0.024505192,-0.009331598,0.08,0.0,0.0,0.0,-1.0
68444000,68444000,0.026944138,0.027285757,-0.008994894,0.08,0.0,0.0,0.0,-1.0
68544000,68544000,0.017621275,0.025439288,-0.011302731,0.08,0.0,0.0,0.0,-1.0
68644000,68644000,0.018911429,0.026758237,-0.009028475,0.08,0.0,0.0,0.0,-1.0
68744000,68744000,0.024012508,0.04400763,-0.008852075,0.08,0.0,0.0,0.0,-1.0
68844000,68844000,0.025833283,0.021548308,-0.008266933,0.08,0.0,0.0,0.0,-1.0
68944000,68944000,0.023085373,0.02428088,-0.008235071,0.08,0.0,0.0,0.0,-1.0
69044000,69044000,0.017735448,0.022581246,-0.0077754194,0.08,0.0,0.0,0.0,-1.0
69144000,69144000,0.020800307,0.028740557,-0.008717152,0.08,0.0,0.0,0.0,-1.0
69244000,69244000,0.013230525,0.04938488,-0.010555707,0.08,0.0,0.0,0.0,-1.0
69348000,69348000,0.026925955,0.035649598,-0.008161338,0.08,0.0,0.0,0.0,-1.0
69444000,69444000,0.017475413,0.0235801,-0.007878947,0.08,0.0,0.0,0.0,-1.0
69544000,69544000,0.011769576,0.03477513,-0.008664159,0.08,0.0,0.0,0.0,-1.0
69644000,69644000,0.017346255,0.037983052,-0.009695339,0.08,0.0,0.0,0.0,-1.0
69744000,69744000,0.018633982,0.021223444,-0.00918259,0.08,0.0,0.0,0.0,-1.0
69848000,69848000,0.017971883,0.026459584,-0.009596656,0.08,0.0,0.0,0.0,-1.0
69948000,69948000,0.0061014853,0.027001575,-0.007898339,0.08,0.0,0.0,0.0,-1.0
70044000,70044000,0.015926588,0.024072705,-0.007977431,0.08,0.0,0.0,0.0,-1.0
70144000,70144000,0.009708828,0.03377839,-0.008983098,0.08,0.0,0.0,0.0,-1.0
70244000,70244000,0.014450703,0.03416203,-0.009529807,0.08,0.0,0.0,0.0,-1.0
70344000,70344000,0.010179349,0.03401776,-0.01014638,0.08,0.0,0.0,0.0,-1.0
70444000,70444000,0.02385064,0.036034416,-0.0097475145,0.08,0.0,0.0,0.0,-1.0
70544000,70544000,0.010985364,0.02135994,-0.010813612,0.08,0.0,0.0,0.0,-1.0
70644000,70644000,0.0196245,0.029866144,-0.009481883,0.08,0.0,0.0,0.0,-1.0
70744000,70744000,0.019964095,0.04069238,-0.008249679,0.08,0.0,0.0,0.0,-1.0
70844000,70844000,0.010969978,0.0288446,-0.009139321,0.08,0.0,0.0,0.0,-1.0
70944000,70944000,0.019997643,0.0327047,-0.009416802,0.08,0.0,0.0,0.0,-1.0
71044000,71044000,0.016623773,0.028585613,-0.009603678,0.08,0.0,0.0,0.0,-1.0
71144000,71144000,0.017607197,0.032893587,-0.009927547,0.08,0.0,0.0,0.0,-1.0
71244000,71244000,0.015085806,0.035396572,-0.009589895,0.08,0.0,0.0,0.0,-1.0
71344000,71344000,0.020744227,0.040425964,-0.008975959,0.08,0.0,0.0,0.0,-1.0
71444000,71444000,0.006881687,0.03745325,-0.008271431,0.08,0.0,0.0,0.0,-1.0
71544000,71544000,0.02547369,0.040034704,-0.008766012,0.08,0.0,0.0,0.0,-1.0
71644000,71644000,0.01753653,0.029478058,-0.009175523,0.08,0.0,0.0,0.0,-1.0
71748000,71748000,0.011396863,0.042536646,-0.009029607,0.08,0.0,0.0,0.0,-1.0
71844000,71844000,0.020889718,0.020847851,-0.008577681,0.08,0.0,0.0,0.0,-1.0
71944000,71944000,0.01981638,0.029041434,-0.008894264,0.08,0.0,0.0,0.0,-1.0
72044000,72044000,0.024474438,0.021916289,-0.0103389975,0.08,0.0,0.0,0.0,-1.0
72144000,72144000,0.010347946,0.022817379,-0.009656138,0.08,0.0,0.0,0.0,-1.0
72244000,72244000,0.019157713,0.025753394,-0.01012752,0.08,0.0,0.0,0.0,-1.0
72344000,72344000,0.024540363,0.02584641,-0.0092353765,0.08,0.0,0.0,0.0,-1.0
72444000,72444000,0.013432436,0.036300223,-0.009114697,0.08,0.0,0.0,0.0,-1.0
72544000,72544000,0.02336397,0.02702167,-0.011057079,0.08,0.0,0.0,0.0,-1.0
72644000,72644000,0.026192587,0.038136333,-0.010717123,0.08,0.0,0.0,0.0,-1.0
72744000,72744000,0.008285204,0.015121185,-0.009898632,0.08,0.0,0.0,0.0,-1.0
72848000,72848000,0.017849023,0.02706228,-0.008904397,0.08,0.0,0.0,0.0,-1.0
72948000,72948000,0.021237053,0.033102788,-0.007573362,0.08,0.0,0.0,0.0,-1.0
73048000,73048000,0.0226648,0.0155123165,-0.008876584,0.08,0.0,0.0,0.0,-1.0
73144000,73144000,0.019258488,0.028469574,-0.011357141,0.08,0.0,0.0,0.0,-1.0
73244000,73244000,0.015955757,0.028789597,-0.009774627,0.08,0.0,0.0,0.0,-1.0
73344000,73344000,0.025931997,0.025327729,-0.010860988,0.08,0.0,0.0,0.0,-1.0
73444000,73444000,0.027590083,0.0271298,-0.00866463,0.08,0.0,0.0,0.0,-1.0
73544000,73544000,0.012033481,0.028284037,-0.007820254,0.08,0.0,0.0,0.0,-1.0
73648000,73648000,0.02025197,0.026716672,-0.008800636,0.08,0.0,0.0,0.0,-1.0
73748000,73748000,0.021745196,0.035418473,-0.008556513,0.08,0.0,0.0,0.0,-1.0
73844000,73844000,0.021673502,0.032930203,-0.00799924,0.08,0.0,0.0,0.0,-1.0
73948000,73948000,0.013274841,0.026853858,-0.009474863,0.08,0.0,0.0,0.0,-1.0
74044000,74044000,0.012902442,0.032991275,-0.00803092,0.08,0.0,0.0,0.0,-1.0
74144000,74144000,0.01111171,0.032374054,-0.009692357,0.08,0.0,0.0,0.0,-1.0
74248000,74248000,0.018091738,0.033245318,-0.0069738477,0.08,0.0,0.0,0.0,-1.0
74344000,74344000,0.021474525,0.041029178,-0.008108052,0.08,0.0,0.0,0.0,-1.0
74444000,74444000,0.011930514,0.029966999,-0.0077255056,0.08,0.0,0.0,0.0,-1.0
74544000,74544000,0.016598359,0.02979375,-0.008145535,0.08,0.0,0.0,0.0,-1.0
74648000,74648000,0.019406274,0.02980802,-0.010257686,0.08,0.0,0.0,0.0,-1.0
74744000,74744000,0.023264255,0.029333798,-0.0095646065,0.08,0.0,0.0,0.0,-1.0
74848000,74848000,0.002956043,0.02315851,-0.009154299,0.08,0.0,0.0,0.0,-1.0
74944000,74944000,0.016113985,0.03654118,-0.009543973,0.08,0.0,0.0,0.0,-1.0
75044000,75044000,0.018303324,0.036173545,-0.008409548,0.08,0.0,0.0,0.0,-1.0
75148000,75148000,0.015538246,0.025907235,-0.009528858,0.08,0.0,0.0,0.0,-1.0
75244000,75244000,0.024817009,0.036037266,-0.008950942,0.08,0.0,0.0,0.0,-1.0
75348000,75348000,0.017534882,0.0265454,-0.007771297,0.08,0.0,0.0,0.0,-1.0
75444000,75444000,0.012871955,0.029719114,-0.009298006,0.08,0.0,0.0,0.0,-1.0
75548000,75548000,0.020900358,0.0313792,-0.007362302,0.08,0.0,0.0,0.0,-1.0
75644000,75644000,0.031112824,0.029615952,-0.009756518,0.08,0.0,0.0,0.0,-1.0
75748000,75748000,0.014413355,0.03459737,-0.008690711,0.08,0.0,0.0,0.0,-1.0
75844000,75844000,0.017336179,0.03676822,-0.00864161,0.08,0.0,0.0,0.0,-1.0
75948000,75948000,0.007357005,0.034418136,-0.010822919,0.08,0.0,0.0,0.0,-1.0
76048000,76048000,0.025294436,0.03522138,-0.009829858,0.08,0.0,0.0,0.0,-1.0
76144000,76144000,0.0031904113,0.033921216,-0.00702622,0.08,0.0,0.0,0.0,-1.0
76244000,76244000,0.01675295,0.027149389,-0.009072167,0.08,0.0,0.0,0.0,-1.0
76344000,76344000,0.015810963,0.02630035,-0.009763378,0.08,0.0,0.0,0.0,-1.0
76444000,76444000,0.025491439,0.0364828,-0.009143411,0.08,0.0,0.0,0.0,-1.0
76548000,76548000,0.011388495,0.0251689,-0.009605535,0.08,0.0,0.0,0.0,-1.0
76644000,76644000,0.015471308,0.0339229,-0.005140645,0.08,0.0,0.0,0.0,-1.0
76744000,76744000,0.01709068,0.03499876,-0.008901606,0.08,0.0,0.0,0.0,-1.0
76844000,76844000,0.01597176,0.036480427,-0.007032715,0.08,0.0,0.0,0.0,-1.0
76944000,76944000,0.008961454,0.036389805,-0.009483355,0.08,0.0,0.0,0.0,-1.0
77044000,77044000,0.015967062,0.03437887,-0.010013206,0.08,0.0,0.0,0.0,-1.0
77144000,77144000,0.021464676,0.022587858,-0.009299039,0.08,0.0,0.0,0.0,-1.0
77244000,77244000,0.027839787,0.03351249,-0.009677211,0.08,0.0,0.0,0.0,-1.0
77344000,77344000,0.018630492,0.015573475,-0.0077140713,0.08,0.0,0.0,0.0,-1.0
77444000,77444000,0.019043786,0.029581338,-0.010498973,0.08,0.0,0.0,0.0,-1.0
77548000,77548000,0.019824741,0.029003918,-0.007864391,0.08,0.0,0.0,0.0,-1.0
77648000,77648000,0.016448384,0.024981923,-0.009550597,0.08,0.0,0.0,0.0,-1.0
77744000,77744000,0.01411335,0.025370102,-0.007900259,0.08,0.0,0.0,0.0,-1.0
77844000,77844000,0.017520932,0.026596736,-0.009691436,0.08,0.0,0.0,0.0,-1.0
77944000,77944000,0.020200169,0.032585815,-0.011238294,0.08,0.0,0.0,0.0,-1.0
78048000,78048000,0.022134395,0.032862946,-0.008780319,0.08,0.0,0.0,0.0,-1.0
78144000,78144000,0.019415194,0.033634666,-0.007658777,0.08,0.0,0.0,0.0,-1.0
78244000,78244000,0.015294819,0.021465566,-0.0106550185,0.08,0.0,0.0,0.0,-1.0
78348000,78348000,0.00961218,0.03687972,-0.009145721,0.08,0.0,0.0,0.0,-1.0
78448000,78448000,0.030084096,0.023157917,-0.0073251673,0.08,0.0,0.0,0.0,-1.0
78544000,78544000,0.012328417,0.027724303,-0.0097718565,0.08,0.0,0.0,0.0,-1.0
78644000,78644000,0.034332518,0.024944428,-0.009547166,0.08,0.0,0.0,0.0,-1.0
78748000,78748000,0.020554774,0.03303175,-0.009639921,0.08,0.0,0.0,0.0,-1.0
78844000,78844000,0.009586481,0.019581951,-0.009289463,0.08,0.0,0.0,0.0,-1.0
78944000,78944000,0.01464794,0.034558255,-0.0101384185,0.08,0.0,0.0,0.0,-1.0
79048000,79048000,0.014998433,0.031186504,-0.011277854,0.08,0.0,0.0,0.0,-1.0
79144000,79144000,0.015568346,0.034441117,-0.009200091,0.08,0.0,0.0,0.0,-1.0
79244000,79244000,0.024480604,0.026098019,-0.008307064,0.08,0.0,0.0,0.0,-1.0
79348000,79348000,0.021135474,0.04184655,-0.009692034,0.08,0.0,0.0,0.0,-1.0
79444000,79444000,0.021342324,0.03549527,-0.009757934,0.08,0.0,0.0,0.0,-1.0
79544000,79544000,0.0199344,0.035030052,-0.010518761,0.08,0.0,0.0,0.0,-1.0
79644000,79644000,0.01128068,0.030328983,-0.009539745,0.08,0.0,0.0,0.0,-1.0
79744000,79744000,0.0293354,0.031540394,-0.009521144,0.08,0.0,0.0,0.0,-1.0
79844000,79844000,0.032810036,0.042794075,-0.01057292,0.08,0.0,0.0,0.0,-1.0
79944000,79944000,0.004419108,0.036867954,-0.009416213,0.08,0.0,0.0,0.0,-1.0
