timestamp,x,y,z,yaw,yawspeed,vx,vy,vz,acc_x,acc_y,acc_z,jerk_x,jerk_y,jerk_z,thrust[0],thrust[1],thrust[2]
142720000,-0.0468255,-0.0041104583,-0.0181894,0.41414583,nan,0.0027359147,0.0003744193,-0.68923175,-0.120046474,-0.08004652,-3.8387985,0.0,10.0,0.0,nan,nan,nan
142932000,-0.046454463,-0.0036827887,-0.23940606,0.41414583,nan,0.00035339966,0.0007439656,-1.3265334,-0.11959122,0.119243585,-1.9601419,0.0,10.0,10.0,nan,nan,nan
143128000,-0.04609516,-0.003278432,-0.5238356,0.41414583,nan,0.00019399589,0.0009783802,-1.5186403,-0.07797254,0.11708638,-0.0045684353,10.0,0.0,10.0,nan,nan,nan
143320000,-0.045651365,-0.0029683535,-0.8111846,0.41414583,nan,0.0009237204,0.00021936372,-1.4993641,-0.07477236,0.11285625,-0.06596982,10.0,0.0,4.1124687,nan,nan,nan
143532000,-0.045440163,-0.0027706176,-1.126327,0.41414583,nan,0.00073073065,-0.0018695138,-1.4992973,-0.042893097,0.08498432,-0.07579014,0.0,10.0,-2.0000002,nan,nan,nan
143728000,-0.045240026,-0.0024575358,-1.4184264,0.41414583,nan,-0.00031464925,0.00069018366,-1.5015771,-0.009306427,-0.09294821,-0.041964177,0.0,0.0,10.0,nan,nan,nan
143920000,-0.044947445,-0.0022679698,-1.7023154,0.41414583,nan,0.0002884108,0.0029472334,-1.5009241,-0.054325294,0.015566476,0.021929834,0.0,0.0,0.0,nan,nan,nan
144132000,-0.044701826,-0.002076694,-2.0155873,0.41414583,nan,0.00062566483,0.0025199493,-1.4980259,-0.012589745,0.002222944,0.041844953,0.0,-2.0000002,-2.0000002,nan,nan,nan
144328000,-0.0444604,-0.0019038166,-2.3041232,0.41414583,nan,0.0007829536,0.0015103464,-1.4992161,0.030467112,-0.0014951788,0.08342851,0.0,0.0,0.0,nan,nan,nan
144520000,-0.044206902,-0.0014532002,-2.5882556,0.41414583,nan,0.0020353198,0.0017904732,-1.5005289,0.03176578,-0.08591427,0.049966708,0.0,0.0,-3.0955143,nan,nan,nan
144732000,-0.04384918,-0.0012276531,-2.8970509,0.41414583,nan,0.0011568884,0.00078653486,-1.4986522,-0.0054957084,0.03182023,-0.016514149,0.0,2.0000002,-2.0000002,nan,nan,nan
144928000,-0.043539017,-0.00089689164,-3.1851711,0.41414583,nan,0.0013625675,0.0024022157,-1.499087,0.023176678,0.04104454,-0.03937565,-1.4485425,0.0,2.4609785,nan,nan,nan
145120000,-0.04329108,-0.00053686666,-3.4732895,0.41414583,nan,0.0017407225,0.0025923213,-1.5001382,-0.029458664,-0.0071643703,-0.04440042,0.0,0.0,2.7750263,nan,nan,nan
145332000,-0.043037012,-0.00024891485,-3.7862914,0.41414583,nan,-0.00031366834,0.00021376382,-1.5001285,-0.02205721,0.0018023662,-0.0446003,2.0000002,2.0000002,-2.0000002,nan,nan,nan
145528000,-0.042890385,-1.4205152e-06,-4.076803,0.41414583,nan,-0.00018117338,0.0012179443,-1.4996185,0.016075835,0.0072683673,0.062649146,0.0,0.0,0.0,nan,nan,nan
145720000,-0.042699415,0.0002038943,-4.359689,0.41414583,nan,0.0013178141,0.0012867515,-1.4985018,0.06439294,0.0034565735,0.02656677,0.0,0.0,0.0,nan,nan,nan
145932000,-0.042414885,0.00044385574,-4.6708145,0.41414583,nan,0.0014954228,0.0022563408,-1.4981611,-0.039475445,-0.00046458468,0.023380306,-2.0000002,-2.0000002,-2.0000002,nan,nan,nan
146128000,-0.042286403,0.0006648156,-4.9596567,0.41414583,nan,-0.0001756344,0.0015827029,-1.4992355,0.005366046,-0.036263593,0.09509197,0.0,0.0,0.0,nan,nan,nan
146320000,-0.04226715,0.00077601755,-5.241572,0.41414583,nan,-0.000826594,0.00038536,-1.4572427,0.04776228,0.01511858,0.41854784,0.0,0.0,-10.0,nan,nan,nan
146532000,-0.04221329,0.000920296,-5.537457,0.41414583,nan,0.00033294427,0.0009930125,-1.3652555,0.0832956,0.0192414,0.45854238,2.0000002,0.0,2.0000002,nan,nan,nan
146728000,-0.04215961,0.0009908126,-5.791804,0.41414583,nan,0.0012361258,0.0009780988,-1.2808827,-0.074545324,0.021369873,0.42052597,4.6018376,0.0,-10.0,nan,nan,nan
146920000,-0.042134758,0.0011193206,-6.027033,0.41414583,nan,0.003124136,0.0013303908,-1.2069654,-0.007565774,-0.015500857,0.3425585,0.0,0.0,-10.0,nan,nan,nan
147132000,-0.04206422,0.0012307389,-6.272008,0.41414583,nan,0.0022748183,0.0014502112,-1.1310384,-0.0061088204,-0.012559548,0.3825621,-2.0000002,-2.0000002,2.0000002,nan,nan,nan
147328000,-0.042096026,0.0013191014,-6.4858584,0.41414583,nan,0.001829461,0.0006316249,-1.0676951,0.021177169,0.02427128,0.30462712,0.0,0.0,-10.0,nan,nan,nan
147520000,-0.042037774,0.0014121046,-6.683677,0.41414583,nan,0.0017938232,0.00091466494,-1.006136,0.010590732,-0.011666384,0.3045876,0.0,0.0,-10.0,nan,nan,nan
147732000,-0.04192152,0.0015020547,-6.886207,0.41414583,nan,-1.45472e-05,0.00022767618,-0.9459676,-0.017645217,-0.01073092,0.30261195,0.0,0.0,2.0000002,nan,nan,nan
147928000,-0.041892987,0.0014932663,-7.06098,0.41414583,nan,8.6029e-05,0.0001742207,-0.8921128,0.01445137,0.048650466,0.26449925,-0.89289093,-3.005913,-10.0,nan,nan,nan
148120000,-0.04187391,0.001616018,-7.2272353,0.41414583,nan,-0.00011218121,0.0007566212,-0.84276044,0.05404888,0.02292037,0.2262914,-3.3780553,0.0,-10.0,nan,nan,nan
148332000,-0.04176375,0.0016970489,-7.3971987,0.41414583,nan,0.0016511875,0.00037768696,-0.7916196,0.03078318,-0.020170627,0.2662716,-2.0000002,0.0,2.0000002,nan,nan,nan
148528000,-0.041667018,0.0017601869,-7.5447845,0.41414583,nan,0.00023547257,-0.0005024021,-0.7447656,0.006402865,-0.010874681,0.18774523,-0.39663568,0.0,-10.0,nan,nan,nan
148720000,-0.041568305,0.0018201532,-7.6810822,0.41414583,nan,-5.28661e-05,-0.00070829235,-0.7059163,0.01265236,0.029686853,0.1876867,0.0,0.0,-10.0,nan,nan,nan
148932000,-0.041478112,0.0019504278,-7.8246455,0.41414583,nan,0.0005802654,0.00051249703,-0.66257864,0.011701126,-0.035885345,0.22637972,0.0,-2.0000002,2.0000002,nan,nan,nan
149128000,-0.04138866,0.001954125,-7.94737,0.41414583,nan,-0.0005453614,2.7939925e-05,-0.6230765,-0.011163186,-0.026886567,0.18642351,0.0,1.6804105,-10.0,nan,nan,nan
149320000,-0.041394684,0.0018973976,-8.061542,0.41414583,nan,-2.0236526e-05,-6.448146e-05,-0.5892228,0.02057167,0.039852243,0.15841934,-1.2768984,-2.4736576,-9.833202,nan,nan,nan
149532000,-0.041355193,0.0019458631,-8.180766,0.41414583,nan,0.0006114576,0.0008042186,-0.55182314,-0.029180795,-0.007754121,0.19955537,-2.0000002,-2.0000002,2.0000002,nan,nan,nan
149728000,-0.041308254,0.0020120603,-8.284943,0.41414583,nan,0.0009854595,0.0011720005,-0.521141,0.008708613,-0.039369658,0.1526979,0.0,2.4463031,-9.488153,nan,nan,nan
149920000,-0.041210335,0.0020131562,-8.380225,0.41414583,nan,0.00021335266,-8.430258e-05,-0.49180847,-0.049695186,-0.028075479,0.14558363,3.088806,1.7450322,-9.048755,nan,nan,nan
150132000,-0.041222084,0.0019334191,-8.480045,0.41414583,nan,-1.0040065e-05,0.0006099775,-0.46206743,0.039849646,0.040081434,0.13696799,2.0000002,0.0,2.0000002,nan,nan,nan
150328000,-0.04116235,0.0019518952,-8.566806,0.41414583,nan,0.0013087192,0.0007917472,-0.43555522,0.0036192164,0.032954354,0.12911883,0.0,0.0,-8.024999,nan,nan,nan
150520000,-0.041127186,0.0020029098,-8.646733,0.41414583,nan,0.0005843415,0.000310333,-0.411621,0.0020748824,-0.034822922,0.09953965,0.0,2.1638758,-6.185335,nan,nan,nan
150732000,-0.041089375,0.0020425036,-8.729927,0.41414583,nan,-0.0013222359,-0.000542619,-0.38570392,-0.02932987,0.012759147,0.11853479,2.0000002,2.0000002,0.0,nan,nan,nan
150928000,-0.040986136,0.0020550324,-8.802345,0.41414583,nan,-0.0007280742,-0.0004556683,-0.36398447,-0.060755208,0.014281894,0.107336015,0.0,-0.8926184,-10.0,nan,nan,nan
151120000,-0.041050073,0.0020461015,-8.869654,0.41414583,nan,-0.0012535044,0.00014947279,-0.3434773,-0.023490075,0.010264223,0.10412653,0.0,0.0,-10.0,nan,nan,nan
151332000,-0.04104632,0.0020555812,-8.939371,0.41414583,nan,-0.00010884646,0.00018979481,-0.32264248,0.013762524,-0.036973007,0.10412653,0.0,-2.0000002,0.0,nan,nan,nan
151528000,-0.041031335,0.0020219935,-9.000065,0.41414583,nan,4.5650682e-05,-0.00015149849,-0.30436352,-0.022174796,0.007014301,0.10412067,1.3752902,-0.43502992,0.0,nan,nan,nan
151720000,-0.04100996,0.0020300918,-9.05596,0.41414583,nan,-0.0013704994,-0.001781521,-0.28753296,-0.0070789196,-0.024294268,0.0839528,0.0,0.0,0.0,nan,nan,nan
151932000,-0.04104986,0.0021189637,-9.1138935,0.41414583,nan,-0.0006652149,-0.0022356613,-0.2699839,-0.009972766,-0.055320133,0.043952797,0.0,2.0000002,-2.0000002,nan,nan,nan
152128000,-0.041112788,0.0019040835,-9.1649275,0.41414583,nan,-0.0005436602,-1.4901743e-06,-0.25460425,0.020547286,0.07802939,0.06858164,0.0,0.0,0.0,nan,nan,nan
152320000,-0.041099668,0.0019379058,-9.211625,0.41414583,nan,-0.00030575332,0.0007543084,-0.2402843,0.020608585,0.044634998,0.06858398,-1.2880367,0.0,-10.0,nan,nan,nan
152532000,-0.04110008,0.0020124034,-9.260057,0.41370934,nan,0.0006613048,0.0011372053,-0.22638759,-0.02592143,-0.031071551,0.07000339,-2.0000002,-2.0000002,2.0000002,nan,nan,nan
152728000,-0.04210068,-0.0107381735,-9.300206,0.25977135,nan,-0.011395252,-0.19528495,-0.1947527,-0.06445385,-1.9822736,0.08096437,0.0,-10.0,0.0,nan,nan,nan
152920000,-0.04534077,-0.090984374,-9.335524,0.10897483,nan,-0.023399249,-0.6973909,-0.18390648,-0.06445385,-2.9628813,0.03943859,0.0,0.0,0.0,nan,nan,nan
153132000,-0.051171016,-0.28479576,-9.370627,-0.057529584,nan,-0.03604288,-1.2786064,-0.17320706,-0.06445385,-2.9628813,0.111916825,0.0,0.0,2.0000002,nan,nan,nan
153328000,-0.05813448,-0.5413643,-9.399044,-0.21146767,nan,-0.04686932,-1.7762878,-0.16501121,-0.06445385,-2.9628813,0.008678034,0.0,0.0,0.0,nan,nan,nan
153520000,-0.06601673,-0.84611964,-9.423581,-0.3622641,nan,-0.05668171,-2.227354,-0.1575313,-0.06445385,-2.9628813,0.056894805,0.0,0.0,-3.3533726,nan,nan,nan
153732000,-0.075708285,-1.2322568,-9.44771,-0.5287685,nan,-0.066799216,-2.6924455,-0.15024124,-0.06445385,-2.9628813,0.07381946,0.0,0.0,2.0000002,nan,nan,nan
153928000,-0.08556654,-1.6331011,-9.468052,-0.6827065,nan,-0.075716175,-3.1023498,-0.1440773,-0.06445385,-2.9628813,0.013719346,0.0,0.0,0.0,nan,nan,nan
154120000,-0.0962962,-2.0706995,-9.486785,-0.8335029,nan,-0.08683172,-3.4953797,-0.13843697,-0.092228904,-2.9628813,0.03836614,0.0,0.0,-2.21822,nan,nan,nan
154332000,-0.10996774,-2.6130388,-9.506564,-1.0000073,nan,-0.10030736,-3.928289,-0.13235883,-0.092228904,-2.9628813,0.033045396,0.0,0.0,0.0,nan,nan,nan
154528000,-0.12449497,-3.175934,-9.524239,-1.1539458,nan,-0.11287705,-4.3320937,-0.12691031,-0.092228904,-2.9628813,0.042121697,0.0,0.0,0.0,nan,nan,nan
154720000,-0.140737,-3.7903924,-9.541122,-1.3047427,nan,-0.1275947,-4.719191,-0.12169159,-0.1205822,-2.4247422,0.053508386,0.0,10.0,0.0,nan,nan,nan
154932000,-0.16171025,-4.5358815,-9.559387,-1.4712476,nan,-0.1467993,-4.9733186,-0.11649267,-0.14991397,-0.8926482,0.041499574,0.0,10.0,0.0,nan,nan,nan
155128000,-0.18473972,-5.26895,-9.576075,-1.601747,nan,-0.16293874,-5.0022054,-0.11160653,0.062252797,0.26922,0.025837563,0.0,0.0,-1.5171314,nan,nan,nan
155320000,-0.20866403,-6.0171604,-9.592386,-1.6017536,nan,-0.16000548,-4.999456,-0.10679953,-0.032115262,0.022619933,0.011260238,0.0,0.0,-0.6660201,nan,nan,nan
155532000,-0.2360919,-6.873593,-9.610187,-1.6017113,nan,-0.16041076,-4.999289,-0.10075697,-0.032154147,-0.064284906,0.020555805,0.0,2.0000002,-2.0000002,nan,nan,nan
155728000,-0.26202035,-7.684478,-9.626204,-1.6015701,nan,-0.15895453,-4.999521,-0.09703197,-0.009596517,-0.05963404,0.014106613,0.0,0.0,0.0,nan,nan,nan
155920000,-0.28790352,-8.4947815,-9.641462,-1.601319,nan,-0.159942,-4.998921,-0.09163237,0.026152158,0.05156674,0.031910237,0.0,0.0,0.0,nan,nan,nan
156132000,-0.31685805,-9.402636,-9.657687,-1.6009655,nan,-0.15921493,-4.9976645,-0.0867561,0.064387545,0.014074191,0.032443225,2.0000002,0.0,0.0,nan,nan,nan
156328000,-0.34364182,-10.245691,-9.6719675,-1.6005166,nan,-0.1582516,-4.9969,-0.082430296,-0.011702407,0.0071364157,0.005265802,0.0,0.0,0.0,nan,nan,nan
156520000,-0.36981994,-11.070436,-9.685289,-1.5999961,nan,-0.15891303,-4.997847,-0.07995098,-0.04483294,-0.02191395,0.032318346,0.0,0.0,0.0,nan,nan,nan
156732000,-0.39844942,-11.972859,-9.699097,-1.5993938,nan,-0.15870768,-4.9976883,-0.07511097,0.02014742,0.015962843,0.062919036,2.0000002,0.0,2.0000002,nan,nan,nan
156928000,-0.4243397,-12.790851,-9.710943,-1.5987597,nan,-0.15777989,-4.9973598,-0.07139165,0.047357153,0.011427633,0.04989638,0.0,0.0,-2.9841106,nan,nan,nan
157120000,-0.44899103,-13.571776,-9.7217245,-1.5981265,nan,-0.15756854,-4.997269,-0.06821492,0.013540582,0.046696316,0.047648825,0.0,0.0,-2.8363853,nan,nan,nan
157332000,-0.47733068,-14.47101,-9.733638,-1.597508,nan,-0.15757857,-4.9976435,-0.06490194,-0.050364677,-0.014529197,0.08679933,-2.0000002,0.0,2.0000002,nan,nan,nan
157528000,-0.50376815,-15.309164,-9.744069,-1.5969425,nan,-0.15772744,-4.9977164,-0.059777938,-0.0053739636,0.04356507,0.04306028,0.0,-2.5596404,0.0,nan,nan,nan
157720000,-0.53003466,-16.144455,-9.75414,-1.5964438,nan,-0.1576467,-4.9972367,-0.05782708,-0.008984253,0.06576701,0.08807649,0.0,0.0,-5.145731,nan,nan,nan
157912000,-0.555993,-16.970222,-9.763526,-1.5960209,nan,-0.15647478,-4.9985127,-0.056066964,-0.017164,0.05955285,0.065122694,0.0,0.0,-3.787503,nan,nan,nan
158128000,-0.5852451,-17.9015,-9.773605,-1.5956801,nan,-0.1559205,-4.9995537,-0.054094512,-0.024020927,0.031156061,0.06430001,0.0,0.0,0.0,nan,nan,nan
158320000,-0.6108802,-18.718378,-9.781941,-1.5956374,nan,-0.15551266,-4.9986515,-0.049999837,0.01547136,0.003770357,0.04951999,0.0,0.0,-2.8703306,nan,nan,nan
158532000,-0.638549,-19.602146,-9.7903805,-1.5954833,nan,-0.15508245,-4.997801,-0.04660311,-0.013241354,0.006935952,0.12256246,-2.0000002,0.0,0.0,nan,nan,nan
158728000,-0.66437703,-20.428402,-9.797863,-1.5953112,nan,-0.15677406,-4.997678,-0.046030086,-0.032347977,0.007544264,0.04476597,0.0,-0.43615058,0.0,nan,nan,nan
158920000,-0.6897595,-21.238918,-9.804925,-1.5951926,nan,-0.15623574,-4.9979577,-0.042339716,0.047946457,-0.01775149,0.064365864,0.0,0.0,0.0,nan,nan,nan
159132000,-0.7171549,-22.115965,-9.812151,-1.5951316,nan,-0.15642689,-4.998072,-0.038830772,-0.015367141,0.0122538805,0.008966725,0.0,2.0000002,-2.0000002,nan,nan,nan
159328000,-0.74292046,-22.939825,-9.818616,-1.5951378,nan,-0.15708627,-4.997682,-0.037862025,0.027485995,0.025252009,-0.017860493,0.0,0.0,0.0,nan,nan,nan
159520000,-0.76830125,-23.7522,-9.824709,-1.5952,nan,-0.1576715,-4.9966908,-0.037047014,0.015410462,0.025035618,-0.057577968,0.0,0.0,0.0,nan,nan,nan
159732000,-0.7968821,-24.66772,-9.831271,-1.5953261,nan,-0.15593731,-4.9976172,-0.034961123,0.017243855,-0.040886477,-0.00039981678,0.0,-2.0000002,2.0000002,nan,nan,nan
159928000,-0.82290536,-25.501793,-9.836887,-1.5955031,nan,-0.15485527,-4.9975557,-0.033620603,0.04732064,0.01986448,0.035994627,0.0,-1.1552892,-2.093395,nan,nan,nan
160120000,-0.84866947,-26.327742,-9.842184,-1.5957122,nan,-0.15561226,-4.9974923,-0.031460118,0.040880997,0.057329495,0.0,-2.3847008,-3.3441865,0.0,nan,nan,nan
160332000,-0.876882,-27.232811,-9.847701,-1.595975,nan,-0.15513925,-4.9966807,-0.02938393,-0.0033890232,0.0015709698,0.009808384,-2.0000002,-2.0000002,-1.8224742,nan,nan,nan
160528000,-0.90347916,-28.08801,-9.852676,-1.5962679,nan,-0.15568636,-4.9974017,-0.028665908,-0.002886096,-0.036924616,0.028649215,0.0,2.1701274,-1.683767,nan,nan,nan
160720000,-0.92981553,-28.935799,-9.857359,-1.5965438,nan,-0.15463142,-4.9976573,-0.028204037,-0.0016818605,0.0084859915,0.04491295,0.0,0.0,0.0,nan,nan,nan
160912000,-0.95636153,-29.789442,-9.861906,-1.5968138,nan,-0.15613441,-4.997047,-0.027106604,-0.03461229,0.057853777,0.046050537,0.0,0.0,0.0,nan,nan,nan
161128000,-0.98535,-30.723356,-9.866569,-1.5971258,nan,-0.15558568,-4.9971123,-0.026052581,-0.0342472,0.086861655,0.03164725,0.0,0.0,0.0,nan,nan,nan
161320000,-1.0117602,-31.572124,-9.8704405,-1.5974123,nan,-0.1550672,-4.9991436,-0.024647452,0.004829867,0.03960775,-0.051417757,0.0,0.0,0.0,nan,nan,nan
161532000,-1.0409298,-32.51127,-9.874765,-1.5977149,nan,-0.15437733,-5.000405,-0.02301429,0.002326332,-0.005725693,-0.02979654,0.0,2.0000002,2.0000002,nan,nan,nan
161728000,-1.0682828,-33.39323,-9.878535,-1.5979978,nan,-0.1549422,-4.999079,-0.021098655,0.041928235,-0.04367174,0.00905421,0.0,10.0,0.0,nan,nan,nan
161920000,-1.0943955,-34.235226,-9.881881,-1.5982572,nan,-0.15432662,-4.9979954,-0.018071743,0.039577954,-0.011658363,0.02950766,0.0,0.0,0.0,nan,nan,nan
162132000,-1.1238959,-35.18738,-9.885362,-1.5985264,nan,-0.153072,-4.9979863,-0.017434385,-0.0020726174,-0.013005121,-0.043680634,-2.0000002,0.0,-2.0000002,nan,nan,nan
162328000,-1.1512034,-36.066082,-9.888587,-1.5987828,nan,-0.15368566,-4.9986825,-0.016205018,0.035689417,-0.011737928,-0.014190108,0.0,0.0,0.0,nan,nan,nan
162520000,-1.1778952,-36.924877,-9.891477,-1.5990303,nan,-0.15476179,-4.9978743,-0.016546354,0.06535993,0.021144498,0.0019416093,-3.970825,-1.284596,-0.11795899,nan,nan,nan
162732000,-1.2075397,-37.883152,-9.894516,-1.599276,nan,-0.15485516,-4.997462,-0.01569455,-0.012504948,-0.0123575935,-0.0026226956,0.0,0.0,1.3151715,nan,nan,nan
162928000,-1.2350204,-38.76969,-9.897179,-1.5994864,nan,-0.1546517,-4.998368,-0.013415112,0.018451966,0.024178296,-0.008826662,0.0,0.0,0.0,nan,nan,nan
163120000,-1.2621883,-39.64718,-9.899829,-1.5997541,nan,-0.15442349,-4.997006,-0.013542726,0.014675447,0.06412982,-0.07172638,0.0,0.0,4.3872046,nan,nan,nan
163312000,-1.2895337,-40.531178,-9.902212,-1.5999464,nan,-0.15418059,-4.997786,-0.013792494,0.012542559,0.059528563,-0.07132489,0.0,-3.63777,0.0,nan,nan,nan
163528000,-1.3201743,-41.52174,-9.904792,-1.6001002,nan,-0.15410241,-4.9990234,-0.012969404,-0.018769147,0.04836942,-0.07581784,1.1436228,-2.9471967,0.0,nan,nan,nan
163720000,-1.3471689,-42.394325,-9.907067,-1.6002136,nan,-0.15421078,-4.998674,-0.012884753,-0.01822171,0.03293458,0.0006595552,1.1077839,-2.0022488,0.0,nan,nan,nan
163932000,-1.3767755,-43.35199,-9.909314,-1.6003436,nan,-0.15531978,-4.9968762,-0.012891353,-0.045234453,0.018085398,0.037858605,0.0,-2.0000002,2.0000002,nan,nan,nan
164128000,-1.4041091,-44.23382,-9.91123,-1.6004503,nan,-0.15464148,-4.9978805,-0.012787546,0.018564079,-0.015403753,-0.002944935,-1.1265596,0.0,0.0,nan,nan,nan
164320000,-1.4308466,-45.098686,-9.912961,-1.6005493,nan,-0.15438156,-4.99746,-0.011037054,0.0018848702,0.0015947539,-0.027811635,0.0,0.0,0.0,nan,nan,nan
164532000,-1.4604981,-46.056858,-9.914785,-1.6006683,nan,-0.15534426,-4.99664,-0.01040714,0.03156772,-0.0051449053,0.013373587,2.0000002,-2.0000002,2.0000002,nan,nan,nan
164728000,-1.4880047,-46.945866,-9.9164915,-1.6007847,nan,-0.15462661,-4.9981146,-0.010031652,0.028332891,-0.03390054,0.03854577,-1.7229471,0.0,-2.344001,nan,nan,nan
164920000,-1.5151106,-47.822395,-9.917978,-1.6009067,nan,-0.15306182,-4.998153,-0.008529319,0.029968191,0.013821941,-0.0076024323,0.0,0.0,0.0,nan,nan,nan
165112000,-1.5423272,-48.704067,-9.919429,-1.6010472,nan,-0.1534514,-4.9979753,-0.007950101,0.004893083,0.01480072,0.0018653162,0.0,-0.9021763,0.0,nan,nan,nan
165328000,-1.5730791,-49.7011,-9.920984,-1.601217,nan,-0.15267678,-4.9981327,-0.007715704,-0.035148922,0.020413162,0.0001328243,0.0,0.0,0.0,nan,nan,nan
165524000,-1.601113,-50.605606,-9.922314,-1.6013546,nan,-0.15347132,-4.9977236,-0.007432458,0.0058155544,0.011077082,-0.03493666,0.0,-0.6752949,0.0,nan,nan,nan
165716000,-1.6285385,-51.493786,-9.923557,-1.6014781,nan,-0.15212025,-4.9987426,-0.0066326964,0.0026685484,0.015902195,0.0022806376,0.0,0.0,0.0,nan,nan,nan
165928000,-1.6591086,-52.48122,-9.9248495,-1.6016244,nan,-0.15263095,-4.998665,-0.006701421,0.026157498,-0.020019662,-0.0021340698,-2.0000002,2.0000002,1.7377632,nan,nan,nan
166124000,-1.6875334,-53.398617,-9.926001,-1.6017299,nan,-0.15437397,-4.9970264,-0.0069245324,0.042819604,-0.02125804,-0.005775761,-2.620746,1.3010843,0.0,nan,nan,nan
166316000,-1.7153755,-54.302204,-9.927094,-1.6018327,nan,-0.15431473,-4.99736,-0.008303565,0.007404051,-0.0208736,-0.002592858,-0.45364407,1.2789195,0.0,nan,nan,nan
166528000,-1.7462596,-55.303898,-9.928302,-1.6019579,nan,-0.15342191,-4.997127,-0.0038448563,-0.024950203,0.014991374,0.03167411,-2.0000002,0.0,-2.0000002,nan,nan,nan
166724000,-1.7749215,-56.231434,-9.929217,-1.6020788,nan,-0.15494403,-4.99709,-0.0039923354,-0.06618663,0.015138619,0.005696606,0.0,0.0,0.0,nan,nan,nan
166916000,-1.8030157,-57.14188,-9.930111,-1.6022254,nan,-0.15411915,-4.9972816,-0.002625728,-0.061243795,-0.020566517,0.0025125593,3.75845,1.2621398,0.0,nan,nan,nan
167128000,-1.8341806,-58.148582,-9.930962,-1.6023483,nan,-0.15463412,-4.9978046,-0.0053025223,-0.04814904,-0.062031727,-0.010786615,0.0,-2.0000002,2.0000002,nan,nan,nan
167324000,-1.8629767,-59.079777,-9.931793,-1.6024661,nan,-0.15468375,-4.999233,-0.005184689,-0.010099421,-0.027405497,0.032365076,0.0,0.0,0.0,nan,nan,nan
167516000,-1.8911569,-59.992966,-9.932577,-1.6025794,nan,-0.15456778,-4.998185,-0.005496425,-0.012491817,-0.022651557,0.0405644,0.0,0.0,0.0,nan,nan,nan
167728000,-1.9223267,-61.00196,-9.933346,-1.6027334,nan,-0.15360054,-4.9964557,-0.0039679864,0.01388738,0.014188394,-0.0062861755,0.0,-2.0000002,0.0,nan,nan,nan
167924000,-1.9510336,-61.933937,-9.934006,-1.6028788,nan,-0.15431231,-4.9977927,-0.002068883,-0.049935214,-0.021134656,-0.012231696,3.0705245,0.0,0.0,nan,nan,nan
168116000,-1.9791749,-62.846836,-9.934757,-1.6030194,nan,-0.15527497,-4.997757,-0.0016019985,-0.0064281,0.0149586545,0.022372175,0.0,-0.9201058,0.0,nan,nan,nan
168328000,-2.0101967,-63.85312,-9.935503,-1.6031232,nan,-0.15396254,-4.9975,-0.002405936,0.02855237,-0.025271432,-0.09471628,0.0,-2.0000002,-10.0,nan,nan,nan
168524000,-2.0387118,-64.77749,-9.936043,-1.6031975,nan,-0.15378784,-4.999067,-0.0034983335,0.02456396,-0.009745643,-0.07502268,0.0,0.0,0.0,nan,nan,nan
168716000,-2.066506,-65.6776,-9.936691,-1.6032643,nan,-0.15404062,-4.998547,-0.003705109,0.023530167,-0.010888662,-0.013455931,0.0,0.0,0.0,nan,nan,nan
168928000,-2.097022,-66.666565,-9.937239,-1.6033579,nan,-0.15444423,-4.997763,-0.0024455993,0.039087024,-0.00066740904,0.06461046,2.0000002,0.0,2.0000002,nan,nan,nan
169124000,-2.125149,-67.57791,-9.937774,-1.603458,nan,-0.15431975,-4.9975224,-0.0030643207,-0.0051203035,-0.031082354,0.05987149,0.0,1.9012839,-3.6622934,nan,nan,nan
169316000,-2.1527283,-68.471535,-9.938249,-1.6035411,nan,-0.15356362,-4.9981613,-0.004505308,-0.0051279776,-0.0020488985,0.032109044,0.0,0.0,0.0,nan,nan,nan
169528000,-2.1832464,-69.46052,-9.938726,-1.603627,nan,-0.15422918,-4.9969497,-0.00061449216,0.004118522,0.03212708,-0.0077395886,0.0,0.0,-2.0000002,nan,nan,nan
169724000,-2.2115176,-70.37664,-9.93918,-1.6037205,nan,-0.15500472,-4.997366,-0.0013500069,0.009682106,-0.04244716,-0.013365224,0.0,0.0,0.0,nan,nan,nan
169916000,-2.2393384,-71.27666,-9.939555,-1.6037884,nan,-0.15523271,-4.9971995,-0.0025969064,0.045423366,-0.015880762,0.0016436614,0.0,0.0,0.0,nan,nan,nan
170128000,-2.2699199,-72.27348,-9.9399805,-1.603829,nan,-0.15321259,-4.9978585,-0.0020458603,-0.1107846,-0.017353494,0.039596453,-10.0,0.0,2.0000002,nan,nan,nan
170324000,-2.2984664,-73.19701,-9.940336,-1.6038789,nan,-0.1536525,-4.998152,-0.0017551245,-0.04302162,0.024988363,0.03217243,2.6463797,-1.5371038,-1.9790158,nan,nan,nan
170516000,-2.326521,-74.108475,-9.9406595,-1.6039302,nan,-0.15430522,-4.9975047,-0.0015450964,-0.03387429,0.019174289,0.03390751,2.085073,0.0,-2.087118,nan,nan,nan
170728000,-2.3580935,-75.13069,-9.940894,-1.6039898,nan,-0.15387681,-4.9978595,-0.0018088592,-0.0030362122,0.01841146,-0.080416456,-2.0000002,2.0000002,-2.0000002,nan,nan,nan
170924000,-2.3871975,-76.07701,-9.941241,-1.6040561,nan,-0.15478279,-4.997724,-0.0007582742,-0.08914565,-0.04720047,-0.04606772,0.0,2.9047787,2.8350675,nan,nan,nan
171116000,-2.4161375,-77.009964,-9.941496,-1.6041223,nan,-0.15623885,-4.996857,-0.002359134,-0.116856806,-0.019804973,0.021509755,0.0,0.0,0.0,nan,nan,nan
171328000,-2.4477324,-78.03719,-9.941714,-1.6041825,nan,-0.15337698,-4.9978943,-0.0011873915,0.06875842,0.022096904,-0.06404743,0.0,2.0000002,-2.0000002,nan,nan,nan
171524000,-2.4771934,-78.994354,-9.941945,-1.6042482,nan,-0.15398203,-4.9972587,-0.0025322873,0.04544848,0.062084686,-0.0062175766,0.0,0.0,0.0,nan,nan,nan
171716000,-2.505992,-79.92705,-9.942176,-1.6043181,nan,-0.15430993,-4.9957824,-0.0032775581,0.004430954,0.03698496,0.00020159781,-0.27266833,0.0,0.0,nan,nan,nan
171928000,-2.5380404,-80.965294,-9.942431,-1.6044044,nan,-0.15403286,-4.996624,-0.0013704378,0.006668072,0.03746428,-0.047456324,0.0,-2.0000002,-2.0000002,nan,nan,nan
172124000,-2.567738,-81.92784,-9.942627,-1.6044962,nan,-0.15385763,-4.9963965,-0.0031786645,0.012908742,0.027597714,-0.04168688,0.0,0.0,0.0,nan,nan,nan
172316000,-2.5968301,-82.871414,-9.942856,-1.6045895,nan,-0.15347433,-4.9957376,-0.001818952,0.014597355,-0.011443429,-0.08579205,0.0,0.0,0.0,nan,nan,nan
172528000,-2.6290092,-83.914925,-9.943062,-1.6047175,nan,-0.15340754,-4.995668,-0.0023891733,-0.021130743,-0.01832398,0.023295842,-2.0000002,-2.0000002,2.0000002,nan,nan,nan
172724000,-2.6588078,-84.88277,-9.943226,-1.6048342,nan,-0.15397844,-4.9975543,-0.0014074068,-0.049952034,-0.043496776,-0.032517906,3.072277,2.6752496,0.0,nan,nan,nan
172916000,-2.6880572,-85.831955,-9.943427,-1.6049434,nan,-0.15354435,-4.997376,-0.0011714644,-0.045182664,-0.008393286,-0.040000003,2.778559,0.51615465,0.0,nan,nan,nan
173128000,-2.7204094,-86.881,-9.94358,-1.6050632,nan,-0.15580863,-4.997225,-0.00058824953,-0.018126767,-0.013023574,-0.040000003,2.0000002,-2.0000002,-2.0000002,nan,nan,nan
173324000,-2.7503111,-87.8487,-9.943684,-1.6051937,nan,-0.15504743,-4.9973807,-0.0005463339,0.023332246,-0.010589907,-0.03252755,0.0,0.0,2.0000002,nan,nan,nan
173516000,-2.7796097,-88.79764,-9.943824,-1.6052436,nan,-0.15448385,-4.9979916,-0.0007423353,-0.017384484,-0.0070035486,0.038607184,0.0,0.0,-2.373493,nan,nan,nan
173728000,-2.811111,-89.817024,-9.9439745,-1.6053283,nan,-0.1534286,-4.997928,-0.0003583756,0.049500562,0.029231858,0.001893783,0.0,2.0000002,-1.6085467,nan,nan,nan
173924000,-2.8401477,-90.755135,-9.944118,-1.6054621,nan,-0.15414733,-4.9977407,0.00013399604,0.07276437,0.02714939,0.06575719,-4.473581,-1.6691548,0.0,nan,nan,nan
174116000,-2.8683903,-91.66797,-9.944179,-1.6056677,nan,-0.15483752,-4.99827,-0.00011790519,0.05909567,-0.008515887,0.042165972,-3.632766,0.0,0.0,nan,nan,nan
174328000,-2.8997695,-92.685936,-9.944306,-1.6058868,nan,-0.15328829,-4.997538,0.0015816054,0.059027195,0.07281117,0.0016491115,0.0,2.0000002,-2.0000002,nan,nan,nan
174524000,-2.928776,-93.62823,-9.944317,-1.6060802,nan,-0.1541799,-4.998164,-0.00092178397,0.017488152,0.05922075,-0.06424586,-1.0745047,-3.6386335,0.0,nan,nan,nan
174716000,-2.9574459,-94.55794,-9.9443035,-1.6062291,nan,-0.15378962,-4.9971213,0.00027514095,0.059177972,0.07007994,-0.06238406,0.0,0.0,3.8327003,nan,nan,nan
174928000,-2.9892023,-95.58776,-9.94445,-1.6064124,nan,-0.15411343,-4.997221,-0.0028197397,0.028131405,0.05904841,-0.036048044,0.0,0.0,2.0000002,nan,nan,nan
175124000,-3.0186412,-96.542145,-9.944576,-1.6066633,nan,-0.15360399,-4.9961977,-0.0008145674,-0.0027059764,0.029901836,-0.08165803,0.0,0.0,0.0,nan,nan,nan
175316000,-3.0474465,-97.4777,-9.944806,-1.606892,nan,-0.15411061,-4.9969783,-0.0014563457,-0.0027059764,-0.07480545,-0.01234233,0.0,0.0,0.0,nan,nan,nan
175528000,-3.0795562,-98.51958,-9.944976,-1.6071619,nan,-0.15351184,-4.995634,-0.002805473,0.00036726147,-0.048068024,0.034815095,0.0,-2.0000002,2.0000002,nan,nan,nan
175724000,-3.1092257,-99.48004,-9.945059,-1.6073971,nan,-0.1542885,-4.997347,-0.003003037,0.006296385,0.08293666,-0.008382503,-0.38679838,-5.09495,0.0,nan,nan,nan
175916000,-3.1384907,-100.42842,-9.945278,-1.6076257,nan,-0.15453346,-4.998797,3.142489e-05,0.012566159,0.057272796,0.07029045,0.0,0.0,0.0,nan,nan,nan
176128000,-3.1708317,-101.47677,-9.945411,-1.6078961,nan,-0.15338437,-4.995749,0.00057022535,-0.03911512,-0.020097889,0.06474069,-2.0000002,-2.0000002,0.0,nan,nan,nan
176324000,-3.200668,-102.44387,-9.945481,-1.6081085,nan,-0.15519886,-4.9973717,-0.00087128184,0.0019784234,-0.014702156,0.06104338,0.0,0.0,-3.751377,nan,nan,nan
176516000,-3.2299185,-103.39263,-9.945464,-1.6083875,nan,-0.1539483,-4.9981303,0.00023791814,-0.030338885,-0.011959964,0.06606038,1.8649169,0.0,0.0,nan,nan,nan
176728000,-3.2622483,-104.44144,-9.945396,-1.6087686,nan,-0.15333521,-4.9970703,0.0018997102,-0.03221412,-0.011373978,-0.030362584,-2.0000002,0.0,-2.0000002,nan,nan,nan
176924000,-3.2921166,-105.408424,-9.945461,-1.6091198,nan,-0.15087733,-4.9671707,-0.00059079775,0.047785882,0.7821065,-0.023537902,0.0,10.0,0.0,nan,nan,nan
177116000,-3.3199222,-106.33026,-9.945495,-1.6095227,nan,-0.14179751,-4.7200413,0.00023304083,0.047785882,1.3943458,0.06587836,0.0,-10.0,0.0,nan,nan,nan
177328000,-3.3493533,-107.29772,-9.945435,-1.6100577,nan,-0.13783832,-4.411205,0.0016962907,0.007785879,1.5567322,-0.034637887,0.0,0.0,-2.0000002,nan,nan,nan
177524000,-3.3759773,-108.134384,-9.94539,-1.6105917,nan,-0.13191232,-4.1329656,-0.00079852017,0.047785882,1.3167324,-0.011014599,0.0,-10.0,0.0,nan,nan,nan
177716000,-3.4004235,-108.90431,-9.945426,-1.6109433,nan,-0.12273748,-3.8933523,-0.00041817912,0.047785882,1.1967323,-0.00860758,0.0,-10.0,0.0,nan,nan,nan
177928000,-3.42537,-109.702446,-9.945424,-1.6113229,nan,-0.11260688,-3.6381257,0.0006068363,0.047785882,1.1567323,-0.05488607,0.0,0.0,-2.0000002,nan,nan,nan
178124000,-3.4465232,-110.393936,-9.945361,-1.6116012,nan,-0.103240855,-3.4202862,-0.0005560167,0.047785882,1.0367324,-0.08090167,0.0,-10.0,0.0,nan,nan,nan
178316000,-3.4659643,-111.03137,-9.945518,-1.611787,nan,-0.10038597,-3.2230742,-0.0008645123,0.007785879,0.83673245,-0.0053770654,0.0,0.0,0.0,nan,nan,nan
178528000,-3.4868455,-111.6936,-9.945541,-1.611783,nan,-0.09449537,-3.0191271,0.001479878,0.047785882,0.99673253,-0.012301654,0.0,2.0000002,-2.0000002,nan,nan,nan
178724000,-3.5044534,-112.26741,-9.945696,-1.6115295,nan,-0.08568934,-2.838407,0.001585424,0.007785879,0.87673247,0.022526946,0.0,-10.0,0.0,nan,nan,nan
178916000,-3.5207624,-112.79672,-9.945637,-1.6115253,nan,-0.08419446,-2.6813538,0.0013892899,0.007785879,0.7567325,-0.036782775,0.0,0.0,0.0,nan,nan,nan
179128000,-3.538098,-113.346855,-9.945649,-1.6117269,nan,-0.07734386,-2.5109267,-0.00060579117,0.047785882,0.79673266,0.03085903,0.0,2.0000002,2.0000002,nan,nan,nan
179324000,-3.552583,-113.8241,-9.945674,-1.6119145,nan,-0.07237783,-2.359168,-0.00017572916,0.007785879,0.75673264,0.0,0.0,0.0,0.0,nan,nan,nan
179516000,-3.566336,-114.2644,-9.945712,-1.61215,nan,-0.070882946,-2.228275,-0.00017572916,0.007785879,0.75673276,0.0,0.0,0.0,0.0,nan,nan,nan
179728000,-3.580395,-114.72188,-9.945754,-1.6123728,nan,-0.062512346,-2.0920882,-0.00017572916,0.007785879,0.6367328,0.0,0.0,2.0000002,0.0,nan,nan,nan
179924000,-3.5924978,-115.11975,-9.945793,-1.612459,nan,-0.060986318,-1.9645687,-0.00017572916,0.007785879,0.5567329,0.0,0.0,0.0,0.0,nan,nan,nan
180120000,-3.604297,-115.49347,-9.945831,-1.6124487,nan,-0.05890029,-1.8500087,-0.00017572916,0.047785882,0.63673306,0.0,0.0,0.0,0.0,nan,nan,nan
180332000,-3.615845,-115.87226,-9.945873,-1.6124637,nan,-0.05204969,-1.7283012,-0.00017572916,0.007785879,0.556733,0.0,0.0,2.0000002,0.0,nan,nan,nan
180528000,-3.625897,-116.20131,-9.945912,-1.6125793,nan,-0.05052366,-1.6343014,-0.00017572916,0.007785879,0.436733,0.0,0.0,0.0,0.0,nan,nan,nan
180720000,-3.6354542,-116.505905,-9.9459505,-1.6128931,nan,-0.049028777,-1.5397285,-0.00017572916,0.007785879,0.51673305,0.0,0.0,0.0,0.0,nan,nan,nan
180912000,-3.6442537,-116.79301,-9.945989,-1.612925,nan,-0.042733893,-1.457556,-0.00017572916,0.007785879,0.39673308,0.0,0.0,0.0,0.0,nan,nan,nan
181128000,-3.653303,-117.09783,-9.946027,-1.6126827,nan,-0.041052148,-1.3626622,0.00038427088,0.007785879,0.43673307,0.040000003,0.0,-10.0,0.0,nan,nan,nan
181320000,-3.661041,-117.351135,-9.946032,-1.612485,nan,-0.039557263,-1.2804894,-0.00067812914,0.007785879,0.31673306,-0.001600001,0.0,0.0,0.0,nan,nan,nan
181532000,-3.6692522,-117.614105,-9.946016,-1.611929,nan,-0.03790666,-1.2006222,0.0001353109,0.007785879,0.436733,0.0,0.0,2.0000002,0.0,nan,nan,nan
181728000,-3.6764548,-117.84222,-9.94599,-1.6108601,nan,-0.033900633,-1.1318227,-0.00042468915,0.047785882,0.19673298,-0.040000003,0.0,-10.0,0.0,nan,nan,nan
181920000,-3.682746,-118.054245,-9.9459915,-1.6101481,nan,-0.03200575,-1.07269,0.0006377109,0.007785879,0.31673297,0.001600001,0.0,-10.0,0.0,nan,nan,nan
182132000,-3.6893563,-118.2741,-9.946015,-1.6098152,nan,-0.030355148,-1.001303,-0.00017572913,0.007785879,0.35673296,0.0,0.0,2.0000002,0.0,nan,nan,nan
182328000,-3.6951563,-118.46397,-9.946027,-1.6078455,nan,-0.02874912,-0.93778324,-2.9290968e-06,0.047785882,0.27673298,0.0384,10.0,-10.0,-2.4000003,nan,nan,nan
182520000,-3.6879995,-118.64919,-9.94603,-1.4570487,nan,0.16474576,-1.0224105,0.0001353109,1.9677858,-0.683267,0.0,10.0,0.0,0.0,nan,nan,nan
182732000,-3.5954928,-118.8813,-9.945996,-1.2905438,nan,0.74215645,-1.1672633,0.0001353109,2.9677858,-0.683267,0.0,0.0,0.0,0.0,nan,nan,nan
182928000,-3.3930242,-119.12321,-9.946002,-1.1366053,nan,1.3238424,-1.3011838,-0.00039908916,2.9677858,-0.683267,0.001600001,0.0,0.0,0.0,nan,nan,nan
183120000,-3.084144,-119.385,-9.946005,-0.98580843,nan,1.8936571,-1.4065313,-0.00017572913,2.9677858,-0.003267035,0.0,0.0,0.0,0.0,nan,nan,nan
183312000,-2.7429466,-119.60712,-9.94602,-0.835012,nan,2.3663201,-1.3545994,0.0007180756,2.7667105,0.62765527,0.009077613,-10.0,0.0,0.0,nan,nan,nan
183528000,-2.4503665,-119.75974,-9.946009,-0.66536605,nan,2.6268723,-1.2439197,8.922417e-05,1.7991171,1.2881253,-3.1239622e-10,-10.0,0.0,1.6798245e-08,nan,nan,nan
183720000,-2.1311772,-119.89734,-9.945997,-0.51456964,nan,2.7694204,-1.0921854,8.922417e-05,0.62117034,1.2881253,0.0,-10.0,0.0,0.0,nan,nan,nan
183932000,-1.7545353,-120.03345,-9.945984,-0.34806526,nan,2.761833,-0.9177238,8.922417e-05,-0.7332127,1.2881253,0.0,-10.0,0.0,0.0,nan,nan,nan
184128000,-1.3722116,-120.156296,-9.945971,-0.19412722,nan,2.5549626,-0.8339562,8.922417e-05,-2.1385193,0.030957442,0.0,10.0,0.0,0.0,nan,nan,nan
184320000,-0.92325956,-120.31318,-9.945955,-0.043330748,nan,2.2249768,-0.8114269,8.922417e-05,-1.1666632,0.39095744,0.0,10.0,0.0,0.0,nan,nan,nan
184532000,-0.51889884,-120.455864,-9.945938,0.024879038,nan,2.0516467,-0.6849485,8.922417e-05,-0.6522306,0.69835687,0.0,-2.0000002,0.0,0.0,nan,nan,nan
184728000,-0.177095,-120.56527,-9.945923,0.042251464,nan,1.9392945,-0.61689484,8.922417e-05,-0.57376903,0.074618444,0.0,10.0,0.0,0.0,nan,nan,nan
184920000,0.15010943,-120.666306,-9.945908,0.058680445,nan,1.8374707,-0.5432492,8.922417e-05,-0.6012431,0.44809026,0.0,0.0,-10.0,0.0,nan,nan,nan
185132000,0.51032746,-120.77048,-9.94589,0.07656603,nan,1.7341126,-0.49757907,8.922417e-05,-0.6277928,0.36798537,0.0,-2.0000002,0.0,0.0,nan,nan,nan
185328000,0.8060822,-120.851585,-9.945875,0.09395479,nan,1.6444376,-0.42786837,8.922417e-05,-0.5846942,0.3799135,0.0,0.0,-10.0,0.0,nan,nan,nan
185520000,1.1039014,-120.928825,-9.94586,0.1110167,nan,1.5467703,-0.3871112,8.922417e-05,-0.4759232,0.3799135,0.0,10.0,0.0,0.0,nan,nan,nan
185732000,1.419008,-121.005264,-9.945843,0.12946466,nan,1.4579128,-0.35122746,8.922417e-05,-0.5559232,0.20546201,0.0,-2.0000002,2.0000002,0.0,nan,nan,nan
185928000,1.6851498,-121.06679,-9.945845,0.14722599,nan,1.3693213,-0.29983357,0.00028658274,-0.46083653,0.2550492,-0.039741557,0.0,-10.0,2.1508672,nan,nan,nan
186120000,1.9420185,-121.12226,-9.945913,0.16481331,nan,1.2994809,-0.2783841,-0.00049898436,-0.5008365,0.17504922,0.025765406,0.0,0.0,-1.610338,nan,nan,nan
186332000,2.2074797,-121.176544,-9.945992,0.18447979,nan,1.2109035,-0.23407374,-0.0010367818,-0.4208365,0.17504922,0.07661233,-2.0000002,0.0,2.0000002,nan,nan,nan
186528000,2.4391124,-121.22083,-9.94595,0.20400697,nan,1.1465796,-0.2156841,0.0004656284,-0.46083647,0.13504921,0.06642552,0.0,0.0,0.0,nan,nan,nan
186720000,2.6530375,-121.25916,-9.946062,0.22382021,nan,1.082259,-0.18551467,-0.000864311,-0.3808365,0.0950492,0.061712336,10.0,0.0,-3.857021,nan,nan,nan
186932000,2.8741126,-121.296364,-9.946127,0.24614067,nan,1.0090418,-0.16536418,-0.0012857076,-0.3008365,0.0950492,0.073369876,-2.0000002,0.0,2.0000002,nan,nan,nan
187128000,3.066501,-121.32694,-9.946093,0.26801196,nan,0.95399773,-0.14673446,0.0019095601,-0.2608365,0.0950492,-0.008834608,10.0,0.0,0.0,nan,nan,nan
187320000,3.244502,-121.35335,-9.946138,0.29005575,nan,0.900077,-0.12848495,0.0010643691,-0.2608365,0.0950492,-0.015254147,10.0,0.0,0.0,nan,nan,nan
187512000,3.4117894,-121.37683,-9.946125,0.31305188,nan,0.8447964,-0.11647549,-5.111313e-05,-0.2208365,0.0950492,0.0,10.0,0.0,0.0,nan,nan,nan
187728000,3.588509,-121.40008,-9.946134,0.33942288,nan,0.791336,-0.100824855,-5.111313e-05,-0.2208365,0.0550492,0.0,10.0,0.0,0.0,nan,nan,nan
187920000,3.7360942,-121.41842,-9.946141,0.3636955,nan,0.7475755,-0.0902554,-5.111313e-05,-0.1808365,0.0550492,0.0,10.0,0.0,0.0,nan,nan,nan
188132000,3.8900788,-121.43632,-9.94615,0.3908964,nan,0.7049979,-0.07858496,-5.111313e-05,-0.2208365,0.0550492,0.0,-2.0000002,0.0,0.0,nan,nan,nan
188328000,4.0241594,-121.450905,-9.946157,0.41814357,nan,0.6591539,-0.07163535,-5.111313e-05,-0.3008365,0.0550492,0.0,0.0,0.0,0.0,nan,nan,nan
188520000,4.1478467,-121.46357,-9.946165,0.44563183,nan,0.62674534,-0.06267792,-5.111313e-05,-0.17653538,0.020831484,0.0,10.0,0.0,0.0,nan,nan,nan
188732000,4.276283,-121.47615,-9.946174,0.4733415,nan,0.5877194,-0.055178586,-5.111313e-05,-0.20578267,0.038932152,0.0,-2.0000002,0.0,0.0,nan,nan,nan
188928000,4.387916,-121.486206,-9.946181,0.4750309,nan,0.55122596,-0.0481079,-5.111313e-05,-0.20578267,-0.0010678507,0.0,0.0,0.0,0.0,nan,nan,nan
189120000,4.495245,-121.49543,-9.946189,0.4172886,nan,0.6173957,-0.04775294,-5.111313e-05,1.0342172,0.038932152,0.0,0.0,0.0,0.0,nan,nan,nan
189312000,4.6221013,-121.50351,-9.946197,0.43644252,nan,0.6487653,-0.03547796,-5.111313e-05,-0.4857827,0.03893215,0.0,10.0,0.0,0.0,nan,nan,nan
189528000,4.755768,-121.51121,-9.946205,0.46047267,nan,0.59862155,-0.03378862,-5.111313e-05,-0.19250096,0.03893215,0.0,10.0,0.0,0.0,nan,nan,nan
189720000,4.8669934,-121.51721,-9.946213,0.4800576,nan,0.56276226,-0.030169224,-5.111313e-05,-0.12200076,0.031145718,0.0,7.625048,-1.9466075,0.0,nan,nan,nan
189932000,4.990592,-121.523026,-9.946221,0.34811074,nan,0.66897404,-0.024749864,-5.111313e-05,1.5103993,0.024916574,0.0,10.0,0.0,0.0,nan,nan,nan
190128000,5.1630673,-121.5274,-9.946229,0.1941727,nan,1.1450922,-0.01986621,-5.111313e-05,2.9903994,0.024916574,0.0,0.0,0.0,0.0,nan,nan,nan
190320000,5.375209,-121.53017,-9.946237,0.079421766,nan,1.6062399,-0.016023837,-5.111313e-05,2.9903994,0.024916574,0.0,0.0,0.0,0.0,nan,nan,nan
190532000,5.5752134,-121.531815,-9.946245,0.08002128,nan,1.9432434,-0.01321586,-5.111313e-05,2.9903994,0.024916574,0.0,0.0,0.0,0.0,nan,nan,nan
190728000,5.8392973,-121.53331,-9.946253,0.0806748,nan,2.3142235,-0.012168974,-5.111313e-05,2.9903994,-0.0150834285,0.0,0.0,0.0,0.0,nan,nan,nan
190920000,6.1471157,-121.534935,-9.94626,0.08143672,nan,2.6826534,-0.014027314,-5.111313e-05,2.9903994,-0.0150834285,0.0,0.0,0.0,0.0,nan,nan,nan
191132000,6.53548,-121.53697,-9.946269,0.082843155,nan,3.0107586,-0.016074253,-5.111313e-05,1.7436832,-0.0150834285,0.0,-10.0,0.0,0.0,nan,nan,nan
191328000,6.95976,-121.53932,-9.946277,0.084914155,nan,3.1557665,-0.018139388,-5.111313e-05,0.3745416,-0.0150834285,0.0,-10.0,0.0,0.0,nan,nan,nan
191520000,7.4140344,-121.542114,-9.946284,0.087546155,nan,3.1056986,-0.020315956,-5.111313e-05,-1.0684773,-0.0150834285,0.0,-10.0,0.0,0.0,nan,nan,nan
191732000,7.952506,-121.54561,-9.946293,0.090987444,nan,2.7907407,-0.017075751,-5.111313e-05,-1.7839757,0.024916574,0.0,0.0,0.0,0.0,nan,nan,nan
191928000,8.4134,-121.54819,-9.9463005,0.09460251,nan,2.557325,-0.012764065,-5.111313e-05,-1.0401806,0.024916574,0.0,10.0,0.0,0.0,nan,nan,nan
192120000,8.85723,-121.55007,-9.946308,0.098025136,nan,2.4010053,-0.008299467,-5.111313e-05,-0.8083608,0.024916574,0.0,10.0,0.0,0.0,nan,nan,nan
192312000,9.2592325,-121.55152,-9.946316,0.10137971,nan,2.2817109,-0.009590584,-5.111313e-05,-0.7508801,-0.0150834285,0.0,10.0,0.0,0.0,nan,nan,nan
192528000,9.705484,-121.55333,-9.946324,0.10528881,nan,2.1367261,-0.006748735,-5.111313e-05,-0.6335391,0.024916574,0.0,10.0,0.0,0.0,nan,nan,nan
192720000,10.079665,-121.554565,-9.946332,0.1089181,nan,2.0215588,-0.008164445,-5.111313e-05,-0.618345,-0.0150834285,0.0,10.0,0.0,0.0,nan,nan,nan
192932000,10.473566,-121.55594,-9.946341,0.11302526,nan,1.9142388,-0.0044750054,-5.111313e-05,-0.5714267,0.024916574,0.0,-2.0000002,0.0,0.0,nan,nan,nan
193128000,10.813621,-121.556915,-9.946348,0.11727096,nan,1.7980578,-0.0067348783,-5.111313e-05,-0.5914632,-0.0150834285,0.0,10.0,0.0,0.0,nan,nan,nan
193320000,11.135405,-121.55794,-9.946356,0.121487476,nan,1.7118201,-0.0034639384,-5.111313e-05,-0.47343406,0.024916574,0.0,0.0,0.0,0.0,nan,nan,nan
193532000,11.481496,-121.55891,-9.946364,0.1263432,nan,1.5950278,-0.0058203484,-5.111313e-05,-0.54079986,0.024916574,0.0,-2.0000002,2.0000002,0.0,nan,nan,nan
193728000,11.786353,-121.55959,-9.946372,0.13154863,nan,1.513111,-0.0024566983,-5.111313e-05,-0.50079983,-0.0150834285,0.0,0.0,0.0,0.0,nan,nan,nan
193920000,12.067581,-121.560356,-9.94638,0.1365166,nan,1.4258375,-0.004792717,-5.111313e-05,-0.38079986,0.024916574,0.0,0.0,0.0,0.0,nan,nan,nan
194132000,12.360004,-121.56094,-9.946388,0.14243573,nan,1.3290278,-0.0027904024,-5.111313e-05,-0.50079983,-0.0150834285,0.0,0.0,0.0,0.0,nan,nan,nan
194328000,12.612326,-121.56154,-9.946396,0.14842787,nan,1.249431,-0.0013467533,-5.111313e-05,-0.34079987,0.024916574,0.0,10.0,0.0,0.0,nan,nan,nan
194520000,12.84626,-121.56202,-9.9464035,0.15439454,nan,1.1887975,-0.0038427715,-5.111313e-05,-0.34079984,-0.0150834285,0.0,10.0,0.0,0.0,nan,nan,nan
194732000,13.089317,-121.5625,-9.946412,0.161119,nan,1.1106277,-0.0022404576,-5.111313e-05,-0.26079983,-0.0150834285,0.0,-2.0000002,0.0,0.0,nan,nan,nan
194928000,13.300753,-121.56298,-9.94642,0.1685908,nan,1.041991,-0.00079680886,-5.111313e-05,-0.3807998,0.024916574,0.0,10.0,0.0,0.0,nan,nan,nan
195120000,13.495745,-121.563324,-9.946427,0.17646085,nan,0.9886371,-0.0027328273,-5.111313e-05,-0.3407998,0.024916574,0.0,0.0,0.0,0.0,nan,nan,nan
195332000,13.698206,-121.563576,-9.946436,0.18546693,nan,0.9268944,-0.0016905136,-5.111313e-05,-0.30463985,-0.0150834285,0.0,-2.0000002,0.0,0.0,nan,nan,nan
195524000,13.870605,-121.56393,-9.946413,0.19492666,nan,0.86830133,-0.00018637173,-0.00061096536,-0.11571283,0.024917766,0.008000955,7.2320523,0.0,0.0,nan,nan,nan
195716000,14.033526,-121.56417,-9.946407,0.20566115,nan,0.8246444,-0.002122161,0.0002601762,-0.27571285,0.024917766,0.0,0.0,0.0,0.0,nan,nan,nan
195928000,14.201941,-121.564285,-9.946387,0.21824187,nan,0.7705583,-0.0010132329,0.00075617625,-0.16457029,-0.012065789,0.001600001,-2.0000002,0.0,-2.0000002,nan,nan,nan
196124000,14.348765,-121.564575,-9.946375,0.23085114,nan,0.72470254,6.187286e-05,-5.0863804e-05,-0.2445703,0.027934214,0.0,10.0,0.0,0.0,nan,nan,nan
196316000,14.4841585,-121.5647,-9.9463825,0.24303609,nan,0.6870085,-0.0015603533,-5.0863804e-05,-0.22765626,-0.009652631,0.0,10.0,0.0,0.0,nan,nan,nan
196528000,14.624273,-121.564896,-9.946391,0.24062586,nan,0.6385083,-0.0006039294,-5.0863804e-05,-0.1921,-0.006177684,0.0,-2.0000002,0.0,0.0,nan,nan,nan
196724000,14.75828,-121.56322,-9.946399,0.086687766,nan,0.79293674,0.024985246,-5.0863804e-05,1.7679,0.19382234,0.0,10.0,0.0,0.0,nan,nan,nan
196916000,14.954251,-121.55484,-9.946406,0.081804454,nan,1.2902936,0.062199138,-5.0863804e-05,2.9679,0.19382234,0.0,0.0,0.0,0.0,nan,nan,nan
197128000,15.26936,-121.53864,-9.946415,0.08183508,nan,1.8802319,0.10072581,-5.0863804e-05,2.9679,0.19382234,0.0,0.0,0.0,0.0,nan,nan,nan
197324000,15.575695,-121.521866,-9.946423,0.08183727,nan,2.3137898,0.12903987,-5.0863804e-05,2.9679,0.19382234,0.0,0.0,0.0,0.0,nan,nan,nan
197516000,15.936611,-121.50145,-9.94643,0.0818431,nan,2.7378721,0.15673503,-5.0863804e-05,2.9679,0.19382234,0.0,0.0,0.0,0.0,nan,nan,nan
197728000,16.4048,-121.47436,-9.946439,0.081848934,nan,3.2054684,0.18727201,-5.0863804e-05,2.9679,0.19382234,0.0,0.0,0.0,0.0,nan,nan,nan
197924000,16.90213,-121.44509,-9.946411,0.0818606,nan,3.636906,0.21544759,0.00050380063,2.9679,0.19382234,-0.009925775,0.0,0.0,0.0,nan,nan,nan
198116000,17.449274,-121.41248,-9.946406,0.08194147,nan,4.0589185,0.24384165,-0.00021176747,2.9679,0.22348604,0.018609304,0.0,0.0,-1.0904219,nan,nan,nan
198328000,18.123196,-121.37144,-9.946398,0.08205354,nan,4.5249414,0.27893367,0.00050023774,2.9679,0.22348604,-0.018770399,0.0,0.0,-2.0000002,nan,nan,nan
198524000,18.808832,-121.328354,-9.946411,0.082169086,nan,4.8708663,0.3143908,-9.688542e-05,1.6622449,0.2532169,-0.0044168467,-10.0,0.0,0.0,nan,nan,nan
198716000,19.51934,-121.28037,-9.946393,0.0822881,nan,5.006408,0.3575382,0.00010372282,0.22854467,0.34299445,-0.0043423777,-10.0,0.0,0.25496334,nan,nan,nan
198928000,20.320442,-121.22187,-9.946384,0.08240839,nan,4.9820223,0.35947824,0.0004631508,0.1733879,-0.07877936,-0.0011272244,10.0,2.0000002,-2.0000002,nan,nan,nan
199124000,21.07009,-121.16739,-9.946371,0.08245689,nan,4.9852424,0.3619154,0.00015051494,0.0045221206,0.006399909,0.0014433637,0.0,0.0,0.0,nan,nan,nan
199316000,21.81034,-121.11334,-9.946354,0.08246195,nan,4.9862127,0.36416242,0.00026628736,6.4386055e-05,0.00124483,-0.0035676043,0.0,0.0,0.0,nan,nan,nan
199528000,22.633211,-121.05304,-9.946332,0.08246413,nan,4.9867945,0.3660576,0.00014013273,0.0041930918,0.006067179,-0.033804197,0.0,0.0,-2.0000002,nan,nan,nan
199724000,23.39798,-120.99681,-9.946321,0.082488,nan,4.9865303,0.36724854,0.00042570508,-0.020995766,0.0036318973,0.0011504963,1.2444704,0.0,0.0,nan,nan,nan
199916000,24.150337,-120.941315,-9.94631,0.0824974,nan,4.986238,0.36833456,0.00024062584,-0.019140594,0.003046006,0.004193495,0.0,0.0,0.0,nan,nan,nan
200128000,25.006027,-120.87805,-9.946308,0.08248872,nan,4.9863772,0.3695609,-2.1328859e-05,0.0074362527,0.028812693,0.033581235,0.0,0.0,2.0000002,nan,nan,nan
200324000,25.80198,-120.819,-9.946307,0.08248149,nan,4.986226,0.3700356,0.00016790672,0.006284912,-0.027693368,0.008746625,-0.37353188,0.0,0.0,nan,nan,nan
200516000,26.585224,-120.76079,-9.946292,0.08246992,nan,4.9862356,0.370792,0.00022112849,-0.03861721,0.0037347432,0.0012594671,0.0,0.0,0.0,nan,nan,nan
200728000,27.471537,-120.69472,-9.946314,0.08243735,nan,4.986293,0.3720875,-0.00020330353,-0.016718928,0.0043787416,0.05299954,-2.0000002,0.0,2.0000002,nan,nan,nan
200924000,28.278473,-120.63446,-9.946293,0.08237073,nan,4.985634,0.37275442,-0.00028978463,-0.014290992,0.0025842793,0.0025589317,0.0,-0.15408099,0.0,nan,nan,nan
201116000,29.074434,-120.57493,-9.946289,0.08229535,nan,4.985103,0.373167,-0.00012356191,0.010694969,0.0025842793,-0.0041557606,0.0,0.0,0.0,nan,nan,nan
201328000,29.975094,-120.50739,-9.946269,0.08221337,nan,4.985723,0.37400126,-0.00014542103,0.05978014,0.04792666,-0.0067874393,2.0000002,2.0000002,0.0,nan,nan,nan
201524000,30.797312,-120.445564,-9.946261,0.082144395,nan,4.983604,0.37451458,0.00016403997,0.01830735,0.011495113,0.0028148582,0.0,0.0,0.0,nan,nan,nan
201716000,31.607555,-120.38453,-9.946241,0.08209208,nan,4.985321,0.3755596,-0.0008636628,-0.034528315,-0.0123432325,-0.019572578,0.0,0.0,0.0,nan,nan,nan
201928000,32.521343,-120.31561,-9.946247,0.08204554,nan,4.9862795,0.37670258,0.00013028672,0.0038977563,0.016433127,0.0,-2.0000002,0.0,0.0,nan,nan,nan
202124000,33.355717,-120.252556,-9.946231,0.08200262,nan,4.9857507,0.37688792,0.00013028672,-0.014372688,-0.019220311,0.0,0.8632476,0.0,0.0,nan,nan,nan
202316000,34.192627,-120.18925,-9.946214,0.08196113,nan,4.9850316,0.37702695,0.00013028672,0.025340274,0.022410791,0.0,0.0,0.0,0.0,nan,nan,nan
202528000,35.11671,-120.119194,-9.946195,0.08194074,nan,4.9863186,0.37856495,0.00013028672,0.044132143,0.065024875,0.0,0.0,2.0000002,0.0,nan,nan,nan
202724000,35.960457,-120.05512,-9.946178,0.08194365,nan,4.985636,0.3792308,0.00013028672,0.04010887,0.04924102,0.0,-2.414518,0.0,0.0,nan,nan,nan
202916000,36.80436,-119.99094,-9.946161,0.08194657,nan,4.9855666,0.3795426,0.00013028672,0.011350436,0.05753922,0.0,-0.68355316,0.0,0.0,nan,nan,nan
203128000,37.720566,-119.92118,-9.946143,0.08195749,nan,4.986004,0.3796126,0.00013028672,0.015331715,-0.03765839,0.0,0.0,-2.0000002,0.0,nan,nan,nan
203324000,38.585094,-119.85531,-9.946126,0.08197278,nan,4.98517,0.38009232,0.00013028672,-0.022575367,0.00901526,0.0,0.0,0.0,0.0,nan,nan,nan
203516000,39.41964,-119.79167,-9.94611,0.0820128,nan,4.9849405,0.38004118,0.00013028672,0.045165442,0.008621106,0.0,0.0,0.0,0.0,nan,nan,nan
203728000,40.355003,-119.720245,-9.946091,0.08206445,nan,4.9867744,0.38123646,0.00013028672,-0.012479853,0.0059252777,0.0,-2.0000002,0.0,0.0,nan,nan,nan
203924000,41.22276,-119.653915,-9.946074,0.08211024,nan,4.9857264,0.3811664,0.00013028672,-0.0044521205,-0.04081001,0.0,0.0,0.0,0.0,nan,nan,nan
204116000,42.07441,-119.588806,-9.946056,0.08213204,nan,4.985419,0.38161117,0.00013028672,-0.04110319,-0.010386061,0.0,2.481359,0.62699616,0.0,nan,nan,nan
204328000,42.98563,-119.519066,-9.946039,0.08220031,nan,4.9855933,0.38207206,0.00013028672,0.019141253,0.05313929,0.0,0.0,2.0000002,0.0,nan,nan,nan
204524000,43.828568,-119.45447,-9.946024,0.08226707,nan,4.9854507,0.3827377,0.00013028672,0.018048188,0.016652025,0.0,0.0,0.0,0.0,nan,nan,nan
204716000,44.65506,-119.39111,-9.946009,0.08232435,nan,4.985831,0.38287646,0.00013028672,-0.019234022,0.016340427,0.0,1.1617247,0.0,0.0,nan,nan,nan
204928000,45.56856,-119.32099,-9.9459915,0.082390286,nan,4.98546,0.3828779,0.00013028672,-0.019154042,-0.059060805,0.0,0.0,-2.0000002,0.0,nan,nan,nan
205124000,46.414074,-119.25608,-9.945976,0.082435176,nan,4.985116,0.3825231,0.00013028672,-0.0071487725,-0.014723751,0.0,0.0,0.0,0.0,nan,nan,nan
205316000,47.243904,-119.19234,-9.946006,0.0824663,nan,4.9846244,0.38321817,0.0002827324,-0.038584042,0.018426294,-0.0028601252,0.0,0.0,0.0,nan,nan,nan
205528000,48.1621,-119.12177,-9.946017,0.08251693,nan,4.9847445,0.3838793,0.00023363826,0.0028739087,0.011544086,0.003642276,2.0000002,-2.0000002,-1.400579,nan,nan,nan
205724000,49.025394,-119.0554,-9.946042,0.08253935,nan,4.9848247,0.383482,0.00026972132,0.025795713,0.0035882017,-0.003120821,-1.561149,-0.21715693,0.0,nan,nan,nan
205916000,49.885178,-118.98919,-9.946057,0.082612336,nan,4.9835324,0.38410088,0.00050727226,0.03435049,0.0035882017,-0.0011989474,0.0,0.0,0.0,nan,nan,nan
206128000,50.820038,-118.91724,-9.94606,0.08268887,nan,4.987054,0.383967,-3.253264e-05,0.03701041,0.006167518,-0.031156905,-2.0000002,0.0,-2.0000002,nan,nan,nan
206324000,51.698433,-118.8496,-9.9461,0.08278119,nan,4.985243,0.38398376,-0.00028647576,0.033901997,0.007628771,0.044109248,-2.0525792,-0.46188003,-2.6705718,nan,nan,nan
206516000,52.559532,-118.78323,-9.946055,0.0829058,nan,4.985332,0.38520595,0.0012109817,-0.0028047785,0.017432287,0.025033034,0.0,0.0,0.0,nan,nan,nan
206732000,53.537956,-118.707794,-9.94613,0.08297918,nan,4.984781,0.38486883,0.0022430965,-0.0028047785,-0.026188597,0.016163442,0.0,1.5857602,-10.0,nan,nan,nan
206924000,54.4005,-118.641266,-9.946108,0.08303525,nan,4.985876,0.38440883,0.00085088715,-0.0061260294,0.01259462,0.021344543,0.0,0.0,0.0,nan,nan,nan
207116000,55.275963,-118.57373,-9.946092,0.08314083,nan,4.985757,0.38598767,-0.00092948024,-0.00946657,0.007491436,-0.01462733,0.0,0.0,0.0,nan,nan,nan
207328000,56.239437,-118.4994,-9.946135,0.083239816,nan,4.985289,0.3842365,0.00036622287,-0.046586163,0.010185294,0.009704921,-2.0000002,2.0000002,-2.0000002,nan,nan,nan
207524000,57.133785,-118.4304,-9.946122,0.0832907,nan,4.98476,0.38526276,6.083824e-05,-0.007888106,0.041436646,0.035347365,0.0,0.0,-2.1433082,nan,nan,nan
207716000,58.023968,-118.3616,-9.94613,0.08329786,nan,4.984809,0.38567653,-0.00033925968,0.02729499,-0.02789056,0.008187871,0.0,0.0,0.0,nan,nan,nan
207928000,58.9924,-118.28671,-9.946168,0.08328282,nan,4.9844637,0.38626757,0.0018226635,-0.006610761,-0.06709906,0.044307947,0.0,-2.0000002,-2.0000002,nan,nan,nan
208124000,59.903347,-118.21629,-9.945958,0.083314344,nan,4.984854,0.38522226,0.0015748619,0.024454782,-0.05364026,-0.023732092,-1.4853483,3.2580323,0.0,nan,nan,nan
208316000,60.786987,-118.14804,-9.945791,0.083341554,nan,4.9848123,0.38609162,0.0007082024,0.0016109385,-0.04928813,-0.06050937,0.0,0.0,3.677939,nan,nan,nan
208528000,61.77194,-118.072044,-9.94572,0.08335945,nan,4.9851255,0.38294646,0.0013509676,0.0013245706,0.022102803,-0.06533149,0.0,2.0000002,-2.0000002,nan,nan,nan
208724000,62.68743,-118.00132,-9.945732,0.0833437,nan,4.9853706,0.38367343,0.0019050125,0.0013245706,0.0035152435,-0.027729325,0.0,0.0,0.0,nan,nan,nan
208916000,63.57648,-117.93264,-9.945552,0.08335659,nan,4.9841027,0.38294023,0.00058112526,0.004174486,-0.0063832067,-0.06254511,0.0,0.0,3.8091378,nan,nan,nan
209128000,64.55714,-117.856834,-9.945567,0.08338379,nan,4.9842744,0.38426548,0.00038984139,0.0039680935,0.011634376,-0.071530566,2.0000002,2.0000002,-2.0000002,nan,nan,nan
209324000,65.43772,-117.78862,-9.9456215,0.083467476,nan,4.9843616,0.38376388,-0.0012973201,-0.032261718,-0.033039138,0.01341252,0.0,0.0,0.0,nan,nan,nan
209516000,66.3017,-117.721756,-9.945709,0.08352751,nan,4.9854755,0.3854715,-0.0009621879,-0.0033580586,-0.08285394,0.038046207,0.0,0.0,-2.3194604,nan,nan,nan
209728000,67.25793,-117.6479,-9.945617,0.08357037,nan,4.9848323,0.38570082,0.00079890946,-0.0033580586,-0.057968237,0.01458627,0.0,-2.0000002,-2.0000002,nan,nan,nan
209924000,68.14379,-117.57935,-9.9455595,0.08362105,nan,4.98469,0.38523534,0.00031479762,-0.0010729209,-0.025355723,-0.04271483,0.0,0.0,2.6062002,nan,nan,nan
210116000,69.013596,-117.51199,-9.945553,0.08365886,nan,4.9852824,0.38558078,-0.0008632508,0.033212554,-0.0024921186,-0.07594255,0.0,0.0,0.0,nan,nan,nan
210328000,69.976875,-117.43741,-9.945665,0.08371947,nan,4.984482,0.38589498,-0.00043420075,0.003968112,-0.0025060847,-0.04281301,0.0,0.0,0.0,nan,nan,nan
210524000,70.86914,-117.36833,-9.945684,0.083838426,nan,4.9850554,0.38561466,-0.002028403,-0.029231831,0.0046099573,-0.03957479,0.0,0.0,0.0,nan,nan,nan
210716000,71.761505,-117.29924,-9.945733,0.08393943,nan,4.984527,0.38631907,-0.00071757083,0.014967471,-0.00041737407,-0.08062127,0.0,0.0,0.0,nan,nan,nan
210928000,72.73861,-117.223526,-9.945934,0.08401973,nan,4.98689,0.3854283,-0.00067204295,0.0182699,-0.0004051067,0.03701874,-2.0000002,2.0000002,2.0000002,nan,nan,nan
211124000,73.66055,-117.15219,-9.945856,0.08406872,nan,4.98518,0.3847744,-0.0003645459,-0.007843297,0.0015262775,0.03937772,0.0,0.0,-2.4101093,nan,nan,nan
211316000,74.5581,-117.082634,-9.945946,0.08410492,nan,4.986638,0.38528818,0.00018342413,0.0267881,0.006574966,0.067515954,0.0,0.0,-4.1353545,nan,nan,nan
211528000,75.55754,-117.00526,-9.94601,0.08412549,nan,4.9833117,0.38638186,0.00054806616,-0.014467668,0.0043777786,0.022171985,2.0000002,0.0,-2.0000002,nan,nan,nan
211724000,76.48511,-116.93341,-9.946011,0.08413046,nan,4.9845457,0.38628554,-0.00060705154,0.020905867,0.008834612,-0.061166815,-1.2823263,0.0,0.0,nan,nan,nan
211916000,77.39632,-116.86288,-9.945918,0.08415882,nan,4.9847574,0.38530803,0.0008140936,0.02553518,0.041904774,-0.06020547,-1.5673372,-2.572095,3.695383,nan,nan,nan
212128000,78.40265,-116.78492,-9.945852,0.08420632,nan,4.984913,0.38376465,0.001341406,0.028208796,0.039374974,-0.068039715,0.0,2.0000002,-2.0000002,nan,nan,nan
212324000,79.342445,-116.71206,-9.945903,0.084258035,nan,4.98467,0.3863024,-0.0022412895,-0.0075342534,0.037944146,0.0048715807,0.0,0.0,0.0,nan,nan,nan
212516000,80.2651,-116.64059,-9.94596,0.08427078,nan,4.9846287,0.38650948,-0.0004753838,0.02182019,-0.033130337,0.031304836,-1.3418344,2.037353,-1.9250938,nan,nan,nan
212728000,81.27896,-116.56191,-9.945891,0.08425945,nan,4.827091,0.3783531,0.0008037339,-1.3740015,-0.07313034,-0.056780096,-2.0000002,0.0,-2.0000002,nan,nan,nan
212924000,82.188675,-116.49007,-9.945822,0.084270075,nan,4.5552497,0.36076862,-0.0015164332,-1.3925099,-0.113130346,-0.014783464,10.0,0.0,0.0,nan,nan,nan
213116000,83.032745,-116.423225,-9.945867,0.08416166,nan,4.284246,0.33916453,-7.5552765e-05,-1.4028374,-0.113130346,-0.020475902,10.0,0.0,1.279744,nan,nan,nan
213328000,83.90914,-116.35386,-9.945862,0.08373729,nan,3.9866834,0.31518105,0.00035130687,-1.3228375,-0.113130346,0.06279635,0.0,0.0,2.0000002,nan,nan,nan
213524000,84.666176,-116.29426,-9.945699,0.08314657,nan,3.742607,0.29300764,0.0016444484,-1.1628376,-0.113130346,-0.028610367,10.0,0.0,0.0,nan,nan,nan
213716000,85.3634,-116.24009,-9.945765,0.08254152,nan,3.5233414,0.27128676,-0.00041450746,-1.0828377,-0.113130346,-0.02232851,10.0,0.0,0.0,nan,nan,nan
213928000,86.086136,-116.18512,-9.94573,0.0816577,nan,3.2980201,0.24730326,0.001327303,-1.0428377,-0.113130346,0.021847803,-2.0000002,0.0,-2.0000002,nan,nan,nan
214124000,86.714,-116.13736,-9.945673,0.08087204,nan,3.1160238,0.24160974,0.0014520381,-0.8828378,-0.033130337,-0.013217412,10.0,0.0,0.0,nan,nan,nan
214316000,87.29564,-116.09208,-9.945826,0.08011592,nan,2.9426782,0.22892869,0.0019494263,-0.8828378,-0.07313034,0.021940857,10.0,0.0,0.0,nan,nan,nan
214528000,87.89844,-116.04519,-9.945922,0.07895839,nan,2.7403162,0.21342501,0.0016117669,-0.96283776,-0.07313034,0.018842153,0.0,0.0,-2.0000002,nan,nan,nan
214724000,88.41884,-116.00477,-9.945842,0.07797596,nan,2.5740798,0.19909142,0.001730638,-0.76283765,-0.07313034,-0.00892628,10.0,0.0,0.0,nan,nan,nan
214916000,88.89873,-115.96788,-9.94592,0.07721551,nan,2.4262547,0.18505035,0.00087169616,-0.7228376,-0.07313034,-0.015312821,10.0,0.0,0.0,nan,nan,nan
215128000,89.39664,-115.93017,-9.9459505,0.07628656,nan,2.2730126,0.1728267,9.799935e-05,-0.7228376,-0.033130337,0.0,-2.0000002,0.0,0.0,nan,nan,nan
215324000,89.82884,-115.89693,-9.945935,0.07469088,nan,2.138136,0.16633318,9.799935e-05,-0.6828376,-0.033130337,0.0,0.0,0.0,0.0,nan,nan,nan
215516000,90.228745,-115.86575,-9.94592,0.07279455,nan,2.0204709,0.15653215,9.799935e-05,-0.6828377,-0.07313034,0.0,10.0,0.0,0.0,nan,nan,nan
215728000,90.64288,-115.83413,-9.945903,0.07080126,nan,1.889469,0.1447085,9.799935e-05,-0.6028377,0.0068696663,0.0,0.0,0.0,0.0,nan,nan,nan
215924000,91.003105,-115.806114,-9.945888,0.06895389,nan,1.7866728,0.13973497,9.799935e-05,-0.60283774,-0.033130337,0.0,0.0,0.0,0.0,nan,nan,nan
216116000,91.336044,-115.780396,-9.945872,0.06693375,nan,1.6880484,0.12705392,9.799935e-05,-0.44283777,-0.07313034,0.0,10.0,0.0,0.0,nan,nan,nan
216328000,91.682976,-115.75428,-9.945887,0.06508951,nan,1.5832874,0.11963026,-0.00044280072,-0.52283776,-0.033130337,0.001600001,-2.0000002,0.0,2.0000002,nan,nan,nan
216524000,91.98366,-115.731476,-9.945894,0.0634092,nan,1.4847318,0.11313667,-0.00021304071,-0.48283777,-0.033130337,0.0,10.0,0.0,0.0,nan,nan,nan
216716000,92.25978,-115.710365,-9.94591,0.061432257,nan,1.3950673,0.106775604,-4.0240673e-05,-0.40283778,-0.033130337,0.0384,10.0,0.0,-2.4000003,nan,nan,nan
216928000,92.54629,-115.68845,-9.945923,0.0587759,nan,1.3096657,0.100151934,9.799932e-05,-0.40283778,0.0068696663,0.0,-2.0000002,2.0000002,0.0,nan,nan,nan
217124000,92.79523,-115.66905,-9.945908,0.05641929,nan,1.2367896,0.096138366,9.799932e-05,-0.2428378,-0.033130337,0.0,0.0,0.0,0.0,nan,nan,nan
217316000,93.02654,-115.65119,-9.945892,0.053968806,nan,1.1688043,0.0897773,9.799932e-05,-0.3628378,-0.033130337,0.0,10.0,0.0,0.0,nan,nan,nan
217528000,93.26576,-115.6329,-9.945875,0.050602034,nan,1.0885222,0.084113635,9.799932e-05,-0.3628378,0.0068696663,0.0,0.0,0.0,0.0,nan,nan,nan
217724000,93.47292,-115.61677,-9.945903,0.047710128,nan,1.0266855,0.07914006,0.00044999935,-0.2828378,-0.033130337,0.032,10.0,0.0,0.0,nan,nan,nan
217916000,93.66436,-115.60197,-9.945879,0.04539042,nan,0.96654046,0.07565902,-0.00021304071,-0.3228378,-0.033130337,0.0,0.0,0.0,0.0,nan,nan,nan
218128000,93.86375,-115.58655,-9.945877,0.04759686,nan,0.90812653,0.06989435,-0.00043704073,-0.33827025,-0.026504269,-0.032,-2.0000002,0.0,0.0,nan,nan,nan
218324000,94.02686,-115.572495,-9.945928,0.18268536,nan,0.6943856,0.076379515,9.799932e-05,-2.0582702,0.053495735,0.0,-10.0,0.0,0.0,nan,nan,nan
218516000,94.11213,-115.55685,-9.945912,0.33348182,nan,0.16487774,0.08665071,9.799932e-05,-2.9782703,0.053495735,0.0,0.0,0.0,0.0,nan,nan,nan
218728000,94.11015,-115.54591,-9.945901,0.4999862,nan,-0.19749513,0.09315966,9.799932e-05,-2.9782703,0.053495735,0.0,0.0,0.0,0.0,nan,nan,nan
218924000,94.090996,-115.53975,-9.945893,0.6539242,nan,-0.39127815,0.09664038,9.799932e-05,-2.9782703,0.053495735,0.0,0.0,0.0,0.0,nan,nan,nan
219116000,94.06217,-115.53387,-9.945886,0.80472064,nan,-0.5699315,0.09984935,9.799932e-05,-2.9782703,0.053495735,0.0,0.0,0.0,0.0,nan,nan,nan
219328000,94.01802,-115.52716,-9.945877,0.971225,nan,-0.7666809,0.10338336,9.799932e-05,-2.9782703,0.053495735,0.0,0.0,0.0,0.0,nan,nan,nan
