timestamp,states[0],states[1],states[2],states[3],states[4],states[5],states[6],states[7],states[8],states[9],states[10],states[11],states[12],states[13],states[14],states[15],states[16],states[17],states[18],states[19],states[20],states[21],states[22],states[23],vibe[0],vibe[1],vibe[2],covariances[0],covariances[1],covariances[2],covariances[3],covariances[4],covariances[5],covariances[6],covariances[7],covariances[8],covariances[9],covariances[10],covariances[11],covariances[12],covariances[13],covariances[14],covariances[15],covariances[16],covariances[17],covariances[18],covariances[19],covariances[20],covariances[21],covariances[22],covariances[23],control_mode_flags,pos_horiz_accuracy,pos_vert_accuracy,mag_test_ratio,vel_test_ratio,pos_test_ratio,hgt_test_ratio,tas_test_ratio,hagl_test_ratio,beta_test_ratio,time_slip,gps_check_fail_flags,filter_fault_flags,innovation_check_flags,solution_status_flags,n_states,pre_flt_fail,health_flags,timeout_flags
3160000,0.9790472,-0.008160858,-0.015291663,0.20289485,0.018098643,0.00026383973,-0.11274812,0.0025995946,-0.00019320505,-0.0468531,-3.75677e-09,-1.2198613e-08,1.6087667e-07,1.1592763e-06,-7.0763787e-07,-2.2045479e-06,0.20307635,0.009092642,0.43550566,0.0,0.0,0.0,0.0,0.0,5.739083e-10,2.4972886e-05,0.00030157223,2.100284e-05,4.3069107e-05,4.2989916e-05,0.0004860499,0.11987844,0.11987967,0.4487797,0.027747659,0.027747689,0.19071609,6.399208e-09,6.399222e-09,6.3754486e-09,2.54819e-06,2.548189e-06,2.5519275e-06,0.0,0.0,0.0,0.0,0.0,0.0,0.0,0.0,531,0.2355745,0.43671054,0.008211495,0.0,4.8982547e-05,0.0086105745,0.0,0.0,0.0,0.0,0,0,0,165,24,0,0,0
3360000,0.9790855,-0.008192934,-0.015859004,0.20266455,0.027361605,0.0015021465,-0.11323794,0.0043240497,-1.0081948e-05,-0.045460388,-1.9641933e-08,-5.101569e-08,2.5971923e-07,3.736031e-06,-1.834841e-06,-1.1509752e-05,0.20307635,0.009092642,0.43550566,0.0,0.0,0.0,0.0,0.0,5.821085e-10,2.5328654e-05,0.00029166034,1.7986678e-05,5.2485007e-05,5.241137e-05,0.000416322,0.07267401,0.07267581,0.37701938,0.021920228,0.021920279,0.18778129,6.394915e-09,6.39494e-09,6.358141e-09,2.5258225e-06,2.5258198e-06,2.5396905e-06,0.0,0.0,0.0,0.0,0.0,0.0,0.0,0.0,531,0.20938124,0.4333374,0.00037693878,0.0,8.5887e-05,0.0051472615,0.0,0.0,0.0,0.0,0,0,0,165,24,0,0,0
3560000,0.97902846,-0.008344009,-0.016492728,0.20288332,0.035023645,0.0015966491,-0.1323024,0.006446804,0.00016643124,-0.06222037,-7.264106e-08,-1.7008188e-07,1.1712129e-07,1.056045e-05,-4.612846e-06,-1.5809517e-05,0.20307635,0.009092642,0.43550566,0.0,0.0,0.0,0.0,0.0,5.894476e-10,2.3847731e-05,0.00030044687,1.5568825e-05,6.3622145e-05,6.3553816e-05,0.00036004753,0.055328965,0.055331286,0.30780712,0.018410258,0.018410346,0.18374619,6.381029e-09,6.3810703e-09,6.3310415e-09,2.4785174e-06,2.4785093e-06,2.5194965e-06,0.0,0.0,0.0,0.0,0.0,0.0,0.0,0.0,531,0.19188696,0.42865625,0.015849965,0.0,0.00013396259,0.014424286,0.0,0.0,0.0,0.0,0,0,0,165,24,0,0,0
3760000,0.9790823,-0.008312036,-0.017206201,0.20256557,0.04469498,0.0024102186,-0.12885118,0.009603886,0.00040321497,-0.06194415,-1.5841947e-07,-4.0642496e-07,3.689672e-07,2.1942651e-05,-8.880521e-06,-3.1151005e-05,0.20307635,0.009092642,0.43550566,0.0,0.0,0.0,0.0,0.0,6.60696e-10,2.509417e-05,0.00028453712,1.4011813e-05,7.6274795e-05,7.6206554e-05,0.0003240005,0.052361064,0.052364457,0.2575381,0.017514916,0.017515078,0.18573217,6.351811e-09,6.35187e-09,6.299205e-09,2.4067724e-06,2.4067535e-06,2.4946296e-06,0.0,0.0,0.0,0.0,0.0,0.0,0.0,0.0,531,0.18716301,0.43096656,0.014023189,0.0,0.00019167455,0.003291185,0.0,0.0,0.0,0.0,0,0,0,165,24,0,0,0
3960000,0.97911507,-0.008260312,-0.017789911,0.20235857,0.05264024,0.0024641983,-0.144015,0.012543486,0.00047807713,-0.07722614,-3.541356e-07,-9.283534e-07,6.250051e-07,4.402788e-05,-1.7333148e-05,-4.0942057e-05,0.20307635,0.009092642,0.43550566,0.0,0.0,0.0,0.0,0.0,6.996051e-10,2.5763347e-05,0.0002777582,1.2665264e-05,8.969309e-05,8.962702e-05,0.0002925802,0.052225217,0.05222949,0.21155086,0.016186628,0.016186874,0.1767661,6.2850467e-09,6.2851244e-09,6.253803e-09,2.284992e-06,2.284951e-06,2.4584183e-06,0.0,0.0,0.0,0.0,0.0,0.0,0.0,0.0,531,0.17992638,0.4204356,0.015377474,0.0,0.00025940657,0.008828369,0.0,0.0,0.0,0.0,0,0,0,165,24,0,0,0
4156000,0.97913796,-0.008374573,-0.01825495,0.20220193,0.057492383,0.0036215936,-0.15724152,0.015449964,0.00060991326,-0.09460462,-6.5548454e-07,-1.7109649e-06,7.5338403e-07,7.291478e-05,-2.8456003e-05,-5.125803e-05,0.20307635,0.009092642,0.43550566,0.0,0.0,0.0,0.0,0.0,6.6609385e-10,2.4788545e-05,0.00027074188,1.1765869e-05,0.000102886705,0.00010282355,0.00027171613,0.055014547,0.055019353,0.18211669,0.016193226,0.01619358,0.17213686,6.181021e-09,6.181113e-09,6.2043743e-09,2.1411793e-06,2.1411083e-06,2.4183184e-06,0.0,0.0,0.0,0.0,0.0,0.0,0.0,0.0,531,0.17996335,0.4148938,0.005753395,0.0,0.00030986522,0.002592073,0.0,0.0,0.0,0.0,0,0,0,165,24,0,0,0
4356000,0.97916514,-0.008287692,-0.018641178,0.20203829,0.065051615,0.00375583,-0.15223733,0.017895004,0.0008436833,-0.09022536,-1.1396837e-06,-2.9868195e-06,8.1359224e-07,0.000113487615,-4.3499753e-05,-8.472964e-05,0.20307635,0.009092642,0.43550566,0.0,0.0,0.0,0.0,0.0,6.4248584e-10,2.4260784e-05,0.00027626773,1.0944112e-05,0.00011578166,0.00011572124,0.0002528321,0.056388333,0.056393944,0.1573501,0.016069034,0.01606948,0.16340375,6.006238e-09,6.006337e-09,6.1373036e-09,1.9578574e-06,1.9577426e-06,2.3642415e-06,0.0,0.0,0.0,0.0,0.0,0.0,0.0,0.0,531,0.17927217,0.4042323,0.014035112,0.0,0.00036998696,0.0024986153,0.0,0.0,0.0,0.0,0,0,0,165,24,0,0,0
4556000,0.9791213,-0.0082949335,-0.018986966,0.202218,0.07035949,0.0030490318,-0.15476409,0.020979093,0.0010185298,-0.09397924,-1.6986091e-06,-4.468866e-06,7.2947756e-07,0.00015448775,-5.8530368e-05,-0.00011385945,0.20307635,0.009092642,0.43550566,0.0,0.0,0.0,0.0,0.0,6.5530276e-10,2.4325056e-05,0.00028928753,1.0448979e-05,0.00012841153,0.00012835317,0.00024083469,0.05851342,0.058519218,0.14404924,0.017047994,0.01704857,0.1609118,5.8018883e-09,5.801984e-09,6.0678054e-09,1.7963699e-06,1.7962107e-06,2.3076977e-06,0.0,0.0,0.0,0.0,0.0,0.0,0.0,0.0,531,0.18465254,0.40113813,0.007917038,0.0,0.0004109185,0.0046962677,0.0,0.0,0.0,0.0,0,0,0,165,24,0,0,0
4756000,0.97902024,-0.008294698,-0.019071719,0.20269938,0.069834165,0.001126031,-0.16620901,0.021868298,0.0007153921,-0.11277643,-2.4898045e-06,-6.4815645e-06,3.6134278e-08,0.00020247384,-7.665927e-05,-0.00013130398,0.20307635,0.009092642,0.43550566,0.0,0.0,0.0,0.0,0.0,6.50857e-10,2.4772846e-05,0.00029055652,9.964806e-06,0.00013880502,0.00013875139,0.00022918105,0.05611464,0.056119464,0.13197215,0.016799562,0.016800126,0.15257931,5.5244893e-09,5.5245635e-09,5.978107e-09,1.6356726e-06,1.6354661e-06,2.2326376e-06,0.0,0.0,0.0,0.0,0.0,0.0,0.0,0.0,531,0.18330218,0.390614,0.00086961914,0.0,0.0004409996,0.00025745702,0.0,0.0,0.0,0.0,0,0,0,165,24,0,0,0
4956000,0.9789599,-0.008058617,-0.019110467,0.20299633,0.07028364,0.003621683,-0.16776249,0.023250688,0.000748182,-0.114845075,-3.2842518e-06,-8.433936e-06,-7.2032975e-07,0.00024084192,-9.130735e-05,-0.00017428685,0.20307635,0.009092642,0.43550566,0.0,0.0,0.0,0.0,0.0,5.991492e-10,2.491748e-05,0.0003056785,9.673472e-06,0.0001491404,0.0001490884,0.00022240891,0.05480463,0.054809038,0.12676442,0.01753015,0.017530723,0.15101342,5.252127e-09,5.2521747e-09,5.8880643e-09,1.5246717e-06,1.5244309e-06,2.1553349e-06,0.0,0.0,0.0,0.0,0.0,0.0,0.0,0.0,531,0.18724549,0.38860446,0.014192102,0.0,0.00045840951,0.017700141,0.0,0.0,0.0,0.0,0,0,0,165,24,0,0,0
5156000,0.97899854,-0.0079670455,-0.019026037,0.2028216,0.06811079,0.003815424,-0.17118868,0.02298641,0.0009227894,-0.12006969,-4.162027e-06,-1.0703297e-05,-4.5197743e-07,0.00027715255,-0.00010500873,-0.00021677212,0.20307635,0.009092642,0.43550566,0.0,0.0,0.0,0.0,0.0,6.545035e-10,2.5103081e-05,0.0002973657,9.363511e-06,0.00015729877,0.00015725043,0.00021524896,0.05031362,0.050317258,0.12110446,0.016946742,0.01694724,0.14484234,4.9369664e-09,4.936981e-09,5.775155e-09,1.4391721e-06,1.438906e-06,2.0570888e-06,0.0,0.0,0.0,0.0,0.0,0.0,0.0,0.0,531,0.18410318,0.3805816,0.013302252,0.0,0.0004645109,0.009403458,0.0,0.0,0.0,0.0,0,0,0,165,24,0,0,0
5356000,0.97898763,-0.007836158,-0.018996386,0.20288175,0.06230254,0.008442104,-0.17233334,0.02219699,0.0015714292,-0.12519845,-5.0168037e-06,-1.3014461e-05,-5.642449e-07,0.00030504883,-0.00011475276,-0.00026345026,0.20307635,0.009092642,0.43550566,0.0,0.0,0.0,0.0,0.0,5.786033e-10,2.3860975e-05,0.00029280983,9.220115e-06,0.00016445512,0.00016440786,0.0002117765,0.045771793,0.045774702,0.117090285,0.016242452,0.01624288,0.1397554,4.618725e-09,4.618703e-09,5.664909e-09,1.3886116e-06,1.3883371e-06,1.9466436e-06,0.0,0.0,0.0,0.0,0.0,0.0,0.0,0.0,531,0.18023688,0.37383872,0.008540165,0.0,0.00045909904,0.0034056955,0.0,0.0,0.0,0.0,0,0,0,165,24,0,0,0
5556000,0.9788645,-0.007786054,-0.018899035,0.20348619,0.064535834,0.009104463,-0.16292244,0.022887254,0.0022506993,-0.11398434,-5.730035e-06,-1.506641e-05,-1.8013423e-06,0.0003215667,-0.000119160904,-0.00033931222,0.20307635,0.009092642,0.43550566,0.0,0.0,0.0,0.0,0.0,5.272179e-10,2.3543824e-05,0.00029150274,9.052608e-06,0.00017215699,0.00017211192,0.00020744793,0.043602675,0.04360559,0.116438836,0.016536975,0.016537404,0.14037442,4.3360595e-09,4.336023e-09,5.5307887e-09,1.3654379e-06,1.3651676e-06,1.8390533e-06,0.0,0.0,0.0,0.0,0.0,0.0,0.0,0.0,531,0.18186362,0.37466574,0.011606297,0.0,0.00045180687,0.034128275,0.0,0.0,0.0,0.0,0,0,0,165,24,0,0,0
5764000,0.9788991,-0.007893069,-0.018720916,0.20333195,0.06401069,0.009132527,-0.1658993,0.022845775,0.0025993553,-0.12277443,-6.4447863e-06,-1.7387076e-05,-1.4683778e-06,0.00033363907,-0.00012239606,-0.00038348333,0.20307635,0.009092642,0.43550566,0.0,0.0,0.0,0.0,0.0,5.7604327e-10,2.4006742e-05,0.00028576018,8.937958e-06,0.00017807311,0.00017803113,0.00020474294,0.040424168,0.040426895,0.11435128,0.016090453,0.016090853,0.13836722,4.0232826e-09,4.023226e-09,5.3864304e-09,1.354986e-06,1.3547337e-06,1.7103628e-06,0.0,0.0,0.0,0.0,0.0,0.0,0.0,0.0,531,0.17939149,0.37197745,0.004291098,0.0,0.00046149202,0.004411713,0.0,0.0,0.0,0.0,0,0,0,165,24,0,0,0
5956000,0.97892743,-0.007841088,-0.018589662,0.20320953,0.0637912,0.01010491,-0.15934011,0.02347393,0.002902076,-0.11908863,-7.0553806e-06,-1.9452453e-05,-1.0906962e-06,0.0003374033,-0.0001227393,-0.00044603873,0.20307635,0.009092642,0.43550566,0.0,0.0,0.0,0.0,0.0,5.936328e-10,2.4198689e-05,0.00027241878,8.891581e-06,0.00018289583,0.00018285465,0.00020356178,0.038546424,0.03854915,0.113098286,0.016006999,0.016007403,0.13844986,3.7484997e-09,3.748427e-09,5.250357e-09,1.3528971e-06,1.3526682e-06,1.5910776e-06,0.0,0.0,0.0,0.0,0.0,0.0,0.0,0.0,531,0.17892568,0.37208852,0.010548247,0.0,0.00046364428,0.00839017,0.0,0.0,0.0,0.0,0,0,0,165,24,0,0,0
6156000,0.97892,-0.007749392,-0.018353248,0.2032703,0.06128815,0.007793538,-0.14631104,0.02295851,0.0030376709,-0.11032509,-7.734249e-06,-2.1807526e-05,-1.2453376e-06,0.00033489353,-0.00012103813,-0.00051774277,0.20307635,0.009092642,0.43550566,0.0,0.0,0.0,0.0,0.0,6.3614836e-10,2.4635901e-05,0.00028702183,8.811764e-06,0.0001851163,0.00018507641,0.00020163583,0.035855915,0.035858296,0.109752886,0.015262637,0.015263025,0.13561922,3.4398826e-09,3.4397951e-09,5.0900786e-09,1.3525841e-06,1.3523872e-06,1.4536968e-06,0.0,0.0,0.0,0.0,0.0,0.0,0.0,0.0,531,0.17471595,0.36826515,0.008910781,0.0,0.00046345568,0.012924775,0.0,0.0,0.0,0.0,0,0,0,165,24,0,0,0
6356000,0.9788732,-0.0075574317,-0.018232375,0.20351392,0.055306766,0.007244728,-0.14499518,0.023043286,0.0031637284,-0.11695927,-8.323316e-06,-2.3890563e-05,-1.4346839e-06,0.00032789368,-0.00011851474,-0.0005585589,0.20307635,0.009092642,0.43550566,0.0,0.0,0.0,0.0,0.0,5.5935706e-10,2.3357048e-05,0.0002963872,8.8478855e-06,0.0001875341,0.00018749315,0.00020202986,0.035114292,0.0351163,0.108321555,0.015504966,0.01550535,0.13758434,3.1670098e-09,3.1669058e-09,4.9421387e-09,1.3501982e-06,1.350031e-06,1.3315832e-06,0.0,0.0,0.0,0.0,0.0,0.0,0.0,0.0,531,0.17609745,0.37092364,0.0038601027,0.0,0.00045722115,0.005688051,0.0,0.0,0.0,0.0,0,0,0,165,24,0,0,0
6556000,0.9788465,-0.007334947,-0.01785086,0.20368405,0.05277609,0.008865601,-0.13145185,0.021754012,0.003126526,-0.10607735,-8.947469e-06,-2.611367e-05,-1.9118102e-06,0.000314635,-0.00011389039,-0.00062771735,0.20307635,0.009092642,0.43550566,0.0,0.0,0.0,0.0,0.0,6.0696664e-10,2.5365482e-05,0.00028975483,8.797784e-06,0.00018618761,0.00018614739,0.000200856,0.033237513,0.033239625,0.10402701,0.0148811275,0.014881476,0.13499354,2.8663631e-09,2.866237e-09,4.7706044e-09,1.3422106e-06,1.3420754e-06,1.1978414e-06,0.0,0.0,0.0,0.0,0.0,0.0,0.0,0.0,531,0.17251842,0.36741465,0.010663663,0.0,0.00043966982,0.012301699,0.0,0.0,0.0,0.0,0,0,0,165,24,0,0,0
6756000,0.97883606,-0.007135909,-0.017492233,0.20377241,0.0491723,0.011912642,-0.12329289,0.02039327,0.0034895802,-0.107582256,-9.501518e-06,-2.826417e-05,-1.8621196e-06,0.00029789415,-0.00010896891,-0.00067157496,0.20307635,0.009092642,0.43550566,0.0,0.0,0.0,0.0,0.0,6.1890637e-10,2.5084139e-05,0.00028900622,8.844144e-06,0.00018280456,0.00018276469,0.00020176063,0.031575445,0.031577684,0.09926533,0.014313215,0.014313549,0.13234213,2.5714684e-09,2.5713103e-09,4.6148063e-09,1.326642e-06,1.3265349e-06,1.0697235e-06,0.0,0.0,0.0,0.0,0.0,0.0,0.0,0.0,531,0.16919446,0.36378857,0.0033286593,0.0,0.00042000707,0.0173269,0.0,0.0,0.0,0.0,0,0,0,165,24,0,0,0
6956000,0.9788289,-0.007073389,-0.017240284,0.2038302,0.04567377,0.017545171,-0.113917194,0.020134939,0.0045235436,-0.10187619,-9.907924e-06,-3.0099962e-05,-2.1435305e-06,0.000279813,-0.00010425586,-0.0007226399,0.20307635,0.009092642,0.43550566,0.0,0.0,0.0,0.0,0.0,5.9768945e-10,2.4348008e-05,0.00027845593,8.8046745e-06,0.00017979815,0.00017975924,0.0002009297,0.031319093,0.031321723,0.09629893,0.0146093955,0.014609781,0.13396168,2.31635e-09,2.3161741e-09,4.437437e-09,1.3056998e-06,1.3056132e-06,9.621863e-07,0.0,0.0,0.0,0.0,0.0,0.0,0.0,0.0,531,0.17093618,0.36600775,0.00339846,0.0,0.0003996381,0.01279784,0.0,0.0,0.0,0.0,0,0,0,165,24,0,0,0
7156000,0.9788221,-0.007081942,-0.016804656,0.20389892,0.042531796,0.022025457,-0.10502526,0.018738993,0.005771711,-0.09576385,-1.02126505e-05,-3.206958e-05,-2.696511e-06,0.00025743176,-0.000100157165,-0.00076885056,0.20307635,0.009092642,0.43550566,0.0,0.0,0.0,0.0,0.0,5.686319e-10,2.4076728e-05,0.00026810268,8.7582e-06,0.00017292346,0.00017288773,0.00020015467,0.02987145,0.029874358,0.09088692,0.014103867,0.0141042825,0.13100131,2.0439477e-09,2.0437545e-09,4.2587645e-09,1.274806e-06,1.2747352e-06,8.504002e-07,0.0,0.0,0.0,0.0,0.0,0.0,0.0,0.0,531,0.16795282,0.36194104,0.0021135006,0.0,0.00038577465,0.010660862,0.0,0.0,0.0,0.0,0,0,0,165,24,0,0,0
7356000,0.9788343,-0.0070058033,-0.016522514,0.20386654,0.04221881,0.023238208,-0.09534743,0.018585147,0.0073519,-0.09177878,-1.0324886e-05,-3.374899e-05,-2.5965658e-06,0.00023609694,-9.796736e-05,-0.00080733816,0.20307635,0.009092642,0.43550566,0.0,0.0,0.0,0.0,0.0,6.234055e-10,2.4176828e-05,0.00028423956,8.801965e-06,0.00016713348,0.00016709918,0.00020123151,0.029628983,0.029632095,0.087366335,0.014440906,0.014441403,0.13221607,1.8167123e-09,1.8165094e-09,4.0998867e-09,1.241649e-06,1.2415856e-06,7.5957087e-07,0.0,0.0,0.0,0.0,0.0,0.0,0.0,0.0,531,0.16994797,0.36361527,0.0013036118,0.0,0.0003687274,0.0096514225,0.0,0.0,0.0,0.0,0,0,0,165,24,0,0,0
7556000,0.97879726,-0.0070940545,-0.016215598,0.20406571,0.038882297,0.02134488,-0.08795453,0.01749624,0.007860902,-0.08982149,-1.036143e-05,-3.5538957e-05,-3.8001028e-06,0.00021092268,-9.715335e-05,-0.0008384852,0.20307635,0.009092642,0.43550566,0.0,0.0,0.0,0.0,0.0,6.2236205e-10,2.444978e-05,0.000292765,8.747655e-06,0.00015782035,0.00015778939,0.0002004083,0.028134624,0.028137498,0.0817346,0.013948444,0.01394895,0.12885827,1.5789218e-09,1.5787119e-09,3.9224872e-09,1.199051e-06,1.19899e-06,6.669151e-07,0.0,0.0,0.0,0.0,0.0,0.0,0.0,0.0,531,0.16702513,0.35896835,0.013210921,0.0,0.0003535384,0.00066960853,0.0,0.0,0.0,0.0,0,0,0,165,24,0,0,0
7756000,0.9787738,-0.007209067,-0.015888162,0.20420001,0.03621087,0.021104436,-0.08097751,0.01728249,0.008345013,-0.08423564,-1.0323757e-05,-3.7036876e-05,-4.0815976e-06,0.00018806475,-9.708012e-05,-0.00087158364,0.20307635,0.009092642,0.43550566,0.0,0.0,0.0,0.0,0.0,6.42731e-10,2.5606088e-05,0.00028461506,8.790476e-06,0.0001501506,0.00015012348,0.00020135795,0.027723664,0.027726427,0.077961996,0.0142460475,0.0142466,0.12950124,1.3857845e-09,1.3855672e-09,3.7667265e-09,1.1579834e-06,1.1579207e-06,5.9305125e-07,0.0,0.0,0.0,0.0,0.0,0.0,0.0,0.0,531,0.16879766,0.3598628,0.010019502,0.0,0.00034364825,0.0052792532,0.0,0.0,0.0,0.0,0,0,0,165,24,0,0,0
7956000,0.97880226,-0.0072247167,-0.015456234,0.20409587,0.03219296,0.017621148,-0.0771519,0.015885768,0.008152391,-0.08437483,-1.0236095e-05,-3.8568764e-05,-4.034119e-06,0.00016347753,-9.797847e-05,-0.0008933423,0.20307635,0.009092642,0.43550566,0.0,0.0,0.0,0.0,0.0,5.859873e-10,2.4905392e-05,0.00026997013,8.73356e-06,0.00013995389,0.00013993027,0.00020033377,0.026209397,0.026211713,0.0725527,0.013770862,0.013771381,0.12591735,1.1917077e-09,1.1914797e-09,3.5943355e-09,1.1103533e-06,1.1102861e-06,5.193752e-07,0.0,0.0,0.0,0.0,0.0,0.0,0.0,0.0,531,0.16595855,0.35484836,0.015671538,0.0,0.00032138242,0.002075651,0.0,0.0,0.0,0.0,0,0,0,165,24,0,0,0
8163999,0.978791,-0.0072874334,-0.015014845,0.20418079,0.02524576,0.016582241,-0.07330555,0.014389614,0.007647356,-0.07758664,-1.015138e-05,-3.990297e-05,-4.5357074e-06,0.00014013782,-9.8950884e-05,-0.0009229712,0.20307635,0.009092642,0.43550566,0.0,0.0,0.0,0.0,0.0,5.284462e-10,2.3616894e-05,0.00028365018,8.699932e-06,0.00013010256,0.00013008263,0.00019980624,0.024999281,0.025001183,0.06772287,0.013543687,0.013544161,0.12352753,1.0202286e-09,1.0199857e-09,3.4258145e-09,1.0622807e-06,1.0622078e-06,4.546176e-07,0.0,0.0,0.0,0.0,0.0,0.0,0.0,0.0,531,0.16458386,0.35146484,0.014616988,0.0,0.00029164497,0.0033322591,0.0,0.0,0.0,0.0,0,0,0,165,24,0,0,0
8364000,0.9787839,-0.007265147,-0.014569619,0.20424777,0.023046916,0.013381826,-0.058853682,0.012689248,0.0070202905,-0.06466293,-1.0055619e-05,-4.1024894e-05,-4.960841e-06,0.00011914794,-0.00010010377,-0.0009563836,0.20307635,0.009092642,0.43550566,0.0,0.0,0.0,0.0,0.0,4.7829257e-10,2.2490285e-05,0.0002793646,8.712743e-06,0.000120252065,0.00012023481,0.00020034335,0.023481606,0.023483178,0.06284044,0.013082658,0.013083079,0.119916506,8.713748e-10,8.711121e-10,3.279381e-09,1.0154017e-06,1.0153233e-06,3.9816297e-07,0.0,0.0,0.0,0.0,0.0,0.0,0.0,0.0,531,0.16175827,0.34628963,0.0034333803,0.0,0.00026063435,0.010973683,0.0,0.0,0.0,0.0,0,0,0,165,24,0,0,0
8564000,0.978776,-0.007262269,-0.014179674,0.20431323,0.020564554,0.014175213,-0.0560659,0.011257452,0.0064516664,-0.065416664,-9.959672e-06,-4.1964788e-05,-5.0023737e-06,0.00010123664,-0.00010164195,-0.00096906937,0.20307635,0.009092642,0.43550566,0.0,0.0,0.0,0.0,0.0,5.248493e-10,2.2743478e-05,0.00028478226,8.651538e-06,0.00011110572,0.000111090834,0.0001989004,0.022099108,0.022100592,0.058348227,0.012679695,0.012680075,0.11651343,7.4453305e-10,7.442524e-10,3.1199996e-09,9.711686e-07,9.710855e-07,3.493598e-07,0.0,0.0,0.0,0.0,0.0,0.0,0.0,0.0,531,0.15924752,0.34134063,0.0028617212,0.0,0.00023105498,0.0053704716,0.0,0.0,0.0,0.0,0,0,0,165,24,0,0,0
8764000,0.9787631,-0.007331929,-0.014029675,0.20438279,0.020293023,0.015415172,-0.052515086,0.0106051825,0.0066096894,-0.06549947,-9.868498e-06,-4.2672742e-05,-5.16538e-06,8.702122e-05,-0.000103229184,-0.0009815496,0.20307635,0.009092642,0.43550566,0.0,0.0,0.0,0.0,0.0,5.376443e-10,2.3365417e-05,0.00028079748,8.5849815e-06,0.00010415961,0.00010414597,0.00019734731,0.021572027,0.021573575,0.055353448,0.012958656,0.012959041,0.11661202,6.473644e-10,6.470725e-10,2.9663774e-09,9.3415747e-07,9.3407044e-07,3.114949e-07,0.0,0.0,0.0,0.0,0.0,0.0,0.0,0.0,531,0.16098975,0.34148502,0.026892405,0.0,0.00021428727,0.011996379,0.0,0.0,0.0,0.0,0,0,0,165,24,0,0,0
8964000,0.9787979,-0.007338825,-0.013825748,0.20422968,0.018996116,0.016094066,-0.047298945,0.009700222,0.0066816295,-0.0627725,-9.733996e-06,-4.3384825e-05,-4.658409e-06,7.240449e-05,-0.000105401996,-0.0009956693,0.20307635,0.009092642,0.43550566,0.0,0.0,0.0,0.0,0.0,5.7357047e-10,2.3934364e-05,0.00028365038,8.589825e-06,9.608417e-05,9.6071264e-05,0.00019747911,0.020219104,0.020220578,0.05139134,0.012542466,0.012542831,0.11324385,5.528474e-10,5.525442e-10,2.8347684e-09,8.9513236e-07,8.95041e-07,2.741169e-07,0.0,0.0,0.0,0.0,0.0,0.0,0.0,0.0,531,0.15838338,0.33651724,0.013539314,0.0,0.00019904252,0.0033572055,0.0,0.0,0.0,0.0,0,0,0,165,24,0,0,0
9164000,0.9788266,-0.0075170356,-0.013630597,0.20409882,0.017983953,0.017188733,-0.044501476,0.009463967,0.0071289716,-0.056969598,-9.606509e-06,-4.3948792e-05,-4.3611412e-06,6.0245733e-05,-0.000107600266,-0.0010111153,0.20307635,0.009092642,0.43550566,0.0,0.0,0.0,0.0,0.0,6.0308003e-10,2.3370147e-05,0.00029638945,8.507695e-06,8.993466e-05,8.992388e-05,0.00019567998,0.01961394,0.019615365,0.048685677,0.0127396295,0.012740011,0.11304243,4.805146e-10,4.8021e-10,2.6924578e-09,8.6294415e-07,8.6284933e-07,2.4495301e-07,0.0,0.0,0.0,0.0,0.0,0.0,0.0,0.0,531,0.15962343,0.33621782,0.005189941,0.0,0.00018834729,1.8054609e-05,0.0,0.0,0.0,0.0,0,0,0,165,24,0,0,0
9364000,0.978805,-0.007553251,-0.013511658,0.20420852,0.015216768,0.017451985,-0.04366549,0.008622439,0.0071409703,-0.060072724,-9.4581965e-06,-4.4511107e-05,-4.3416417e-06,4.7839767e-05,-0.00011070541,-0.0010166981,0.20307635,0.009092642,0.43550566,0.0,0.0,0.0,0.0,0.0,5.775912e-10,2.307105e-05,0.00030034632,8.509126e-06,8.3023246e-05,8.301296e-05,0.00019552332,0.018292649,0.018293845,0.04518393,0.012271463,0.012271814,0.1096078,4.1092726e-10,4.1062204e-10,2.571073e-09,8.297527e-07,8.2965386e-07,2.1619255e-07,0.0,0.0,0.0,0.0,0.0,0.0,0.0,0.0,531,0.15666294,0.3310707,0.0063132434,0.0,0.00017683815,0.0009390124,0.0,0.0,0.0,0.0,0,0,0,165,24,0,0,0
9564000,0.9788178,-0.0075145517,-0.01328561,0.20416383,0.015434808,0.017726805,-0.039552663,0.008375056,0.007592732,-0.05888324,-9.3138815e-06,-4.4952616e-05,-4.0704167e-06,3.7803195e-05,-0.000113605565,-0.0010257185,0.20307635,0.009092642,0.43550566,0.0,0.0,0.0,0.0,0.0,6.068503e-10,2.4153707e-05,0.0002985391,8.423218e-06,7.794912e-05,7.7939956e-05,0.00019348394,0.017706845,0.01770802,0.042824242,0.012436253,0.0124366125,0.109266475,3.5879785e-10,3.5849868e-10,2.4403293e-09,8.032478e-07,8.03146e-07,1.9391156e-07,0.0,0.0,0.0,0.0,0.0,0.0,0.0,0.0,531,0.15771134,0.3305548,0.0061128517,0.0,0.00016673327,0.0014540731,0.0,0.0,0.0,0.0,0,0,0,165,24,0,0,0
9764000,0.97882205,-0.0076839095,-0.0130538605,0.20415184,0.0153984185,0.019724285,-0.03633582,0.007815834,0.007971954,-0.057454385,-9.147853e-06,-4.5396773e-05,-4.0552914e-06,2.7304543e-05,-0.000117272975,-0.001033979,0.20307635,0.009092642,0.43550566,0.0,0.0,0.0,0.0,0.0,6.245721e-10,2.4859732e-05,0.0002881172,8.403962e-06,7.2342256e-05,7.233522e-05,0.00019309529,0.016530933,0.016532093,0.039807305,0.011977617,0.011977956,0.10594006,3.0884642e-10,3.0855435e-10,2.3294655e-09,7.762671e-07,7.7616215e-07,1.7191965e-07,0.0,0.0,0.0,0.0,0.0,0.0,0.0,0.0,531,0.15477587,0.32548434,0.0069188103,0.0,0.00016016158,0.009130608,0.0,0.0,0.0,0.0,0,0,0,165,24,0,0,0
9964000,0.9788648,-0.0076760403,-0.012926953,0.20395513,0.0100605525,0.01761427,-0.033706747,0.0070319483,0.007961716,-0.056897685,-8.957853e-06,-4.5808396e-05,-3.3649885e-06,1.766878e-05,-0.00012124054,-0.0010406153,0.20307635,0.009092642,0.43550566,0.0,0.0,0.0,0.0,0.0,6.3310773e-10,2.4993815e-05,0.00029199405,8.310483e-06,6.7352084e-05,6.734562e-05,0.00019087555,0.015441019,0.015441824,0.037038114,0.011533367,0.011533671,0.10272749,2.668236e-10,2.66543e-10,2.210438e-09,7.5216315e-07,7.520554e-07,1.5278692e-07,0.0,0.0,0.0,0.0,0.0,0.0,0.0,0.0,531,0.15187837,0.32051128,0.011796147,0.0,0.0001630246,0.008181449,0.0,0.0,0.0,0.0,0,0,0,165,24,0,0,0
10164000,0.97890407,-0.007844715,-0.012943591,0.2037592,0.008791293,0.015816396,-0.03189061,0.0063907513,0.00828054,-0.05750487,-8.794825e-06,-4.6117606e-05,-3.0831682e-06,1.0121154e-05,-0.00012495946,-0.0010453075,0.20307635,0.009092642,0.43550566,0.0,0.0,0.0,0.0,0.0,5.75406e-10,2.4475368e-05,0.00028906745,8.203167e-06,6.3693085e-05,6.368739e-05,0.00018860331,0.014943302,0.014943988,0.035158176,0.011647097,0.011647385,0.10224383,2.3521315e-10,2.3494476e-10,2.0973903e-09,7.330322e-07,7.3292256e-07,1.3789108e-07,0.0,0.0,0.0,0.0,0.0,0.0,0.0,0.0,531,0.1526253,0.31975588,0.0018267877,0.0,0.00016697957,0.0074657607,0.0,0.0,0.0,0.0,0,0,0,165,24,0,0,0
10364000,0.978948,-0.00805415,-0.0127933705,0.2035494,0.0075334692,0.013926558,-0.02946199,0.0055560735,0.007823634,-0.05293609,-8.617597e-06,-4.6414243e-05,-2.654943e-06,2.7214369e-06,-0.00012894771,-0.0010539716,0.20307635,0.009092642,0.43550566,0.0,0.0,0.0,0.0,0.0,5.9154986e-10,2.4430194e-05,0.00029088143,8.167097e-06,5.973262e-05,5.9728685e-05,0.00018791288,0.0140117835,0.014012337,0.032796428,0.0112308,0.011231043,0.09919967,2.0507569e-10,2.0481877e-10,2.0018702e-09,7.138524e-07,7.137411e-07,1.231893e-07,0.0,0.0,0.0,0.0,0.0,0.0,0.0,0.0,531,0.14987275,0.3149598,0.01427298,0.0,0.00016009354,0.008778846,0.0,0.0,0.0,0.0,0,0,0,165,24,0,0,0
10564000,0.9790519,-0.008100169,-0.012728822,0.20305155,0.0053289123,0.013853942,-0.028157936,0.004843635,0.0076840054,-0.056386024,-8.450389e-06,-4.665512e-05,-1.4002264e-06,-2.8078825e-06,-0.00013235184,-0.0010556702,0.20307635,0.009092642,0.43550566,0.0,0.0,0.0,0.0,0.0,5.737318e-10,2.3769104e-05,0.00029812305,8.059192e-06,5.681743e-05,5.681402e-05,0.00018552004,0.01357979,0.0135802105,0.031185187,0.01133084,0.011331064,0.09867478,1.8223165e-10,1.819868e-10,1.8998059e-09,6.985936e-07,6.9848153e-07,1.11685715e-07,0.0,0.0,0.0,0.0,0.0,0.0,0.0,0.0,531,0.15053871,0.31412542,0.012136337,0.0,0.00015267907,0.014430226,0.0,0.0,0.0,0.0,0,0,0,165,24,0,0,0
10764000,0.9791266,-0.008111714,-0.012535192,0.20270258,0.008982465,0.010611325,-0.022528153,0.004535978,0.0070648133,-0.05036316,-8.290758e-06,-4.687623e-05,-5.8610425e-07,-8.29666e-06,-0.00013580834,-0.0010637174,0.20307635,0.009092642,0.43550566,0.0,0.0,0.0,0.0,0.0,6.1248373e-10,2.4739118e-05,0.00028989965,8.01557e-06,5.364088e-05,5.3638305e-05,0.00018467027,0.012753478,0.0127538955,0.029158026,0.010922702,0.010922901,0.09575973,1.60272e-10,1.6003833e-10,1.8136802e-09,6.8323993e-07,6.831277e-07,1.0027553e-07,0.0,0.0,0.0,0.0,0.0,0.0,0.0,0.0,531,0.14780258,0.3094507,0.005206456,0.0,0.00014448419,0.0019145296,0.0,0.0,0.0,0.0,0,0,0,165,24,0,0,0
10964000,0.97917897,-0.0081179,-0.012613232,0.20244391,0.0079992935,0.0071353246,-0.018708093,0.004626509,0.006432934,-0.047728557,-8.177504e-06,-4.704701e-05,-8.181112e-08,-1.266401e-05,-0.00013838368,-0.0010684265,0.20307635,0.009092642,0.43550566,0.0,0.0,0.0,0.0,0.0,5.9688104e-10,2.3530081e-05,0.00028723184,7.900246e-06,5.1345894e-05,5.134279e-05,0.00018218975,0.0124020185,0.01240225,0.02779068,0.011026682,0.0110268695,0.09525547,1.4371121e-10,1.4348887e-10,1.721757e-09,6.711556e-07,6.7104327e-07,9.1358466e-08,0.0,0.0,0.0,0.0,0.0,0.0,0.0,0.0,531,0.14850438,0.30863485,0.019734688,0.0,0.00012931097,0.0066135162,0.0,0.0,0.0,0.0,0,0,0,165,24,0,0,0
11164000,0.97962797,-0.0083076535,-0.012480238,0.20026092,0.00025756913,-0.0097841425,0.00062681735,1.0302766e-06,-7.913657e-05,-0.044751488,-8.108268e-06,-4.7177346e-05,-4.0970917e-07,-1.6497983e-05,-0.0001404348,-0.0010725339,0.20567751,0.009209124,0.4348591,0.0,0.0,0.0,0.0,0.0,5.6366506e-10,2.3305794e-05,0.00028874452,7.955188e-05,4.99622e-05,4.980026e-05,0.0019000276,0.0500097,0.0500097,0.056257922,0.5000032,0.5000032,0.09186921,1.2935845e-10,1.2914327e-10,1.6730176e-09,6.6025734e-07,6.6014564e-07,8.247423e-08,0.0,0.0,0.0,0.0,0.0,0.0,0.0,0.0,535,1.0000032,0.30309933,0.0024555484,0.0,0.0,0.00475402,0.0,0.0,0.0,0.0,0,0,0,831,24,0,0,0
11364000,0.97946465,-0.008289003,-0.012428247,0.20106205,0.0008470279,-0.009904674,-0.0017141203,-0.00026472556,-0.0011891213,-0.03998538,-8.103482e-06,-4.7174726e-05,-4.12803e-07,-1.6125276e-05,-0.00014121825,-0.0010760635,0.20567751,0.009209124,0.4348591,0.0,0.0,0.0,0.0,0.0,6.0665434e-10,2.427138e-05,0.0002790475,4.4421307e-05,4.9832848e-05,4.9730206e-05,0.0010605475,0.042650137,0.042650152,0.05122732,0.33420613,0.33420613,0.078127295,1.2943e-10,1.2921464e-10,1.6730446e-09,6.5936973e-07,6.5925536e-07,7.5691496e-08,0.0,0.0,0.0,0.0,0.0,0.0,0.0,0.0,535,0.81756485,0.2795126,0.005686378,0.010658766,0.0003681028,0.0018433026,0.0,0.0,0.0,0.0,0,0,0,831,24,0,0,0
11564000,0.97923785,-0.008293752,-0.0126048,0.20215248,0.002738724,-0.011687207,0.0014587505,0.00046515872,-0.001994483,-0.03251077,-8.098894e-06,-4.7181107e-05,-4.4741782e-07,-1.745212e-05,-0.00014210824,-0.001080649,0.20567751,0.009209124,0.4348591,0.0,0.0,0.0,0.0,0.0,5.9983735e-10,2.4872921e-05,0.0002865561,3.082532e-05,4.9534032e-05,4.9450275e-05,0.0007359422,0.038780835,0.03878079,0.046744082,0.2524743,0.2524743,0.07232036,1.2943484e-10,1.2921897e-10,1.6728604e-09,6.563882e-07,6.5627285e-07,7.13602e-08,0.0,0.0,0.0,0.0,0.0,0.0,0.0,0.0,535,0.71059734,0.26892444,0.009792701,0.0051465183,0.00059880596,0.003305144,0.0,0.0,0.0,0.0,0,0,0,831,24,0,0,0
11764000,0.97925776,-0.008324944,-0.012452837,0.20206414,0.00011938845,-0.010200592,0.002401684,-0.0023228857,-0.002750625,-0.031409096,-8.086423e-06,-4.717618e-05,-4.416654e-07,-1.6547012e-05,-0.00014434074,-0.0010806525,0.20567751,0.009209124,0.4348591,0.0,0.0,0.0,0.0,0.0,5.6174e-10,2.4957719e-05,0.00028250332,2.4231462e-05,4.8915583e-05,4.8847967e-05,0.0005790721,0.03710063,0.03710056,0.042449284,0.2044381,0.2044381,0.06866514,1.2936315e-10,1.2914633e-10,1.6724484e-09,6.507064e-07,6.50591e-07,6.7744054e-08,0.0,0.0,0.0,0.0,0.0,0.0,0.0,0.0,535,0.6394343,0.26204035,0.011372188,0.00502298,0.0021331625,0.017768472,0.0,0.0,0.0,0.0,0,0,0,831,24,0,0,0
11964000,0.9792698,-0.008292765,-0.0123386225,0.2020144,-0.0004395816,-0.0103317965,0.0031034183,-0.0020027775,-0.0039000518,-0.024848992,-8.086609e-06,-4.7177633e-05,-4.4789135e-07,-1.6894885e-05,-0.00014429478,-0.0010838269,0.20567751,0.009209124,0.4348591,0.0,0.0,0.0,0.0,0.0,5.421028e-10,2.4463792e-05,0.0002765827,1.9545954e-05,4.794782e-05,4.7888774e-05,0.00046751936,0.036784876,0.03678483,0.038493495,0.173329,0.173329,0.06815373,1.2922319e-10,1.2900497e-10,1.6715946e-09,6.422038e-07,6.4208916e-07,6.5331946e-08,0.0,0.0,0.0,0.0,0.0,0.0,0.0,0.0,535,0.5887767,0.26106268,0.00904194,0.0008335708,0.00084863196,0.015762711,0.0,0.0,0.0,0.0,0,0,0,831,24,0,0,0
12164000,0.97933483,-0.008183896,-0.012361984,0.20170192,0.0015462537,-0.012248291,0.005517848,-0.0017207137,-0.0041813566,-0.018852573,-8.072081e-06,-4.718282e-05,-4.1200332e-07,-1.7791339e-05,-0.00014691889,-0.0010858554,0.20567751,0.009209124,0.4348591,0.0,0.0,0.0,0.0,0.0,6.0777183e-10,2.5382913e-05,0.00028550244,1.6716443e-05,4.6668014e-05,4.661259e-05,0.0003997918,0.03724025,0.037240416,0.034576003,0.15196043,0.15196045,0.06749556,1.2903599e-10,1.2881597e-10,1.6704308e-09,6.311846e-07,6.3107115e-07,6.328766e-08,0.0,0.0,0.0,0.0,0.0,0.0,0.0,0.0,535,0.55129015,0.2597991,0.0026799075,0.0052465675,0.0011325933,0.0069051054,0.0,0.0,0.0,0.0,0,0,0,831,24,0,0,0
12364000,0.9794122,-0.008113928,-0.012539301,0.20131774,0.0047936593,-0.010802917,0.0068621975,-0.0004901086,-0.0046448405,-0.015452576,-8.059263e-06,-4.7195517e-05,-3.303927e-07,-2.0065734e-05,-0.00014905017,-0.0010862894,0.20567751,0.009209124,0.4348591,0.0,0.0,0.0,0.0,0.0,6.1641664e-10,2.5150692e-05,0.00028329613,1.4400738e-05,4.5149896e-05,4.5100634e-05,0.00034420236,0.038029734,0.038030196,0.031124035,0.13672625,0.13672625,0.068473004,1.2882852e-10,1.2860697e-10,1.6685543e-09,6.182737e-07,6.1816127e-07,6.192075e-08,0.0,0.0,0.0,0.0,0.0,0.0,0.0,0.0,535,0.52292687,0.26167348,0.018109813,0.006532008,0.0012358446,0.0019543157,0.0,0.0,0.0,0.0,0,0,0,831,24,0,0,0
12564000,0.97934437,-0.008236436,-0.012583506,0.20163916,0.005827152,-0.0039200946,0.0068320334,-9.06707e-05,-0.0049531735,-0.015759664,-8.054297e-06,-4.7190162e-05,-4.1926683e-07,-1.9297253e-05,-0.00015063636,-0.0010857444,0.20567751,0.009209124,0.4348591,0.0,0.0,0.0,0.0,0.0,6.339033e-10,2.4886329e-05,0.00028949845,1.28468255e-05,4.349988e-05,4.3457858e-05,0.00030707382,0.03883844,0.038839176,0.027726807,0.12560216,0.1256022,0.06839658,1.2862864e-10,1.2840556e-10,1.6663506e-09,6.04262e-07,6.041502e-07,6.0766226e-08,0.0,0.0,0.0,0.0,0.0,0.0,0.0,0.0,535,0.50120294,0.26152742,0.015519377,0.0022597534,0.001151025,0.0037753105,0.0,0.0,0.0,0.0,0,0,0,831,24,0,0,0
12764000,0.9793292,-0.008278815,-0.012611699,0.20170921,0.0048731836,-0.0020652888,0.009121753,0.0003536754,-0.0045337593,-0.010286191,-8.051563e-06,-4.7184818e-05,-4.768952e-07,-1.837115e-05,-0.00015159707,-0.0010874572,0.20567751,0.009209124,0.4348591,0.0,0.0,0.0,0.0,0.0,6.420871e-10,2.5432684e-05,0.00028694037,1.1463731e-05,4.1823278e-05,4.178737e-05,0.00027426652,0.039467458,0.03946833,0.024632096,0.117351204,0.11735128,0.06822228,1.2845833e-10,1.282341e-10,1.6631425e-09,5.8994823e-07,5.898365e-07,5.991407e-08,0.0,0.0,0.0,0.0,0.0,0.0,0.0,0.0,535,0.484461,0.26119393,0.002871617,0.010789626,0.0010050791,0.007482361,0.0,0.0,0.0,0.0,0,0,0,831,24,0,0,0
12964000,0.9793616,-0.0081504155,-0.012579562,0.2015595,0.00419602,-0.0034105994,0.007819842,0.0006009172,-0.0051438306,-0.010172753,-8.055223e-06,-4.717908e-05,-4.6431754e-07,-1.6853859e-05,-0.00015058652,-0.0010870813,0.20567751,0.009209124,0.4348591,0.0,0.0,0.0,0.0,0.0,6.4561817e-10,2.6195354e-05,0.00027850634,1.0373839e-05,4.0210816e-05,4.017929e-05,0.00024838612,0.03981913,0.03982017,0.022084877,0.11116642,0.11116648,0.06905088,1.283325e-10,1.2810758e-10,1.6590948e-09,5.7602006e-07,5.759078e-07,5.93425e-08,0.0,0.0,0.0,0.0,0.0,0.0,0.0,0.0,535,0.47152188,0.26277533,0.0006382318,0.0028221507,0.0008968527,0.001412613,0.0,0.0,0.0,0.0,0,0,0,831,24,0,0,0
13164000,0.979375,-0.008133314,-0.012563347,0.20149583,0.007352728,0.00034765486,0.0079921745,0.00077528146,-0.0035793213,-0.012800722,-8.045142e-06,-4.7184134e-05,-4.2217937e-07,-1.8103328e-05,-0.00015298724,-0.0010863559,0.20567751,0.009209124,0.4348591,0.0,0.0,0.0,0.0,0.0,5.9109523e-10,2.4093235e-05,0.0002678793,9.610796e-06,3.8731872e-05,3.8704464e-05,0.00022996949,0.03984939,0.039850745,0.019635197,0.10649609,0.10649619,0.068470344,1.2825768e-10,1.2803239e-10,1.6547447e-09,5.6298e-07,5.628666e-07,5.8853562e-08,0.0,0.0,0.0,0.0,0.0,0.0,0.0,0.0,535,0.46151087,0.26166838,0.018080276,0.0050175814,0.0024330385,0.005430819,0.0,0.0,0.0,0.0,0,0,0,831,24,0,0,0
13364000,0.97941536,-0.008254847,-0.012514674,0.20129777,0.007970274,0.004303972,0.005961979,0.00087323115,-0.001893859,-0.013998749,-8.036525e-06,-4.7181602e-05,-3.6449674e-07,-1.6977145e-05,-0.00015517665,-0.0010859186,0.20567751,0.009209124,0.4348591,0.0,0.0,0.0,0.0,0.0,6.261236e-10,2.4383924e-05,0.00027742068,8.8815505e-06,3.7426962e-05,3.740377e-05,0.00021259257,0.03958825,0.039589826,0.017692743,0.10294954,0.10294967,0.06883632,1.2823252e-10,1.2800731e-10,1.6489136e-09,5.5114964e-07,5.5103476e-07,5.8514104e-08,0.0,0.0,0.0,0.0,0.0,0.0,0.0,0.0,535,0.4537612,0.26236677,0.014316988,0.0034237397,0.0006093791,0.0031492251,0.0,0.0,0.0,0.0,0,0,0,831,24,0,0,0
13564000,0.9793921,-0.008266002,-0.012567452,0.20140707,0.00945199,0.0049420395,0.006009526,0.00096798735,-0.0014492405,-0.015409182,-8.037996e-06,-4.717446e-05,-4.0705814e-07,-1.4629648e-05,-0.00015502489,-0.0010855495,0.20567751,0.009209124,0.4348591,0.0,0.0,0.0,0.0,0.0,6.440135e-10,2.523626e-05,0.00028582307,8.365494e-06,3.6318866e-05,3.6297588e-05,0.00020006373,0.039064743,0.03906661,0.015842667,0.10024453,0.1002447,0.06780656,1.2825171e-10,1.2802662e-10,1.6428494e-09,5.4068136e-07,5.4056505e-07,5.820845e-08,0.0,0.0,0.0,0.0,0.0,0.0,0.0,0.0,535,0.44776022,0.26039693,0.0022490355,0.0040793424,0.00049564993,0.00019062421,0.0,0.0,0.0,0.0,0,0,0,831,24,0,0,0
13764000,0.9793604,-0.008295821,-0.012615151,0.20155694,0.009506999,0.0015784516,0.0049135303,0.0027916867,-0.0024153371,-0.012419218,-8.046759e-06,-4.716895e-05,-5.8041695e-07,-1.3660125e-05,-0.00015286573,-0.0010857988,0.20567751,0.009209124,0.4348591,0.0,0.0,0.0,0.0,0.0,6.0715394e-10,2.404901e-05,0.00028228297,7.852137e-06,3.5409506e-05,3.5390698e-05,0.00018787413,0.03834367,0.038345493,0.014436192,0.098172955,0.09817319,0.06777051,1.2830409e-10,1.2808059e-10,1.6349541e-09,5.316077e-07,5.314898e-07,5.797644e-08,0.0,0.0,0.0,0.0,0.0,0.0,0.0,0.0,535,0.44310963,0.2603277,0.0011140082,0.0051906733,0.00056912773,0.0015400613,0.0,0.0,0.0,0.0,0,0,0,831,24,0,0,0
13964000,0.9793481,-0.008385422,-0.012591484,0.20161478,0.013093837,-0.002809649,0.010879613,0.005570948,-0.005728172,-0.007990718,-8.052893e-06,-4.716665e-05,-6.478967e-07,-1.3215272e-05,-0.00014940985,-0.0010861625,0.20567751,0.009209124,0.4348591,0.0,0.0,0.0,0.0,0.0,6.0161137e-10,2.490407e-05,0.00028433173,7.4876916e-06,3.469498e-05,3.4678003e-05,0.00017911315,0.037458364,0.037460238,0.013107298,0.096581094,0.09658138,0.06643956,1.2838011e-10,1.2815737e-10,1.6269908e-09,5.2386616e-07,5.237461e-07,5.7745847e-08,0.0,0.0,0.0,0.0,0.0,0.0,0.0,0.0,535,0.43950254,0.25775874,0.009039592,0.0076427264,0.0009858889,0.00159473,0.0,0.0,0.0,0.0,0,0,0,831,24,0,0,0
14164000,0.9793284,-0.008250394,-0.012574267,0.20171687,0.014438999,-0.0048565688,0.009058127,0.0054724524,-0.005193865,-0.009095119,-8.0536e-06,-4.7163e-05,-7.4474434e-07,-1.1128364e-05,-0.000151271,-0.0010858321,0.20567751,0.009209124,0.4348591,0.0,0.0,0.0,0.0,0.0,5.607081e-10,2.3794777e-05,0.0002665288,7.1236673e-06,3.4160294e-05,3.4143188e-05,0.00017032896,0.036483165,0.03648519,0.0120081045,0.095351875,0.09535222,0.06502516,1.2846664e-10,1.2824343e-10,1.6168579e-09,5.173616e-07,5.1723913e-07,5.7526485e-08,0.0,0.0,0.0,0.0,0.0,0.0,0.0,0.0,535,0.4366968,0.25500032,0.01484412,0.0062444066,0.0016239292,0.007933376,0.0,0.0,0.0,0.0,0,0,0,831,24,0,0,0
14364000,0.97939646,-0.008337287,-0.012388402,0.20139425,0.013674531,-0.0051025585,0.011990035,0.005516684,-0.0068584825,-0.0011509137,-8.049623e-06,-4.71681e-05,-5.687713e-07,-8.784526e-06,-0.00015147301,-0.0010865952,0.20567751,0.009209124,0.4348591,0.0,0.0,0.0,0.0,0.0,5.300537e-10,2.3968667e-05,0.00028630815,6.806314e-06,3.378762e-05,3.3771972e-05,0.00016289388,0.035444118,0.035446174,0.011234802,0.09439847,0.09439887,0.064610004,1.2855067e-10,1.2832732e-10,1.6054608e-09,5.119666e-07,5.118417e-07,5.7320072e-08,0.0,0.0,0.0,0.0,0.0,0.0,0.0,0.0,535,0.43450814,0.254185,0.0045864503,0.0060031144,0.0016188552,0.0036775782,0.0,0.0,0.0,0.0,0,0,0,831,24,0,0,0
14564000,0.9794443,-0.008358316,-0.012267675,0.2011682,0.015211836,-0.0032490385,0.009701698,0.0052469494,-0.0064760437,-0.0029479773,-8.047639e-06,-4.7175483e-05,-3.9851892e-07,-6.9722346e-06,-0.00015289332,-0.001086093,0.20567751,0.009209124,0.4348591,0.0,0.0,0.0,0.0,0.0,5.4136234e-10,2.3988965e-05,0.00029784554,6.5888776e-06,3.3559765e-05,3.3544857e-05,0.0001577165,0.03438139,0.03438364,0.010513179,0.09365396,0.093654424,0.063112795,1.2862063e-10,1.2839717e-10,1.594268e-09,5.075498e-07,5.074222e-07,5.7081802e-08,0.0,0.0,0.0,0.0,0.0,0.0,0.0,0.0,535,0.43279138,0.2512226,0.0048317653,0.006649566,0.0016142998,0.009291663,0.0,0.0,0.0,0.0,0,0,0,831,24,0,0,0
14764000,0.9794327,-0.008332988,-0.012246517,0.2012271,0.017462036,-0.0027104875,0.0062358123,0.0082263285,-0.0060034418,-0.0019053709,-8.048985e-06,-4.7172234e-05,-4.568022e-07,-7.2416024e-06,-0.00015331451,-0.0010859638,0.20567751,0.009209124,0.4348591,0.0,0.0,0.0,0.0,0.0,5.7201e-10,2.358353e-05,0.00029908368,6.365241e-06,3.3458153e-05,3.3443466e-05,0.00015225225,0.03332163,0.033323877,0.010051436,0.09306758,0.09306812,0.0626009,1.2866232e-10,1.2843908e-10,1.5804408e-09,5.039822e-07,5.0385177e-07,5.6834345e-08,0.0,0.0,0.0,0.0,0.0,0.0,0.0,0.0,535,0.43143448,0.25020173,0.0048793433,0.0017237889,0.0016107312,0.0017470137,0.0,0.0,0.0,0.0,0,0,0,831,24,0,0,0
14964000,0.97942734,-0.008265916,-0.012382206,0.20124726,0.018480603,0.0008282759,0.0068969834,0.012517857,-0.0041597183,-0.0012011175,-8.05333e-06,-4.7160458e-05,-5.6835853e-07,-8.485412e-06,-0.00015398837,-0.0010856779,0.20567751,0.009209124,0.4348591,0.0,0.0,0.0,0.0,0.0,5.654777e-10,2.474378e-05,0.00029117352,6.2129757e-06,3.3467437e-05,3.3452197e-05,0.00014861794,0.032274086,0.0322762,0.009621052,0.09260059,0.09260118,0.061118618,1.286655e-10,1.2844292e-10,1.5670452e-09,5.011365e-07,5.010034e-07,5.6536443e-08,0.0,0.0,0.0,0.0,0.0,0.0,0.0,0.0,535,0.43035075,0.2472218,0.0040432545,0.0046949973,0.002206299,0.00943332,0.0,0.0,0.0,0.0,0,0,0,831,24,0,0,0
15164000,0.979421,-0.008198534,-0.012194417,0.20129246,0.018090682,-0.0024600124,0.008642625,0.01201619,-0.0050792405,0.0006843781,-8.054332e-06,-4.7174166e-05,-6.253517e-07,-6.4084734e-06,-0.0001542087,-0.0010858955,0.20567751,0.009209124,0.4348591,0.0,0.0,0.0,0.0,0.0,5.578115e-10,2.4199138e-05,0.00029363207,6.0489547e-06,3.357046e-05,3.3555785e-05,0.0001445982,0.031260815,0.03126295,0.009401038,0.09222208,0.09222274,0.060620133,1.2861665e-10,1.2839506e-10,1.5507094e-09,4.989001e-07,4.9876434e-07,5.6215477e-08,0.0,0.0,0.0,0.0,0.0,0.0,0.0,0.0,535,0.4294704,0.24621156,0.0048624305,0.007824245,0.0031186473,0.00073896267,0.0,0.0,0.0,0.0,0,0,0,831,24,0,0,0
15364000,0.97943383,-0.008181884,-0.01212941,0.2012347,0.01989323,5.391419e-05,0.0106475055,0.012873192,-0.0048118834,0.0022261583,-8.057102e-06,-4.7184196e-05,-5.748631e-07,-5.413414e-06,-0.00015477913,-0.0010854303,0.20567751,0.009209124,0.4348591,0.0,0.0,0.0,0.0,0.0,5.180081e-10,2.4487203e-05,0.00028214842,5.9474382e-06,3.375462e-05,3.3740147e-05,0.00014211146,0.030292923,0.030295134,0.009193849,0.091909364,0.09191008,0.059251208,1.285061e-10,1.2828602e-10,1.5351375e-09,4.971723e-07,4.970342e-07,5.5826284e-08,0.0,0.0,0.0,0.0,0.0,0.0,0.0,0.0,535,0.4287417,0.24341571,0.014285446,0.008205368,0.003035427,0.005609633,0.0,0.0,0.0,0.0,0,0,0,831,24,0,0,0
15564000,0.97938883,-0.008188174,-0.011947,0.20146406,0.02086521,-0.0027291821,0.010331084,0.01730532,-0.004763236,-0.0009261132,-8.064682e-06,-4.7176614e-05,-9.013037e-07,-5.3954295e-06,-0.00015487784,-0.001084589,0.20567751,0.009209124,0.4348591,0.0,0.0,0.0,0.0,0.0,5.335513e-10,2.4867562e-05,0.00027606633,5.829465e-06,3.4852415e-05,3.4838293e-05,0.00013916788,0.034787722,0.0347905,0.009224811,0.1067682,0.10676967,0.05851611,1.2859819e-10,1.283783e-10,1.5163814e-09,4.9717374e-07,4.970346e-07,5.561092e-08,0.0,0.0,0.0,0.0,0.0,0.0,0.0,0.0,535,0.46210158,0.24190104,0.026681187,0.008205368,0.003035427,0.0024295414,0.0,0.0,0.0,0.0,0,0,0,831,24,0,0,0
15764000,0.9793413,-0.008144493,-0.0118376855,0.20170312,0.021203045,-0.0030796183,0.0064919214,0.017630698,-0.0061468985,-0.0037597388,-8.067273e-06,-4.7184592e-05,-1.1557345e-06,-4.357136e-06,-0.00015502505,-0.0010836433,0.20567751,0.009209124,0.4348591,0.0,0.0,0.0,0.0,0.0,5.1142185e-10,2.4026505e-05,0.0002759864,5.7334164e-06,3.502518e-05,3.5011308e-05,0.00013666559,0.033186432,0.033189073,0.009250443,0.105395876,0.105397336,0.058141787,1.2834109e-10,1.2812358e-10,1.4963562e-09,4.95833e-07,4.95691e-07,5.5134358e-08,0.0,0.0,0.0,0.0,0.0,0.0,0.0,0.0,535,0.4591222,0.24112608,0.004526487,0.003980279,0.0036127432,2.7266437e-05,0.0,0.0,0.0,0.0,0,0,0,831,24,0,0,0
15964000,0.97932637,-0.008308512,-0.011659534,0.2017792,0.01747377,-0.004259446,0.00996682,0.014551815,-0.0072433557,-0.0012744744,-8.081293e-06,-4.7220874e-05,-1.3189593e-06,-2.5625695e-06,-0.00015565552,-0.0010840973,0.20567751,0.009209124,0.4348591,0.0,0.0,0.0,0.0,0.0,5.4009025e-10,2.4132163e-05,0.0002803889,5.6834397e-06,3.5279994e-05,3.5267014e-05,0.00013539847,0.031793762,0.031796154,0.0092625925,0.10420163,0.1042031,0.05701469,1.2799901e-10,1.2778423e-10,1.4775579e-09,4.948768e-07,4.9473215e-07,5.4561443e-08,0.0,0.0,0.0,0.0,0.0,0.0,0.0,0.0,535,0.45651364,0.23877749,0.015521524,0.012443976,0.0037152476,0.009383694,0.0,0.0,0.0,0.0,0,0,0,831,24,0,0,0
16164000,0.9793201,-0.008343511,-0.0116102435,0.20181125,0.017459188,0.0013971728,0.011045945,0.013566228,-0.0016232234,0.00072515133,-8.1357875e-06,-4.72255e-05,-1.3982515e-06,-2.1650947e-06,-0.0001572494,-0.0010846616,0.20567751,0.009209124,0.4348591,0.0,0.0,0.0,0.0,0.0,5.7601685e-10,2.4520485e-05,0.00029148042,5.611615e-06,3.5598503e-05,3.558577e-05,0.00013359342,0.030591419,0.030593684,0.009398484,0.103152834,0.10315431,0.05680014,1.2755964e-10,1.2734812e-10,1.455313e-09,4.9420805e-07,4.940609e-07,5.395101e-08,0.0,0.0,0.0,0.0,0.0,0.0,0.0,0.0,535,0.45421046,0.2383278,0.007955762,0.012587362,0.003064913,0.002775682,0.0,0.0,0.0,0.0,0,0,0,831,24,0,0,0
16363999,0.9793695,-0.008343494,-0.0115121715,0.20157719,0.017494427,-0.0032841237,0.013378076,0.012712117,-0.003197797,0.00084702735,-8.124403e-06,-4.7267527e-05,-1.0617891e-06,-1.4097446e-06,-0.00015725999,-0.0010836277,0.20567751,0.009209124,0.4348591,0.0,0.0,0.0,0.0,0.0,5.758687e-10,2.4248498e-05,0.00029647237,5.583384e-06,3.5963436e-05,3.595075e-05,0.00013288116,0.029544877,0.029547054,0.009502514,0.10222405,0.10222554,0.055881247,1.270142e-10,1.2680632e-10,1.4345344e-09,4.937515e-07,4.9360216e-07,5.3225975e-08,0.0,0.0,0.0,0.0,0.0,0.0,0.0,0.0,535,0.452161,0.23639214,0.01907438,0.008149577,0.0028845374,0.0,0.0,0.0,0.0,0.0,0,0,0,831,24,0,0,0
16564000,0.9793699,-0.008368268,-0.011516696,0.20157397,0.016036795,-0.0019546794,0.017716773,0.012074518,-0.0030451363,0.0027414544,-8.139041e-06,-4.7294987e-05,-1.0038145e-06,-9.877928e-07,-0.00015754122,-0.001083223,0.20567751,0.009209124,0.4348591,0.0,0.0,0.0,0.0,0.0,5.5894483e-10,2.3778155e-05,0.00028263062,5.5345063e-06,3.6353733e-05,3.634077e-05,0.00013157574,0.028604383,0.028606376,0.009706488,0.10132275,0.10132425,0.055847276,1.2633941e-10,1.2613553e-10,1.4101592e-09,4.9344305e-07,4.932918e-07,5.2464127e-08,0.0,0.0,0.0,0.0,0.0,0.0,0.0,0.0,535,0.4501633,0.23632029,0.001459057,0.0068725045,0.0027425452,0.0043882867,0.0,0.0,0.0,0.0,0,0,0,831,24,0,0,0
16764000,0.9793758,-0.008499686,-0.011589427,0.20153566,0.015415703,-0.004013249,0.01819125,0.011527415,-0.0028525868,-0.001311631,-8.154352e-06,-4.7322395e-05,-8.9837914e-07,-7.788879e-07,-0.00015777028,-0.0010808782,0.20567751,0.009209124,0.4348591,0.0,0.0,0.0,0.0,0.0,5.574348e-10,2.350746e-05,0.00029850903,5.5269506e-06,3.676705e-05,3.6753718e-05,0.00013127408,0.027798625,0.02780051,0.009857164,0.10051717,0.10051869,0.05511606,1.2553975e-10,1.2534002e-10,1.3876946e-09,4.9322847e-07,4.9307556e-07,5.156779e-08,0.0,0.0,0.0,0.0,0.0,0.0,0.0,0.0,535,0.44837022,0.23476811,0.00047832108,0.00630805,0.002593416,0.014295622,0.0,0.0,0.0,0.0,0,0,0,831,24,0,0,0
16964000,0.9793513,-0.008713261,-0.011625621,0.20164344,0.01833932,-0.007714048,0.019299246,0.014092953,-0.0074767172,0.00057669444,-8.1048265e-06,-4.7338417e-05,-9.3665903e-07,-6.7505835e-07,-0.0001579175,-0.0010801826,0.20567751,0.009209124,0.4348591,0.0,0.0,0.0,0.0,0.0,5.226633e-10,2.345121e-05,0.00029884715,5.52955e-06,3.7191552e-05,3.717809e-05,0.00013112195,0.027110908,0.027112788,0.0100923125,0.09979309,0.09979462,0.055251922,1.2460388e-10,1.2440876e-10,1.3644558e-09,4.930607e-07,4.929064e-07,5.0649728e-08,0.0,0.0,0.0,0.0,0.0,0.0,0.0,0.0,535,0.4467524,0.23505728,0.010686692,0.010541679,0.0024951429,0.007801318,0.0,0.0,0.0,0.0,0,0,0,831,24,0,0,0
17164000,0.9793641,-0.0086829895,-0.011605517,0.20158362,0.019838296,-0.008342296,0.019359492,0.013687738,-0.0072408267,0.00018480321,-8.1287235e-06,-4.737474e-05,-7.2707525e-07,-7.227819e-07,-0.00015795056,-0.0010785225,0.20567751,0.009209124,0.4348591,0.0,0.0,0.0,0.0,0.0,5.804679e-10,2.3943687e-05,0.00030678825,5.502108e-06,3.7616912e-05,3.760299e-05,0.0001303176,0.026526447,0.026528405,0.01025942,0.099139646,0.09914117,0.054714646,1.2352107e-10,1.2333103e-10,1.3375361e-09,4.928984e-07,4.9274274e-07,5e-08,0.0,0.0,0.0,0.0,0.0,0.0,0.0,0.0,535,0.44528735,0.23391162,0.0027559402,0.007313448,0.0030361982,0.0061980146,0.0,0.0,0.0,0.0,0,0,0,831,24,0,0,0
17364000,0.9793609,-0.008783793,-0.0115802465,0.20159651,0.01709379,-0.006469158,0.020533327,0.013171474,-0.0068881055,0.0045445263,-8.16516e-06,-4.7406767e-05,-7.39423e-07,-8.702578e-07,-0.0001578309,-0.0010776639,0.20567751,0.009209124,0.4348591,0.0,0.0,0.0,0.0,0.0,5.875915e-10,2.4375275e-05,0.00030297393,5.4773677e-06,3.8033973e-05,3.801999e-05,0.00012963677,0.02603412,0.026035829,0.010500089,0.09854817,0.09854968,0.055029713,1.2228576e-10,1.22101e-10,1.3099082e-09,4.9270466e-07,4.925484e-07,5.0000068e-08,0.0,0.0,0.0,0.0,0.0,0.0,0.0,0.0,535,0.44395703,0.23458412,0.012222586,0.013268611,0.0029634836,0.007762146,0.0,0.0,0.0,0.0,0,0,0,831,24,0,0,0
17564000,0.9793743,-0.008544222,-0.011529894,0.20154421,0.015031334,-0.0067566773,0.016375996,0.011174019,-0.00650555,0.006448082,-8.209845e-06,-4.745815e-05,-8.669658e-07,-1.3514284e-06,-0.00015755149,-0.0010767605,0.20567751,0.009209124,0.4348591,0.0,0.0,0.0,0.0,0.0,5.6934346e-10,2.454257e-05,0.00030444798,5.4828292e-06,3.84344e-05,3.841961e-05,0.0001298419,0.025632707,0.025634255,0.010659343,0.09801198,0.09801346,0.054667853,1.2089314e-10,1.2071398e-10,1.2848604e-09,4.92447e-07,4.9229055e-07,5.0000036e-08,0.0,0.0,0.0,0.0,0.0,0.0,0.0,0.0,535,0.4427476,0.23381157,0.0077355215,0.010698713,0.002829359,0.0028975774,0.0,0.0,0.0,0.0,0,0,0,831,24,0,0,0
17764000,0.9793495,-0.008527658,-0.011410112,0.20167226,0.014398908,-0.0062847696,0.014741169,0.012347301,-0.0063101486,0.0060810973,-8.231479e-06,-4.745884e-05,-1.020482e-06,-1.350004e-06,-0.00015749088,-0.0010751797,0.20567751,0.009209124,0.4348591,0.0,0.0,0.0,0.0,0.0,6.031943e-10,2.5580171e-05,0.00029673157,5.4677153e-06,3.880952e-05,3.879492e-05,0.00012933463,0.025298692,0.025300028,0.010805896,0.09752572,0.09752722,0.054375425,1.193357e-10,1.191626e-10,1.2561968e-09,4.9209694e-07,4.919405e-07,5e-08,0.0,0.0,0.0,0.0,0.0,0.0,0.0,0.0,535,0.441648,0.23318538,0.010618441,0.004575869,0.0023976467,0.010168818,0.0,0.0,0.0,0.0,0,0,0,831,24,0,0,0
17964000,0.97936106,-0.0086213555,-0.011356389,0.20161498,0.015215025,-0.0075503816,0.016691446,0.011993679,-0.006124374,0.009528712,-8.261526e-06,-4.7492777e-05,-9.1334414e-07,-1.740052e-06,-0.00015708138,-0.001075112,0.20567751,0.009209124,0.4348591,0.0,0.0,0.0,0.0,0.0,5.8892907e-10,2.4153564e-05,0.0002946939,5.4848224e-06,3.9154038e-05,3.9139493e-05,0.00012966555,0.025025882,0.025027193,0.01101746,0.0970849,0.09708637,0.054894943,1.1761615e-10,1.1744933e-10,1.2303624e-09,4.916314e-07,4.914758e-07,5.0000036e-08,0.0,0.0,0.0,0.0,0.0,0.0,0.0,0.0,535,0.4406487,0.2342967,0.008209408,0.005962579,0.0026323998,0.0056192037,0.0,0.0,0.0,0.0,0,0,0,831,24,0,0,0
18164000,0.97936803,-0.00864749,-0.011273788,0.2015846,0.018918106,-0.011010776,0.019848857,0.011744106,-0.006074997,0.007636447,-8.302495e-06,-4.7532547e-05,-8.320852e-07,-2.3566804e-06,-0.00015649282,-0.0010726671,0.20567751,0.009209124,0.4348591,0.0,0.0,0.0,0.0,0.0,5.7444377e-10,2.2996946e-05,0.0002931287,5.471344e-06,3.9462586e-05,3.9448078e-05,0.00012926094,0.024805402,0.024806937,0.011133424,0.09668601,0.096687436,0.05471564,1.1573358e-10,1.15573426e-10,1.2009668e-09,4.9103323e-07,4.908787e-07,5e-08,0.0,0.0,0.0,0.0,0.0,0.0,0.0,0.0,535,0.43974248,0.23391375,1.8589644e-05,0.0071548154,0.0025958468,0.009340968,0.0,0.0,0.0,0.0,0,0,0,831,24,0,0,0
18364000,0.9794184,-0.008510685,-0.011317681,0.20134327,0.021063909,-0.011672583,0.019486569,0.014452172,-0.006840048,0.008400255,-8.329153e-06,-4.7534755e-05,-5.0812235e-07,-2.1835813e-06,-0.00015587259,-0.0010716013,0.20567751,0.009209124,0.4348591,0.0,0.0,0.0,0.0,0.0,5.7096977e-10,2.3103958e-05,0.00029806246,5.4868838e-06,3.972875e-05,3.9713483e-05,0.00012967229,0.024644123,0.024645584,0.011313048,0.09632582,0.09632721,0.055329993,1.1369127e-10,1.13537776e-10,1.1746819e-09,4.902821e-07,4.901291e-07,5.000007e-08,0.0,0.0,0.0,0.0,0.0,0.0,0.0,0.0,535,0.43892258,0.23522328,0.007740933,0.0046228156,0.0026200188,0.010034986,0.0,0.0,0.0,0.0,0,0,0,831,24,0,0,0
18572000,0.9794111,-0.008672574,-0.01119625,0.20137876,0.022251774,-0.016974978,0.018934622,0.014830421,-0.010639045,0.0070429705,-8.325305e-06,-4.7579157e-05,-4.3864128e-07,-2.909761e-06,-0.00015604457,-0.0010691485,0.20567751,0.009209124,0.4348591,0.0,0.0,0.0,0.0,0.0,5.8760546e-10,2.354918e-05,0.00028798956,5.489537e-06,4.000072e-05,3.9985924e-05,0.00012958107,0.024660725,0.024662193,0.011431765,0.09653151,0.09653289,0.055506285,1.11498054e-10,1.1135142e-10,1.144945e-09,4.893696e-07,4.892183e-07,5.0000036e-08,0.0,0.0,0.0,0.0,0.0,0.0,0.0,0.0,535,0.43939093,0.23559771,0.0072829854,0.0053684623,0.00525222,0.0038579842,0.0,0.0,0.0,0.0,0,0,0,831,24,0,0,0
18764000,0.9793503,-0.008685817,-0.011164798,0.2016753,0.024199177,-0.017451826,0.020891152,0.017321577,-0.00896406,0.010292069,-8.422124e-06,-4.7547455e-05,-8.641187e-07,-2.357171e-06,-0.000154399,-0.0010685355,0.20567751,0.009209124,0.4348591,0.0,0.0,0.0,0.0,0.0,6.012138e-10,2.3667659e-05,0.00028497196,5.4711722e-06,4.0117822e-05,4.0103103e-05,0.00012896488,0.024442436,0.024443848,0.01153376,0.09571401,0.095715314,0.055889297,1.0915018e-10,1.0901036e-10,1.115129e-09,4.8828645e-07,4.881372e-07,5.000007e-08,0.0,0.0,0.0,0.0,0.0,0.0,0.0,0.0,535,0.43752638,0.23640917,0.004501619,0.011165626,0.0032125453,0.004124637,0.0,0.0,0.0,0.0,0,0,0,831,24,0,0,0
18964000,0.97937095,-0.008658209,-0.011119111,0.20157853,0.014417254,-0.020091364,0.020908967,0.013992846,-0.009054662,0.0090321265,-8.533741e-06,-4.763796e-05,-8.230701e-07,-4.320783e-06,-0.00015202657,-0.0010661564,0.20567751,0.009209124,0.4348591,0.0,0.0,0.0,0.0,0.0,5.688869e-10,2.2893306e-05,0.00028101445,5.487742e-06,4.0235012e-05,4.021986e-05,0.00012939815,0.02439122,0.024391975,0.011570171,0.09545814,0.09545936,0.055801373,1.0667208e-10,1.0653852e-10,1.0886666e-09,4.870282e-07,4.868814e-07,5.0000036e-08,0.0,0.0,0.0,0.0,0.0,0.0,0.0,0.0,535,0.43694106,0.23622315,0.013145772,0.015469913,0.0037088552,0.005830706,0.0,0.0,0.0,0.0,0,0,0,831,24,0,0,0
19164000,0.9794036,-0.008746127,-0.011036024,0.20142102,0.014150615,-0.016947825,0.020619499,0.013895139,-0.007873993,0.008133542,-8.628628e-06,-4.762345e-05,-7.7184495e-07,-3.8562935e-06,-0.00014994436,-0.0010641776,0.20567751,0.009209124,0.4348591,0.0,0.0,0.0,0.0,0.0,5.95511e-10,2.3533481e-05,0.00027330476,5.4680504e-06,4.029662e-05,4.0281786e-05,0.00012905232,0.024365786,0.024366396,0.011585916,0.09523315,0.09523428,0.055709794,1.0406715e-10,1.0394026e-10,1.0589886e-09,4.855927e-07,4.854486e-07,5e-08,0.0,0.0,0.0,0.0,0.0,0.0,0.0,0.0,535,0.43642575,0.23602922,0.0052944547,0.011315689,0.0050572585,0.0035395443,0.0,0.0,0.0,0.0,0,0,0,831,24,0,0,0
19372000,0.9794535,-0.008609887,-0.01103819,0.20118354,0.016727194,-0.016042663,0.01841672,0.013614177,-0.0041729505,0.008676056,-8.788139e-06,-4.7617392e-05,-6.2553585e-07,-3.5769692e-06,-0.0001460713,-0.0010628587,0.20567751,0.009209124,0.4348591,0.0,0.0,0.0,0.0,0.0,6.0281663e-10,2.361794e-05,0.00027543274,5.457001e-06,4.0353683e-05,4.033831e-05,0.0001289558,0.024501545,0.024502318,0.011720094,0.095559694,0.095560774,0.056715146,1.0135542e-10,1.0123549e-10,1.0294797e-09,4.8398374e-07,4.8384254e-07,5.000007e-08,0.0,0.0,0.0,0.0,0.0,0.0,0.0,0.0,535,0.43717328,0.23814942,0.00463335,0.018301426,0.0029124175,0.009951449,0.0,0.0,0.0,0.0,0,0,0,831,24,0,0,0
19564000,0.9794585,-0.008669328,-0.010991128,0.20115924,0.016638478,-0.015242993,0.016828852,0.014621585,-0.0045677456,0.00776552,-8.845841e-06,-4.762174e-05,-5.672303e-07,-3.6196168e-06,-0.00014467306,-0.0010610631,0.20567751,0.009209124,0.4348591,0.0,0.0,0.0,0.0,0.0,6.185813e-10,2.3998731e-05,0.00028362003,5.46427e-06,4.0252417e-05,4.0237057e-05,0.00012907451,0.024374451,0.024375081,0.0116593335,0.09486922,0.09487024,0.056301683,9.8540474e-11,9.842735e-11,1.0034418e-09,4.822042e-07,4.8206624e-07,5e-08,0.0,0.0,0.0,0.0,0.0,0.0,0.0,0.0,535,0.43559095,0.23727976,0.015718985,0.006127519,0.0028731262,0.00030908085,0.0,0.0,0.0,0.0,0,0,0,831,24,0,0,0
19764000,0.9794836,-0.0087746885,-0.010986298,0.20103277,0.018350478,-0.015300028,0.017492145,0.016894879,-0.0050429995,0.008180076,-8.887364e-06,-4.7601858e-05,-3.072787e-07,-2.9042756e-06,-0.00014349671,-0.0010598043,0.20567751,0.009209124,0.4348591,0.0,0.0,0.0,0.0,0.0,6.2180233e-10,2.481546e-05,0.00027906703,5.4814777e-06,4.0147585e-05,4.0132236e-05,0.00012943649,0.024389071,0.024389632,0.011721468,0.09472636,0.09472729,0.056982934,9.565202e-11,9.554575e-11,9.776818e-10,4.802685e-07,4.8013396e-07,5.000007e-08,0.0,0.0,0.0,0.0,0.0,0.0,0.0,0.0,535,0.43526274,0.23871098,0.0046693524,0.006100462,0.0030781426,0.014163072,0.0,0.0,0.0,0.0,0,0,0,831,24,0,0,0
19964000,0.9794533,-0.008749331,-0.010953516,0.20118317,0.0185056,-0.01545683,0.018621884,0.016510932,-0.005409138,0.013378981,-8.965275e-06,-4.763856e-05,-2.9387695e-07,-3.7770608e-06,-0.00014146593,-0.0010601091,0.20567751,0.009209124,0.4348591,0.0,0.0,0.0,0.0,0.0,6.195332e-10,2.4839388e-05,0.00027278578,5.4731004e-06,3.9989533e-05,3.9973973e-05,0.00012898579,0.024409873,0.024410376,0.01167424,0.0946072,0.09460807,0.056836244,9.2700896e-11,9.2601524e-11,9.490136e-10,4.7818617e-07,4.780553e-07,5e-08,0.0,0.0,0.0,0.0,0.0,0.0,0.0,0.0,535,0.43498883,0.23840353,0.004753255,0.0067757354,0.0035479304,0.0010483797,0.0,0.0,0.0,0.0,0,0,0,831,24,0,0,0
20164000,0.9794615,-0.008525854,-0.010793332,0.20116198,0.01798811,-0.015296576,0.016945776,0.01741218,-0.0057599507,0.013265543,-9.032213e-06,-4.7650003e-05,-2.133437e-07,-4.0145796e-06,-0.00013967688,-0.001057733,0.20567751,0.009209124,0.4348591,0.0,0.0,0.0,0.0,0.0,5.8928973e-10,2.461211e-05,0.00028262573,5.4555017e-06,3.9780494e-05,3.9764993e-05,0.00012851294,0.024432097,0.02443243,0.0117156105,0.09450941,0.094510235,0.057496384,8.9706666e-11,8.9614274e-11,9.207498e-10,4.759718e-07,4.7584467e-07,5.000007e-08,0.0,0.0,0.0,0.0,0.0,0.0,0.0,0.0,535,0.4347639,0.23978403,0.014863704,0.013188867,0.0034936327,0.014743921,0.0,0.0,0.0,0.0,0,0,0,831,24,0,0,0
20364000,0.9794493,-0.008470169,-0.010734815,0.20122676,0.014505696,-0.016267225,0.017118204,0.016658256,-0.006184186,0.0146080265,-9.116865e-06,-4.7683618e-05,-3.222008e-07,-4.969909e-06,-0.00013748206,-0.0010563695,0.20567751,0.009209124,0.4348591,0.0,0.0,0.0,0.0,0.0,6.0980837e-10,2.4350818e-05,0.00027032764,5.4687416e-06,3.9524246e-05,3.950857e-05,0.00012877677,0.024448246,0.02444827,0.0116492165,0.09443099,0.094431736,0.057310123,8.66889e-11,8.6603155e-11,8.9602886e-10,4.736408e-07,4.735177e-07,5.0000036e-08,0.0,0.0,0.0,0.0,0.0,0.0,0.0,0.0,535,0.4345834,0.23939532,0.002113008,0.0073039695,0.003637694,0.0044449195,0.0,0.0,0.0,0.0,0,0,0,831,24,0,0,0
20564000,0.9794394,-0.008471875,-0.010751942,0.20127381,0.0107966205,-0.01839698,0.01808332,0.015872773,-0.0065143807,0.011494946,-9.196138e-06,-4.7709684e-05,-2.1082357e-07,-5.629215e-06,-0.00013524393,-0.0010537674,0.20567751,0.009209124,0.4348591,0.0,0.0,0.0,0.0,0.0,6.102954e-10,2.3705865e-05,0.00028116832,5.452963e-06,3.9224236e-05,3.9208167e-05,0.00012823447,0.024453113,0.024452826,0.011574575,0.09436977,0.09437046,0.057096295,8.3662216e-11,8.358289e-11,8.686858e-10,4.71211e-07,4.7109197e-07,5e-08,0.0,0.0,0.0,0.0,0.0,0.0,0.0,0.0,535,0.43444243,0.23894832,0.0138362385,0.0072835973,0.003442035,0.000751415,0.0,0.0,0.0,0.0,0,0,0,831,24,0,0,0
20764000,0.9794261,-0.00835262,-0.010819554,0.2013402,0.007919835,-0.017217062,0.017609,0.014978819,-0.005276326,0.009651376,-9.316119e-06,-4.7699796e-05,-4.2703746e-07,-5.469907e-06,-0.00013203728,-0.0010512776,0.20567751,0.009209124,0.4348591,0.0,0.0,0.0,0.0,0.0,5.944217e-10,2.3647191e-05,0.00028839184,5.4601746e-06,3.8723778e-05,3.870698e-05,0.00012842788,0.02415031,0.024149794,0.0115816975,0.09360187,0.09360248,0.05767013,8.029096e-11,8.0218096e-11,8.4483226e-10,4.68397e-07,4.682827e-07,5.0000036e-08,0.0,0.0,0.0,0.0,0.0,0.0,0.0,0.0,535,0.4326712,0.24014606,0.013317488,0.011484198,0.0034017602,0.008000984,0.0,0.0,0.0,0.0,0,0,0,831,24,0,0,0
20964000,0.9793949,-0.008534039,-0.010656106,0.2014924,0.007149758,-0.016278476,0.018134605,0.015403726,-0.006815336,0.008546786,-9.345851e-06,-4.7685106e-05,-6.0162296e-07,-5.1493244e-06,-0.0001313949,-0.0010490264,0.20567751,0.009209124,0.4348591,0.0,0.0,0.0,0.0,0.0,6.3330097e-10,2.357595e-05,0.00029523158,5.439032e-06,3.8223014e-05,3.8207025e-05,0.00012781625,0.02388813,0.023887485,0.011487474,0.092925385,0.09292591,0.057395816,7.703574e-11,7.696933e-11,8.1851353e-10,4.6558952e-07,4.6547981e-07,5e-08,0.0,0.0,0.0,0.0,0.0,0.0,0.0,0.0,535,0.43110475,0.23957424,0.0009306178,0.0049366592,0.003144814,0.0022511296,0.0,0.0,0.0,0.0,0,0,0,831,24,0,0,0
