timestamp,timestamp_sample,control[0],control[1],control[2],control[3],control[4],control[5],control[6],control[7]
657300000,657300000,0.008442679,-0.021601055,0.01720626,0.0,0.0,0.0,0.0,-1.0
657396000,657396000,0.028450109,-0.011001546,0.00028230317,0.5000956,0.0,0.0,0.0,-1.0
657496000,657496000,0.041116074,0.0013079627,0.0002857234,0.5177499,0.0,0.0,0.0,-1.0
657596000,657596000,0.031691503,-0.006385529,-0.0005451202,0.5749265,0.0,0.0,0.0,-1.0
657696000,657696000,-0.0127097815,-0.014255773,-0.0006430793,0.6332301,0.0,0.0,0.0,-1.0
657796000,657796000,-0.0071182153,0.0010510574,0.00073049444,0.65240604,0.0,0.0,0.0,-1.0
657896000,657896000,-0.00080250367,0.0012163967,0.0010631105,0.6776843,0.0,0.0,0.0,-1.0
657996000,657996000,0.0066674137,-0.0075346488,0.00090451667,0.6930789,0.0,0.0,0.0,-1.0
658096000,658096000,-0.0007119619,0.00094682234,-0.00048723133,0.69852006,0.0,0.0,0.0,-1.0
658196000,658196000,-0.0020975685,-0.0075171404,0.0004925232,0.53856736,0.0,0.0,0.0,-1.0
658296000,658296000,0.0035241651,0.0071712187,0.0025916332,0.6918617,0.0,0.0,0.0,-1.0
658396000,658396000,-0.009648109,0.0016289651,-0.00019281718,0.50056964,0.0,0.0,0.0,-1.0
658496000,658496000,0.0034939102,0.0026396164,-0.0009576359,0.58671474,0.0,0.0,0.0,-1.0
658596000,658596000,0.0042921756,-0.0056838663,-0.00067693024,0.5810419,0.0,0.0,0.0,-1.0
658696000,658696000,-0.0009305541,0.0020197034,-0.0010596693,0.5755118,0.0,0.0,0.0,-1.0
658800000,658800000,0.0018478023,-0.008455872,9.264272e-05,0.5826736,0.0,0.0,0.0,-1.0
658896000,658896000,-0.0026714976,-0.0056975326,-0.0009948263,0.58190167,0.0,0.0,0.0,-1.0
658996000,658996000,-0.0046433946,0.006233331,-0.0009408309,0.5832008,0.0,0.0,0.0,-1.0
659096000,659096000,-0.011279171,0.00350979,-0.0015381847,0.57895774,0.0,0.0,0.0,-1.0
659200000,659200000,-0.003701434,-0.0032566995,0.0012707029,0.5780726,0.0,0.0,0.0,1.0
659296000,659296000,-0.012874037,-0.006972424,0.00053546333,0.57971984,0.0,0.0,0.0,1.0
659396000,659396000,-0.0050526666,-0.005557531,-0.00054593204,0.580066,0.0,0.0,0.0,1.0
659496000,659496000,-0.0030401347,0.020105487,6.656462e-05,0.5839948,0.0,0.0,0.0,1.0
659596000,659596000,-0.0030169243,0.006642049,0.0011226697,0.57947284,0.0,0.0,0.0,1.0
659700000,659700000,-0.009998937,0.002563282,0.0013851046,0.57912964,0.0,0.0,0.0,1.0
659796000,659796000,0.001482019,0.0024867677,0.00042181052,0.58015454,0.0,0.0,0.0,1.0
659896000,659896000,0.003229883,0.00018062722,-0.0007147906,0.58182806,0.0,0.0,0.0,1.0
659996000,659996000,-0.0005128236,-0.018355433,-0.0008989267,0.5830245,0.0,0.0,0.0,1.0
660096000,660096000,-0.006343703,0.0027634955,-0.0016778606,0.58513486,0.0,0.0,0.0,1.0
660196000,660196000,-0.021021513,-0.002334747,0.0011295729,0.57884455,0.0,0.0,0.0,1.0
660296000,660296000,0.002403427,0.011101885,-0.0008380984,0.580707,0.0,0.0,0.0,1.0
660396000,660396000,0.008142621,0.003233287,-0.0004248032,0.5798265,0.0,0.0,0.0,1.0
660496000,660496000,-0.0044253413,0.00990471,-0.0005982121,0.5833081,0.0,0.0,0.0,1.0
660596000,660596000,0.0008973604,0.00829312,-0.00029747817,0.5846564,0.0,0.0,0.0,1.0
660700000,660700000,0.00864318,0.0059893513,-0.0019103007,0.58469325,0.0,0.0,0.0,1.0
660796000,660796000,-0.007617622,-0.0041831266,-0.0006218208,0.5807568,0.0,0.0,0.0,1.0
660896000,660896000,-0.0041817855,0.0011567194,-0.00016695837,0.5821908,0.0,0.0,0.0,1.0
661000000,661000000,0.0014050206,-0.0037025367,0.00055628887,0.5808707,0.0,0.0,0.0,1.0
661096000,661096000,-0.00045909418,0.0051373774,-0.00039991943,0.5672052,0.0,0.0,0.0,1.0
661196000,661196000,-0.010228905,0.005952252,-0.0006311414,0.5663223,0.0,0.0,0.0,1.0
661296000,661296000,-0.0063677547,-0.0048905318,0.00028570555,0.56767553,0.0,0.0,0.0,1.0
661400000,661400000,-0.006092485,-0.00056394265,0.0008216864,0.5661619,0.0,0.0,0.0,1.0
661496000,661496000,-0.00071978057,-0.007826077,0.0004133224,0.5629435,0.0,0.0,0.0,1.0
661596000,661596000,-0.000944526,-0.0013098195,0.0011773694,0.5629163,0.0,0.0,0.0,1.0
661696000,661696000,-0.0020911281,-0.008435157,-0.0003295083,0.5655707,0.0,0.0,0.0,1.0
661796000,661796000,-0.0010677152,0.0016538901,-1.4806554e-05,0.56864154,0.0,0.0,0.0,1.0
661900000,661900000,0.0066333185,0.010425599,0.0011706416,0.5662908,0.0,0.0,0.0,1.0
661996000,661996000,-0.0010428542,-0.001820409,0.0030059475,0.56405663,0.0,0.0,0.0,1.0
662100000,662100000,0.005922972,-0.0013183148,0.000900355,0.5657594,0.0,0.0,0.0,1.0
662196000,662196000,-0.010873448,-0.0070039746,-0.00012726204,0.56209314,0.0,0.0,0.0,1.0
662296000,662296000,-0.011987194,0.004840375,-0.0012279211,0.56202084,0.0,0.0,0.0,1.0
662400000,662400000,0.0036966251,-0.0052237213,0.0010133808,0.5620152,0.0,0.0,0.0,1.0
662500000,662500000,0.008837597,0.003968115,0.0013821672,0.5644477,0.0,0.0,0.0,1.0
662596000,662596000,-0.008770531,-0.015310373,0.0023948867,0.5649582,0.0,0.0,0.0,1.0
662696000,662696000,-0.010728033,-0.009398722,0.0025004596,0.56421775,0.0,0.0,0.0,1.0
662796000,662796000,0.0048550772,-0.0006742809,0.00039791677,0.5632812,0.0,0.0,0.0,1.0
662896000,662896000,-0.012764894,0.0005501585,-0.001055036,0.56186426,0.0,0.0,0.0,1.0
663000000,663000000,0.007549409,-0.010797813,0.0015853901,0.5643682,0.0,0.0,0.0,1.0
663100000,663100000,0.0025475984,0.008382121,-0.0006958001,0.56390715,0.0,0.0,0.0,1.0
663200000,663200000,0.0013582197,-0.008609222,-0.0014966987,0.56508243,0.0,0.0,0.0,1.0
663296000,663296000,0.0024792943,0.007216824,-0.00068909547,0.5651126,0.0,0.0,0.0,1.0
663396000,663396000,0.00048297452,0.008946805,7.239299e-05,0.5638004,0.0,0.0,0.0,1.0
663500000,663500000,0.004661293,0.00087738945,0.00024366789,0.5627252,0.0,0.0,0.0,1.0
663596000,663596000,-0.0043100463,0.0023919353,0.00034351804,0.56460816,0.0,0.0,0.0,1.0
663700000,663700000,-0.0025339415,0.005443264,0.001715831,0.56373143,0.0,0.0,0.0,1.0
663796000,663796000,0.008141007,0.0023995498,-0.00043566196,0.5638787,0.0,0.0,0.0,1.0
663896000,663896000,-0.00047501005,0.0033394182,-0.0003754929,0.56422514,0.0,0.0,0.0,1.0
663996000,663996000,-0.011215176,0.0123873055,-0.00016874356,0.5632762,0.0,0.0,0.0,1.0
664100000,664100000,0.0065012146,-0.0010765812,0.00016651157,0.5649562,0.0,0.0,0.0,1.0
664200000,664200000,0.010473262,-0.0035947126,0.00039224047,0.5648332,0.0,0.0,0.0,1.0
664296000,664296000,0.0108723715,0.0013485239,0.00023519614,0.5634708,0.0,0.0,0.0,1.0
664396000,664396000,0.012517373,0.0020958176,0.0004919038,0.56353146,0.0,0.0,0.0,1.0
664500000,664500000,-0.0011691139,0.000276255,0.00022487718,0.5630311,0.0,0.0,0.0,1.0
664596000,664596000,-0.00890533,0.0074589583,-0.0012033447,0.56261575,0.0,0.0,0.0,1.0
664696000,664696000,0.0008033153,0.0032833954,-0.00020627973,0.56397754,0.0,0.0,0.0,1.0
664796000,664796000,0.00861809,-0.014507117,-8.90269e-05,0.5625031,0.0,0.0,0.0,1.0
664896000,664896000,0.0076321717,0.0022920468,0.0002918486,0.56346905,0.0,0.0,0.0,1.0
664996000,664996000,0.005199042,-0.0020769797,0.00055598695,0.56206673,0.0,0.0,0.0,1.0
665096000,665096000,-0.004800154,0.0056508174,-0.00011918273,0.56212384,0.0,0.0,0.0,1.0
665196000,665196000,0.0053325747,0.0038511711,0.0005966674,0.5648487,0.0,0.0,0.0,1.0
665296000,665296000,-6.171176e-06,0.0117547,0.0008603336,0.56323975,0.0,0.0,0.0,1.0
665400000,665400000,-0.0053451858,-0.0075391303,-0.00076991203,0.562432,0.0,0.0,0.0,1.0
665496000,665496000,0.009231711,-0.008590821,0.0016843516,0.56300837,0.0,0.0,0.0,1.0
665596000,665596000,0.0071636406,-0.0055343797,0.0014981731,0.5623243,0.0,0.0,0.0,1.0
665696000,665696000,0.002959849,-0.0016993654,-0.0013698146,0.56353486,0.0,0.0,0.0,1.0
665796000,665796000,-0.018748818,0.005576269,4.733166e-05,0.5608906,0.0,0.0,0.0,1.0
665900000,665900000,0.007912796,-0.0029770054,-0.00025308545,0.5629824,0.0,0.0,0.0,1.0
665996000,665996000,-0.0048528467,-0.0013241209,0.00063555926,0.5630739,0.0,0.0,0.0,1.0
666096000,666096000,0.003842133,-0.005823454,-0.0015032876,0.56366503,0.0,0.0,0.0,1.0
666196000,666196000,-0.0014285676,-0.0018256337,0.000117928554,0.5625193,0.0,0.0,0.0,1.0
666296000,666296000,0.0039342744,0.0060398025,-0.00043675868,0.56195253,0.0,0.0,0.0,1.0
666400000,666400000,-0.0053851004,0.0057716193,-3.8578408e-05,0.5615811,0.0,0.0,0.0,1.0
666496000,666496000,0.016011188,-0.009399909,0.00039336638,0.5631232,0.0,0.0,0.0,1.0
666596000,666596000,0.004387523,0.020737322,0.00017479481,0.5629625,0.0,0.0,0.0,1.0
666696000,666696000,0.0025421088,-0.005313372,-0.00013509851,0.56339115,0.0,0.0,0.0,1.0
666796000,666796000,-0.00409399,0.010595087,0.00084071484,0.56257194,0.0,0.0,0.0,1.0
666896000,666896000,-0.0008803259,-0.0035306015,-0.00084733806,0.562263,0.0,0.0,0.0,1.0
666996000,666996000,0.006425631,-0.0050151995,0.00045994617,0.56013054,0.0,0.0,0.0,1.0
667096000,667096000,0.008815229,0.0076424424,-0.031112533,0.5741764,0.0,0.0,0.0,1.0
667200000,667200000,-0.0124785565,0.028988542,-0.060625125,0.5593595,0.0,0.0,0.0,1.0
667296000,667296000,-0.02069687,0.05708594,-0.06878536,0.5639085,0.0,0.0,0.0,1.0
667396000,667396000,-0.010613723,0.005199898,-0.06684818,0.5705747,0.0,0.0,0.0,1.0
667496000,667496000,0.014468802,-0.022447512,-0.060461845,0.57227844,0.0,0.0,0.0,1.0
667600000,667600000,0.019111147,-0.038263734,-0.056219876,0.5808754,0.0,0.0,0.0,1.0
667700000,667700000,0.024547582,-0.01889196,-0.05273624,0.59232676,0.0,0.0,0.0,1.0
667796000,667796000,0.005676062,0.0076461914,-0.056678623,0.6094935,0.0,0.0,0.0,1.0
667896000,667896000,-0.00952678,0.027980667,-0.052201062,0.6190315,0.0,0.0,0.0,1.0
667996000,667996000,-0.011133338,0.027045064,-0.049956292,0.62576824,0.0,0.0,0.0,1.0
668096000,668096000,-0.014673874,0.019455029,-0.047962688,0.62968236,0.0,0.0,0.0,1.0
668196000,668196000,-0.005313944,0.007335568,-0.04442328,0.6371822,0.0,0.0,0.0,1.0
668296000,668296000,0.0011610626,0.008717433,-0.04339621,0.6428711,0.0,0.0,0.0,1.0
668396000,668396000,-0.023505416,0.0036794017,-0.053694975,0.6563607,0.0,0.0,0.0,1.0
668496000,668496000,-0.033491693,0.019931214,-0.052051164,0.6638953,0.0,0.0,0.0,1.0
668596000,668596000,-0.029055601,0.0022959514,-0.05251122,0.66565037,0.0,0.0,0.0,1.0
668700000,668700000,-0.021284001,0.0064067417,-0.044826217,0.6739036,0.0,0.0,0.0,1.0
668796000,668796000,-0.015341351,0.010913321,-0.04310706,0.6776056,0.0,0.0,0.0,1.0
668896000,668896000,-0.015216477,-0.010427762,-0.040583093,0.68270725,0.0,0.0,0.0,1.0
669000000,669000000,-0.029469239,-0.017340597,-0.04535303,0.6891118,0.0,0.0,0.0,1.0
669096000,669096000,-0.024220457,-0.015227752,-0.04222108,0.6900718,0.0,0.0,0.0,1.0
669200000,669200000,-0.016874323,-0.0075237444,-0.030176176,0.68471485,0.0,0.0,0.0,1.0
669300000,669300000,-0.03088577,-0.005688395,-0.027405165,0.68162435,0.0,0.0,0.0,1.0
669396000,669396000,-0.04048284,0.0061859693,-0.022393044,0.6772907,0.0,0.0,0.0,1.0
669496000,669496000,-0.03407551,-0.024454294,-0.026388794,0.67600846,0.0,0.0,0.0,1.0
669596000,669596000,-0.046278253,-0.0447998,-0.0375845,0.6725181,0.0,0.0,0.0,1.0
669700000,669700000,-0.046238355,-0.067182764,-0.040117092,0.67003024,0.0,0.0,0.0,1.0
669800000,669800000,-0.01500853,-0.03815591,-0.036375362,0.6624612,0.0,0.0,0.0,1.0
669896000,669896000,-0.017316753,-0.027965592,-0.031258702,0.66644186,0.0,0.0,0.0,1.0
669996000,669996000,-0.007522989,-0.022826001,-0.027379656,0.6683197,0.0,0.0,0.0,1.0
670096000,670096000,-0.018394774,-0.035083935,-0.024088506,0.67096025,0.0,0.0,0.0,1.0
670200000,670200000,-0.01733025,-0.040360644,-0.029380243,0.67191607,0.0,0.0,0.0,1.0
670296000,670296000,-0.019459583,-0.058082614,-0.031770214,0.67163813,0.0,0.0,0.0,1.0
670396000,670396000,-0.017426813,-0.044480797,-0.017742867,0.6686274,0.0,0.0,0.0,1.0
670496000,670496000,-0.012051398,-0.044686243,0.011069607,0.6680227,0.0,0.0,0.0,1.0
670596000,670596000,-0.013467383,-0.038179915,0.02389891,0.6672045,0.0,0.0,0.0,1.0
670696000,670696000,-0.024578001,-0.042189263,0.027658546,0.668925,0.0,0.0,0.0,1.0
670796000,670796000,-0.008971184,-0.04027163,0.021627642,0.6677869,0.0,0.0,0.0,1.0
670896000,670896000,-0.006238707,-0.047394723,0.018679451,0.6713699,0.0,0.0,0.0,1.0
671000000,671000000,-0.009623466,-0.0655922,0.013194682,0.66968375,0.0,0.0,0.0,1.0
671096000,671096000,0.0022985572,-0.05138392,0.0099724345,0.6692878,0.0,0.0,0.0,1.0
671200000,671200000,0.011088186,-0.041291017,0.0042695496,0.66842854,0.0,0.0,0.0,1.0
671296000,671296000,0.0013873312,-0.05090181,0.003867589,0.67039955,0.0,0.0,0.0,1.0
671396000,671396000,0.005332176,-0.049408857,0.002652376,0.67055655,0.0,0.0,0.0,1.0
671500000,671500000,0.0036648433,-0.04234569,-0.00040327106,0.6680544,0.0,0.0,0.0,1.0
671596000,671596000,0.006927192,-0.047470275,0.00084490795,0.6682793,0.0,0.0,0.0,1.0
671696000,671696000,0.010748479,-0.05525928,-0.00031753536,0.67089736,0.0,0.0,0.0,1.0
671796000,671796000,-0.00034225592,-0.052977793,-0.0017365301,0.66832495,0.0,0.0,0.0,1.0
671896000,671896000,0.00871324,-0.040454503,-0.00042966474,0.6684508,0.0,0.0,0.0,1.0
672000000,672000000,0.019006882,-0.04766904,0.0001142174,0.67322934,0.0,0.0,0.0,1.0
672100000,672100000,0.0053879507,-0.054665845,-0.00058717653,0.67103875,0.0,0.0,0.0,1.0
672196000,672196000,0.0012887127,-0.04579856,-0.0025720657,0.6710813,0.0,0.0,0.0,1.0
672296000,672296000,-0.0043985834,-0.03344251,-0.0012572724,0.67006344,0.0,0.0,0.0,1.0
672396000,672396000,-0.001549498,-0.04453453,-0.00096069556,0.6733813,0.0,0.0,0.0,1.0
672496000,672496000,0.015441565,-0.042394426,-0.0015039775,0.6723019,0.0,0.0,0.0,1.0
672596000,672596000,-0.005893405,-0.05470421,-0.00020186417,0.67481494,0.0,0.0,0.0,1.0
672696000,672696000,-0.006199399,-0.038027197,-0.0002668784,0.6731723,0.0,0.0,0.0,1.0
672796000,672796000,0.004860501,-0.04611316,0.00014487514,0.67572683,0.0,0.0,0.0,1.0
672896000,672896000,-0.00064201513,-0.044489995,-0.0012056651,0.6730612,0.0,0.0,0.0,1.0
672996000,672996000,0.00048116525,-0.046019338,-0.0005124924,0.67546755,0.0,0.0,0.0,1.0
673096000,673096000,0.009246036,-0.042716708,0.00020686025,0.6740948,0.0,0.0,0.0,1.0
673200000,673200000,0.007168104,-0.052416567,-0.00379846,0.67880195,0.0,0.0,0.0,1.0
673296000,673296000,0.0019048592,-0.04616776,-0.0013461336,0.677527,0.0,0.0,0.0,1.0
673400000,673400000,0.016639411,-0.04394018,-0.00097304303,0.6794156,0.0,0.0,0.0,1.0
673496000,673496000,0.012179831,-0.05307708,-0.0014817845,0.677864,0.0,0.0,0.0,1.0
673596000,673596000,0.011276201,-0.049106814,-0.001267307,0.67994666,0.0,0.0,0.0,1.0
673696000,673696000,-0.0009029731,-0.057601478,0.0010710265,0.6785568,0.0,0.0,0.0,1.0
673796000,673796000,-0.008560942,-0.069668405,-0.002525685,0.6798587,0.0,0.0,0.0,1.0
673896000,673896000,0.008332648,-0.0351098,-0.0018784141,0.6752686,0.0,0.0,0.0,1.0
674000000,674000000,0.0072889384,-0.02811074,-0.0013184631,0.6732707,0.0,0.0,0.0,1.0
674096000,674096000,0.013650012,-0.045446783,-0.00091280695,0.67087775,0.0,0.0,0.0,1.0
674200000,674200000,0.008490883,-0.054250933,-0.00053262245,0.66699636,0.0,0.0,0.0,1.0
674296000,674296000,-0.0015436129,-0.06658056,0.00019771513,0.65999806,0.0,0.0,0.0,1.0
674396000,674396000,0.009305307,-0.06729819,-0.0003128443,0.6539881,0.0,0.0,0.0,1.0
674496000,674496000,-0.007089019,-0.04937434,-0.0011529969,0.64877915,0.0,0.0,0.0,1.0
674596000,674596000,-0.007557002,-0.0368682,-0.0018039237,0.6468391,0.0,0.0,0.0,1.0
674696000,674696000,-0.007160288,-0.041215576,-0.00062867976,0.6458515,0.0,0.0,0.0,1.0
674796000,674796000,0.005163146,-0.054857776,-0.0002550953,0.6455156,0.0,0.0,0.0,1.0
674900000,674900000,0.006936062,-0.04534769,-0.0026363248,0.64241076,0.0,0.0,0.0,1.0
675000000,675000000,-0.004672136,-0.03844211,-0.0014401801,0.6380822,0.0,0.0,0.0,1.0
675096000,675096000,-0.0030949414,-0.022673815,-0.0009246408,0.63589853,0.0,0.0,0.0,1.0
675196000,675196000,0.002599289,-0.03370492,0.0019463087,0.63489425,0.0,0.0,0.0,1.0
675296000,675296000,-0.0028558858,-0.047191918,0.001093948,0.6304115,0.0,0.0,0.0,1.0
675396000,675396000,-0.0037509617,-0.05040088,0.0023685978,0.6303087,0.0,0.0,0.0,1.0
675496000,675496000,0.009058321,-0.055059828,-0.001346453,0.6282698,0.0,0.0,0.0,1.0
675596000,675596000,0.00022348831,-0.04775136,0.0007241806,0.6257233,0.0,0.0,0.0,1.0
675696000,675696000,0.008258008,-0.028517779,-0.0004455794,0.62176216,0.0,0.0,0.0,1.0
675796000,675796000,0.0027815346,-0.0401223,-0.0009336624,0.6220834,0.0,0.0,0.0,1.0
675896000,675896000,0.013052043,-0.021705158,0.0006104619,0.61941785,0.0,0.0,0.0,1.0
676000000,676000000,0.0055291867,-0.044404916,-0.0009499764,0.6193055,0.0,0.0,0.0,1.0
676100000,676100000,-0.009037409,-0.037862368,0.00157351,0.6144096,0.0,0.0,0.0,1.0
676196000,676196000,0.0046665957,-0.04072941,-0.00086962944,0.6127071,0.0,0.0,0.0,1.0
676300000,676300000,-0.010079196,-0.030247975,-0.004104776,0.6097671,0.0,0.0,0.0,1.0
676396000,676396000,-0.0016859786,-0.024818152,0.00036765332,0.61214054,0.0,0.0,0.0,1.0
676500000,676500000,-0.0015113899,-0.027394162,-0.0005194162,0.6105194,0.0,0.0,0.0,1.0
676600000,676600000,-0.0033413174,-0.04125206,-0.0014339265,0.6089928,0.0,0.0,0.0,1.0
676696000,676696000,-0.0053092865,-0.025042048,0.0007228238,0.6064216,0.0,0.0,0.0,1.0
676796000,676796000,0.0068048155,-0.031510018,0.00040975725,0.6051168,0.0,0.0,0.0,1.0
676896000,676896000,0.010273824,-0.013827805,0.0005446684,0.602372,0.0,0.0,0.0,1.0
676996000,676996000,-0.0025333068,-0.035079513,-0.0008682908,0.60015595,0.0,0.0,0.0,1.0
677100000,677100000,-0.003778594,-0.027159443,-0.00085406785,0.6009924,0.0,0.0,0.0,1.0
677200000,677200000,0.015722621,-0.027247885,0.0010440269,0.6003439,0.0,0.0,0.0,1.0
677296000,677296000,0.006732944,-0.017139863,0.0006307544,0.59853774,0.0,0.0,0.0,1.0
677400000,677400000,-0.00089072715,-0.022537228,0.0008062414,0.59637016,0.0,0.0,0.0,1.0
677500000,677500000,-0.00459905,-0.023147808,-0.0029469482,0.5939165,0.0,0.0,0.0,1.0
677596000,677596000,0.003006207,-0.027438965,-0.00045827846,0.59369606,0.0,0.0,0.0,1.0
677696000,677696000,-0.000423574,-0.029390708,-0.001483697,0.59343034,0.0,0.0,0.0,1.0
677796000,677796000,0.013871606,-0.015222039,0.00030418817,0.5928585,0.0,0.0,0.0,1.0
677896000,677896000,0.0064338464,-0.01614708,0.00031991553,0.59130764,0.0,0.0,0.0,1.0
677996000,677996000,0.0014219673,-0.00751903,0.0002780541,0.5908086,0.0,0.0,0.0,1.0
678100000,678100000,0.01399575,-0.02314647,-5.023321e-08,0.5899949,0.0,0.0,0.0,1.0
678200000,678200000,0.002144742,-0.02108037,-0.0011096447,0.58800805,0.0,0.0,0.0,1.0
678296000,678296000,-0.006491076,-0.02430212,0.000792344,0.5885814,0.0,0.0,0.0,1.0
678396000,678396000,0.007596792,-0.021702925,-0.0010220915,0.58948094,0.0,0.0,0.0,1.0
678500000,678500000,0.005387311,-0.009858049,0.00077109813,0.58770525,0.0,0.0,0.0,1.0
678600000,678600000,-0.007916869,-0.012522447,-0.00056618673,0.58661985,0.0,0.0,0.0,1.0
678696000,678696000,0.008084312,-0.016203929,-0.00039042343,0.58571285,0.0,0.0,0.0,1.0
678796000,678796000,-0.0012152161,-0.018638175,0.0010903656,0.58539736,0.0,0.0,0.0,1.0
678896000,678896000,0.0017284269,-0.015770746,-0.00032928892,0.5847072,0.0,0.0,0.0,1.0
678996000,678996000,-0.0028892998,-0.0029244702,0.00018439535,0.5854965,0.0,0.0,0.0,1.0
679096000,679096000,-0.0034212386,-0.019193308,0.00070299517,0.581726,0.0,0.0,0.0,1.0
679196000,679196000,0.00072001386,-0.006794308,-0.00012678874,0.58391434,0.0,0.0,0.0,1.0
679296000,679296000,-2.5360147e-05,-0.015610829,0.00044225733,0.58206034,0.0,0.0,0.0,1.0
679396000,679396000,-0.0059245983,-0.016337408,-0.00022570047,0.5799214,0.0,0.0,0.0,1.0
679500000,679500000,0.004893477,-0.024207473,0.00017371512,0.5816509,0.0,0.0,0.0,1.0
679596000,679596000,0.0036763418,-0.015031312,0.001523591,0.5761816,0.0,0.0,0.0,1.0
679696000,679696000,-0.010061946,-0.008599486,0.00083269767,0.5802384,0.0,0.0,0.0,1.0
679800000,679800000,0.0041037626,-0.02449426,0.00033064804,0.57707816,0.0,0.0,0.0,1.0
679896000,679896000,0.0010451953,-0.014310622,0.0005977907,0.57802653,0.0,0.0,0.0,1.0
679996000,679996000,-0.007406395,-0.020138856,0.0012644499,0.5764695,0.0,0.0,0.0,1.0
680100000,680100000,-0.0049374877,-0.010892054,-0.0011339205,0.5774607,0.0,0.0,0.0,1.0
680200000,680200000,0.007001834,-0.0053940243,0.0007112143,0.57560915,0.0,0.0,0.0,1.0
680296000,680296000,-0.004059894,-0.0030237744,-0.0007082561,0.5767826,0.0,0.0,0.0,1.0
680396000,680396000,-0.0062919245,-0.02027265,-0.000927832,0.5757695,0.0,0.0,0.0,1.0
680500000,680500000,-0.00686761,-0.006869318,-0.0033448434,0.5752453,0.0,0.0,0.0,1.0
680596000,680596000,0.014239941,-0.009664384,0.012025556,0.5739413,0.0,0.0,0.0,1.0
680696000,680696000,0.0060761245,0.0016075587,0.045413014,0.57396674,0.0,0.0,0.0,1.0
680800000,680800000,0.0052541443,0.008169751,0.062138025,0.5711926,0.0,0.0,0.0,1.0
680896000,680896000,-0.0102932025,0.0005263584,0.07077739,0.5728633,0.0,0.0,0.0,1.0
680996000,680996000,0.009517323,0.007758891,0.07810374,0.5747708,0.0,0.0,0.0,1.0
681100000,681100000,-0.012626291,-0.024446212,0.071888,0.5766027,0.0,0.0,0.0,1.0
681196000,681196000,-0.037318435,-0.01939829,0.067889586,0.5745232,0.0,0.0,0.0,1.0
681296000,681296000,-0.030907005,-0.01833261,0.060872816,0.5804047,0.0,0.0,0.0,1.0
681396000,681396000,-0.011299014,-0.012191728,0.053959824,0.58459246,0.0,0.0,0.0,1.0
681496000,681496000,0.0032097723,-0.002683863,0.047969833,0.58763355,0.0,0.0,0.0,1.0
681596000,681596000,0.016903372,0.004571963,0.049935263,0.5924323,0.0,0.0,0.0,1.0
681700000,681700000,0.013442577,-0.00968208,0.048441544,0.5945387,0.0,0.0,0.0,1.0
681796000,681796000,0.009485475,-0.012237633,0.045527652,0.59838706,0.0,0.0,0.0,1.0
681896000,681896000,0.0027661172,-0.011146968,0.041181363,0.59825367,0.0,0.0,0.0,1.0
681996000,681996000,0.009233577,-0.018378563,0.038233742,0.6011351,0.0,0.0,0.0,1.0
682096000,682096000,0.0027609405,-0.0041341735,0.035657108,0.60213286,0.0,0.0,0.0,1.0
682196000,682196000,0.01519802,0.0012676138,0.04020833,0.6038124,0.0,0.0,0.0,1.0
682296000,682296000,0.016421912,-0.010663047,0.04010703,0.60336655,0.0,0.0,0.0,1.0
682396000,682396000,0.013826247,-0.008137699,0.039536096,0.6029868,0.0,0.0,0.0,1.0
682496000,682496000,0.0013992982,-0.009831544,0.039788865,0.6000138,0.0,0.0,0.0,1.0
682596000,682596000,0.013281514,-0.014947658,0.034810472,0.6008747,0.0,0.0,0.0,1.0
682696000,682696000,0.014571799,-0.01923112,0.03426301,0.5985854,0.0,0.0,0.0,1.0
682796000,682796000,0.021861283,-0.0034555506,0.04356573,0.59534746,0.0,0.0,0.0,1.0
682896000,682896000,0.027886674,-0.013004883,0.04293078,0.5937439,0.0,0.0,0.0,1.0
683000000,683000000,0.02200864,-0.021779928,0.040588602,0.59050065,0.0,0.0,0.0,1.0
683096000,683096000,0.016194334,-0.023169652,0.045759756,0.588139,0.0,0.0,0.0,1.0
683196000,683196000,0.014982614,-0.012435855,0.040563293,0.5868749,0.0,0.0,0.0,1.0
683296000,683296000,-0.0059076063,-0.017998619,0.039216615,0.58674395,0.0,0.0,0.0,1.0
683396000,683396000,-0.0066182874,-0.0070457663,0.037428323,0.5856689,0.0,0.0,0.0,1.0
683496000,683496000,-0.002218456,-0.013003773,0.017611146,0.5837699,0.0,0.0,0.0,1.0
683600000,683600000,-0.0029241787,-0.02240903,-0.011864062,0.58475596,0.0,0.0,0.0,1.0
683696000,683696000,0.010502742,-0.010460626,-0.023552988,0.5825133,0.0,0.0,0.0,1.0
683796000,683796000,0.011224277,-0.013557164,-0.026315922,0.5832897,0.0,0.0,0.0,1.0
683896000,683896000,0.002280123,-0.0077043287,-0.025054311,0.5823853,0.0,0.0,0.0,1.0
683996000,683996000,-0.003566213,-0.01011009,-0.022404557,0.57908016,0.0,0.0,0.0,1.0
684096000,684096000,0.009269785,-0.0133854,-0.016878065,0.5800638,0.0,0.0,0.0,1.0
684196000,684196000,-0.0066662636,-0.017657585,-0.014327228,0.5812341,0.0,0.0,0.0,1.0
684296000,684296000,-0.0054481756,-0.028604649,-0.0076363757,0.57879406,0.0,0.0,0.0,1.0
684400000,684400000,-0.011349704,-0.011896037,-0.0050366838,0.58026767,0.0,0.0,0.0,1.0
684500000,684500000,7.3289615e-05,-0.008399682,-0.0011259373,0.5789787,0.0,0.0,0.0,1.0
684596000,684596000,0.0009312316,-0.008146173,0.000997032,0.57912886,0.0,0.0,0.0,1.0
684700000,684700000,-0.0005159351,-0.008742485,0.002076935,0.57916576,0.0,0.0,0.0,1.0
684796000,684796000,-0.0040760543,-0.0061073205,0.00202531,0.5781069,0.0,0.0,0.0,1.0
684900000,684900000,1.309556e-06,-0.007906776,-0.0011949483,0.5773322,0.0,0.0,0.0,1.0
685000000,685000000,-0.0026618766,-0.012759242,0.0009738859,0.5769676,0.0,0.0,0.0,1.0
685096000,685096000,0.0020411415,-0.0017425064,0.0011169184,0.57560974,0.0,0.0,0.0,1.0
685200000,685200000,-0.016770301,-0.008910063,0.0027399324,0.5749049,0.0,0.0,0.0,1.0
685300000,685300000,0.004031343,-0.0022467384,0.0023889458,0.5752592,0.0,0.0,0.0,1.0
685396000,685396000,-0.012723954,-0.016112309,0.0014803968,0.57403564,0.0,0.0,0.0,1.0
685496000,685496000,-0.0057410505,-0.0066109262,0.002447126,0.57382023,0.0,0.0,0.0,1.0
685600000,685600000,-0.0049052723,-0.008027796,0.0022843238,0.57331806,0.0,0.0,0.0,1.0
685696000,685696000,-0.0057142945,-0.0047042784,0.0007690443,0.57256126,0.0,0.0,0.0,1.0
685796000,685796000,-0.0036890022,-0.0015548128,0.0026008356,0.57357347,0.0,0.0,0.0,1.0
685896000,685896000,0.00013437378,-0.005287003,0.0018100399,0.5720549,0.0,0.0,0.0,1.0
685996000,685996000,-0.0054175025,0.0023270193,0.0024882718,0.5739621,0.0,0.0,0.0,1.0
686096000,686096000,-0.0039157337,-0.0053572897,0.0017322032,0.57268846,0.0,0.0,0.0,1.0
686196000,686196000,-0.0069316365,-0.016943341,0.0021623187,0.5734936,0.0,0.0,0.0,1.0
686296000,686296000,0.0013549073,-0.017045723,0.0023498721,0.5717451,0.0,0.0,0.0,1.0
686396000,686396000,-0.0064050797,-0.011230846,-3.5809353e-06,0.57305604,0.0,0.0,0.0,1.0
686496000,686496000,-0.013106586,-0.015314232,0.004578327,0.5710884,0.0,0.0,0.0,1.0
686596000,686596000,0.0064087696,-0.0033396948,0.0027557397,0.5728603,0.0,0.0,0.0,1.0
686700000,686700000,0.003520055,-0.0019429519,0.0024782908,0.57058305,0.0,0.0,0.0,1.0
686800000,686800000,0.0024164345,0.0050505786,0.000798495,0.571289,0.0,0.0,0.0,1.0
686896000,686896000,0.0063450825,-0.016270982,0.002547242,0.5709887,0.0,0.0,0.0,1.0
686996000,686996000,-0.0030277665,0.008840308,0.0023658646,0.56942123,0.0,0.0,0.0,1.0
687096000,687096000,-0.0042818636,-0.006707561,0.0015920529,0.5701001,0.0,0.0,0.0,1.0
687196000,687196000,-0.004705098,0.005229958,0.0010365001,0.56966275,0.0,0.0,0.0,1.0
687300000,687300000,-0.00027718837,-0.011961266,0.0007858393,0.5719731,0.0,0.0,0.0,1.0
687396000,687396000,0.00787095,-0.010903047,0.0015709,0.5703539,0.0,0.0,0.0,1.0
687496000,687496000,0.003032486,0.0030556908,-0.00025235396,0.5707358,0.0,0.0,0.0,1.0
687596000,687596000,-0.00527111,-0.008417889,0.002023,0.5695454,0.0,0.0,0.0,1.0
687696000,687696000,0.0033462066,-0.0036360747,0.0017241975,0.57153815,0.0,0.0,0.0,1.0
687796000,687796000,-0.00080393185,0.002077505,0.0015431342,0.570083,0.0,0.0,0.0,1.0
687896000,687896000,-0.011708338,-0.009503572,0.004236665,0.5708676,0.0,0.0,0.0,1.0
687996000,687996000,-0.01006937,-0.012903402,0.0027740928,0.5688548,0.0,0.0,0.0,1.0
688096000,688096000,0.008242531,-0.0005081203,0.0035882583,0.57075125,0.0,0.0,0.0,1.0
688196000,688196000,-0.0022121365,-0.0012020702,0.0033310307,0.57050264,0.0,0.0,0.0,1.0
688296000,688296000,-0.0014822497,-0.004572427,0.004645682,0.5682213,0.0,0.0,0.0,1.0
688396000,688396000,-0.01139923,0.003951237,0.0036009043,0.5685556,0.0,0.0,0.0,1.0
688500000,688500000,0.0009214532,0.00037193066,0.0034697747,0.569343,0.0,0.0,0.0,1.0
688596000,688596000,-0.00808613,0.0026215385,0.0028533041,0.56986624,0.0,0.0,0.0,1.0
688700000,688700000,-0.015378151,-0.006127768,0.003105594,0.57009643,0.0,0.0,0.0,1.0
688796000,688796000,-0.0073393593,-0.0042645205,0.0040682317,0.5691693,0.0,0.0,0.0,1.0
688896000,688896000,-0.0031532787,-0.011502551,-0.0063359933,0.5679255,0.0,0.0,0.0,1.0
688996000,688996000,0.008215893,0.004438288,-0.0061592828,0.5710499,0.0,0.0,0.0,1.0
689096000,689096000,-0.005971648,-0.025541304,-0.036360823,0.5701221,0.0,0.0,0.0,1.0
689196000,689196000,0.017795121,-0.020142093,-0.058765817,0.56797856,0.0,0.0,0.0,1.0
689296000,689296000,0.0067006196,-0.019796332,-0.046727076,0.5683395,0.0,0.0,0.0,1.0
689396000,689396000,-0.015855571,-0.020457014,-0.01987543,0.5699877,0.0,0.0,0.0,1.0
689500000,689500000,0.0047968407,-0.022665326,-0.0024844464,0.57649165,0.0,0.0,0.0,1.0
689596000,689596000,0.006585993,-0.008051643,0.00625618,0.5783174,0.0,0.0,0.0,1.0
689696000,689696000,-0.0050139725,0.0034208703,0.008799808,0.58134073,0.0,0.0,0.0,1.0
689796000,689796000,-0.012357779,-0.0005982891,0.011317036,0.5901128,0.0,0.0,0.0,1.0
689896000,689896000,0.0042261435,-0.0021739174,0.0128783295,0.59625953,0.0,0.0,0.0,1.0
689996000,689996000,0.004127853,-0.01628314,0.009336334,0.6050294,0.0,0.0,0.0,1.0
690096000,690096000,0.007076007,-0.024536204,0.005785046,0.60967803,0.0,0.0,0.0,1.0
690200000,690200000,0.006877424,-0.019794023,0.0065618516,0.61387044,0.0,0.0,0.0,1.0
690296000,690296000,-0.008035365,-0.014332226,0.004603532,0.6173112,0.0,0.0,0.0,1.0
690400000,690400000,0.015408613,-0.0050968276,0.0010010358,0.6202812,0.0,0.0,0.0,1.0
690496000,690496000,0.00423997,-0.004882929,0.0024915144,0.6226002,0.0,0.0,0.0,1.0
690600000,690600000,-0.008072887,-0.01049177,0.00074275956,0.6283778,0.0,0.0,0.0,1.0
690696000,690696000,0.006917997,-0.023453016,0.00029890693,0.6263513,0.0,0.0,0.0,1.0
690796000,690796000,-0.0062902216,-0.018721811,-4.432333e-05,0.62487435,0.0,0.0,0.0,1.0
690896000,690896000,0.0018380895,-0.025269128,-0.00078144413,0.6214325,0.0,0.0,0.0,1.0
691000000,691000000,0.0071217734,-0.029996138,-0.0010446588,0.6189842,0.0,0.0,0.0,1.0
691096000,691096000,-0.0081662135,-0.036145598,-0.0006652467,0.6132137,0.0,0.0,0.0,1.0
691196000,691196000,0.010761267,-0.044958226,-0.0030917863,0.61204016,0.0,0.0,0.0,1.0
691296000,691296000,0.004815579,-0.044981565,0.002457592,0.60689944,0.0,0.0,0.0,1.0
691396000,691396000,0.005153699,-0.050451737,0.0019642862,0.6037651,0.0,0.0,0.0,1.0
691496000,691496000,0.0024588162,-0.041564427,-0.0002565466,0.60184264,0.0,0.0,0.0,1.0
691596000,691596000,0.0064201783,-0.02383766,0.00022528906,0.59951127,0.0,0.0,0.0,1.0
691696000,691696000,0.0063294624,-0.013286779,0.0011688626,0.6003803,0.0,0.0,0.0,1.0
691800000,691800000,0.0035676863,-0.00807004,-0.0010638663,0.59840846,0.0,0.0,0.0,1.0
691896000,691896000,-0.0020150323,-0.012345063,-0.0009520119,0.59777695,0.0,0.0,0.0,1.0
691996000,691996000,0.0006031323,-0.03611616,0.0012639813,0.596579,0.0,0.0,0.0,1.0
692096000,692096000,-0.0032725115,-0.026973274,0.00053589954,0.5936353,0.0,0.0,0.0,1.0
692200000,692200000,-0.011792872,-0.02292688,0.00031416788,0.59373873,0.0,0.0,0.0,1.0
692296000,692296000,-0.014195354,-0.015160333,-0.00028027047,0.59336454,0.0,0.0,0.0,1.0
692396000,692396000,-0.009281963,-0.021009922,0.00033182718,0.5916716,0.0,0.0,0.0,1.0
692500000,692500000,0.0055491407,-0.023447448,-0.00059897074,0.59032565,0.0,0.0,0.0,1.0
692596000,692596000,-0.0013265098,-0.022462873,0.0007286278,0.59097505,0.0,0.0,0.0,1.0
692700000,692700000,0.01163559,-0.019962383,-0.0014036088,0.5887479,0.0,0.0,0.0,1.0
692796000,692796000,0.007836066,-0.028662918,0.00061095646,0.5890868,0.0,0.0,0.0,1.0
692896000,692896000,0.0011718906,-0.02474708,3.0350151e-05,0.5898943,0.0,0.0,0.0,1.0
692996000,692996000,-0.008530415,-0.016307341,0.0021696487,0.58617574,0.0,0.0,0.0,1.0
693100000,693100000,0.0025472715,-0.015473054,-0.0009759827,0.58933604,0.0,0.0,0.0,1.0
693196000,693196000,0.009182984,-0.0020661633,0.0008834793,0.58613175,0.0,0.0,0.0,1.0
693296000,693296000,-0.0025536746,-0.00596962,0.00048495893,0.58920145,0.0,0.0,0.0,1.0
693400000,693400000,0.0045550717,-0.008478934,0.0007723825,0.58435214,0.0,0.0,0.0,1.0
693496000,693496000,-0.004307946,-0.01957391,0.00085238204,0.58870745,0.0,0.0,0.0,1.0
693596000,693596000,-0.0036568185,-0.025506811,0.00071274466,0.58216375,0.0,0.0,0.0,1.0
693696000,693696000,-0.0073642572,-0.018542206,0.0009923007,0.5811727,0.0,0.0,0.0,1.0
693800000,693800000,-0.0010639923,-0.01864961,0.001683679,0.5832197,0.0,0.0,0.0,1.0
693896000,693896000,0.0037458667,-0.012768359,-0.0010501391,0.58305913,0.0,0.0,0.0,1.0
694000000,694000000,0.0017590784,-0.022165935,0.0019690506,0.5816263,0.0,0.0,0.0,1.0
694100000,694100000,0.00030733203,-0.018647308,0.00014195815,0.58012646,0.0,0.0,0.0,1.0
694200000,694200000,-0.005403169,-0.017935805,0.002891441,0.5817475,0.0,0.0,0.0,1.0
694300000,694300000,0.0018750735,-0.019551199,0.00078451436,0.5803496,0.0,0.0,0.0,1.0
694396000,694396000,0.007067142,-0.0039677736,-0.0002046274,0.5798634,0.0,0.0,0.0,1.0
694500000,694500000,0.007113152,-0.017692283,0.0011281669,0.5812002,0.0,0.0,0.0,1.0
694596000,694596000,0.0062376983,-0.014834933,0.0017467928,0.57793385,0.0,0.0,0.0,1.0
694696000,694696000,-0.0022343928,-0.0048386836,0.0011748773,0.5782643,0.0,0.0,0.0,1.0
694796000,694796000,0.0019812223,-0.012944833,0.0024071229,0.57637745,0.0,0.0,0.0,1.0
694896000,694896000,-0.0074026226,-0.013126702,-0.00046063098,0.5757783,0.0,0.0,0.0,1.0
694996000,694996000,-5.646923e-05,-0.0018778685,0.0019314807,0.5765003,0.0,0.0,0.0,1.0
695096000,695096000,0.007895643,-0.010045435,0.0008409108,0.57625186,0.0,0.0,0.0,1.0
695196000,695196000,-0.0085051255,-0.01748539,-0.00042204186,0.57307714,0.0,0.0,0.0,1.0
695296000,695296000,-0.00044720096,-0.004110309,0.002192271,0.5756692,0.0,0.0,0.0,1.0
695396000,695396000,-0.0051361667,-0.012120527,0.00047426228,0.5743566,0.0,0.0,0.0,1.0
695496000,695496000,0.0069389036,-0.017922742,0.0015435612,0.5744071,0.0,0.0,0.0,1.0
695600000,695600000,0.00591701,-0.0015428383,0.0003523981,0.57257783,0.0,0.0,0.0,1.0
695696000,695696000,0.012898313,-0.004159434,0.00029577667,0.5730806,0.0,0.0,0.0,1.0
695796000,695796000,-0.0013103741,0.00077057723,0.0009641629,0.5739359,0.0,0.0,0.0,1.0
695896000,695896000,0.0030627237,-0.010050869,0.0039401613,0.5729847,0.0,0.0,0.0,1.0
695996000,695996000,-9.486807e-05,-0.010450009,0.0029178378,0.5728988,0.0,0.0,0.0,1.0
696096000,696096000,0.00765523,-0.0055895145,0.00022490928,0.5727204,0.0,0.0,0.0,1.0
696196000,696196000,-0.0054584993,-0.009267084,0.0031150489,0.57222927,0.0,0.0,0.0,1.0
696296000,696296000,-0.009654481,-0.004050142,0.0006171309,0.5717461,0.0,0.0,0.0,1.0
696400000,696400000,-0.0011317187,-0.001115358,0.009682808,0.5713122,0.0,0.0,0.0,1.0
696496000,696496000,-0.010349955,-0.035704818,0.035941027,0.5704681,0.0,0.0,0.0,1.0
696596000,696596000,-0.015224675,-0.047904786,0.02047565,0.5749089,0.0,0.0,0.0,1.0
696696000,696696000,0.0030518863,-0.0530743,0.0073857913,0.5803248,0.0,0.0,0.0,1.0
696796000,696796000,-0.011697503,-0.01271824,-0.0010700882,0.5832602,0.0,0.0,0.0,1.0
696900000,696900000,0.00899835,0.020892108,-0.0055879005,0.5850237,0.0,0.0,0.0,1.0
696996000,696996000,-0.00039699348,0.019625682,-0.005734408,0.5963287,0.0,0.0,0.0,1.0
697096000,697096000,-0.00566398,0.008032529,-0.008340194,0.6052079,0.0,0.0,0.0,1.0
697196000,697196000,-0.0016958178,-0.008213496,-0.0052451408,0.6126541,0.0,0.0,0.0,1.0
697296000,697296000,0.0003490729,-0.026928414,-0.0059345774,0.62245107,0.0,0.0,0.0,1.0
697396000,697396000,0.00265949,-0.019768788,-0.0019445027,0.6261317,0.0,0.0,0.0,1.0
697496000,697496000,-0.0029761128,-0.022828072,-0.0027284406,0.63293236,0.0,0.0,0.0,1.0
697596000,697596000,-0.002565723,-0.018409278,-0.00077594735,0.6383139,0.0,0.0,0.0,1.0
697696000,697696000,0.008079284,-0.020883279,-0.00043502392,0.64468807,0.0,0.0,0.0,1.0
697796000,697796000,0.001513384,-0.03583183,0.002190788,0.6569757,0.0,0.0,0.0,1.0
697896000,697896000,-0.0048494292,-0.03190132,-0.00011044869,0.6632117,0.0,0.0,0.0,1.0
697996000,697996000,-0.0033582437,-0.03452779,0.00013061537,0.6663583,0.0,0.0,0.0,1.0
698100000,698100000,0.0145474095,-0.030019637,0.00018764747,0.67469513,0.0,0.0,0.0,1.0
698196000,698196000,6.207568e-05,-0.03366959,0.0010872053,0.6806057,0.0,0.0,0.0,1.0
698300000,698300000,0.0054641683,-0.035415906,0.0004837368,0.6865519,0.0,0.0,0.0,1.0
698400000,698400000,0.008556419,-0.027407426,0.00042880903,0.6867872,0.0,0.0,0.0,1.0
698496000,698496000,-0.0018854416,-0.034875873,0.0023491585,0.69090104,0.0,0.0,0.0,1.0
698596000,698596000,0.013053023,-0.030721024,0.00075441645,0.68597573,0.0,0.0,0.0,1.0
698696000,698696000,-0.009273276,-0.041928247,0.0012670807,0.6830801,0.0,0.0,0.0,1.0
698796000,698796000,0.001867645,-0.055714734,-0.0036377509,0.6835235,0.0,0.0,0.0,1.0
698896000,698896000,0.008847285,-0.056414664,-0.0021438745,0.68168813,0.0,0.0,0.0,1.0
698996000,698996000,0.012356926,-0.061357617,-0.0025697276,0.67719114,0.0,0.0,0.0,1.0
699096000,699096000,0.004153681,-0.04475731,-0.0012246247,0.6757936,0.0,0.0,0.0,1.0
699196000,699196000,0.0028699767,-0.029575553,-0.0011096325,0.67651916,0.0,0.0,0.0,1.0
699296000,699296000,0.014038427,-0.04196789,-0.00084545487,0.67976487,0.0,0.0,0.0,1.0
699400000,699400000,-0.009481186,-0.047688015,-0.0020642935,0.6803106,0.0,0.0,0.0,1.0
699496000,699496000,0.000493099,-0.048747882,-0.00060449727,0.67827123,0.0,0.0,0.0,1.0
699600000,699600000,0.0022508001,-0.065232664,-0.0008136957,0.67779213,0.0,0.0,0.0,1.0
699696000,699696000,0.007009024,-0.04204749,-0.0028142256,0.6750709,0.0,0.0,0.0,1.0
699796000,699796000,0.004863122,-0.04639858,-0.0025378154,0.6755703,0.0,0.0,0.0,1.0
699896000,699896000,-0.0025295927,-0.037730206,0.0020428281,0.67668396,0.0,0.0,0.0,1.0
699996000,699996000,0.0021655427,-0.049264535,-0.0007161258,0.67710185,0.0,0.0,0.0,1.0
700096000,700096000,0.009809423,-0.040801827,-0.0018866656,0.6768015,0.0,0.0,0.0,1.0
700200000,700200000,0.018214002,-0.04599453,-0.0015369817,0.67743295,0.0,0.0,0.0,1.0
700296000,700296000,0.011144431,-0.053241033,0.00023196,0.6762386,0.0,0.0,0.0,1.0
700396000,700396000,0.013676692,-0.036099166,0.00027751186,0.67512536,0.0,0.0,0.0,1.0
700496000,700496000,0.002210793,-0.050232455,0.00018948331,0.67551416,0.0,0.0,0.0,1.0
700596000,700596000,-0.0015687511,-0.039106913,-0.0010429369,0.67630535,0.0,0.0,0.0,1.0
700696000,700696000,-0.0003471931,-0.049814876,-0.0026192893,0.6753298,0.0,0.0,0.0,1.0
700800000,700800000,0.012202146,-0.03942585,-0.00021227979,0.6771146,0.0,0.0,0.0,1.0
700896000,700896000,0.0009155744,-0.040968325,0.0002256399,0.67632705,0.0,0.0,0.0,1.0
700996000,700996000,0.00035407324,-0.047132745,-0.0009505445,0.67540437,0.0,0.0,0.0,1.0
701096000,701096000,0.008407214,-0.035580795,-0.00049747754,0.67470074,0.0,0.0,0.0,1.0
701196000,701196000,0.00054451404,-0.03792969,-7.87726e-05,0.6744634,0.0,0.0,0.0,1.0
701296000,701296000,0.0032046614,-0.039643284,-0.0018541852,0.67153674,0.0,0.0,0.0,1.0
701396000,701396000,-0.00462217,-0.025838658,-0.00027052328,0.6694061,0.0,0.0,0.0,1.0
701496000,701496000,0.0012444512,-0.045855943,-0.00064335286,0.6699163,0.0,0.0,0.0,1.0
701596000,701596000,-0.0037068466,-0.07352004,-0.00038434914,0.667187,0.0,0.0,0.0,1.0
701696000,701696000,0.00760818,-0.06267366,-0.0013886688,0.65855765,0.0,0.0,0.0,1.0
701796000,701796000,0.017524475,-0.06415967,-0.0018518525,0.6535977,0.0,0.0,0.0,1.0
701896000,701896000,-0.0041962867,-0.032042023,-0.0013985008,0.6497105,0.0,0.0,0.0,1.0
701996000,701996000,-0.001842769,-0.031989016,-0.0009300938,0.6481991,0.0,0.0,0.0,1.0
702096000,702096000,-0.0010766836,-0.030698385,0.0004106554,0.64626616,0.0,0.0,0.0,1.0
702196000,702196000,0.004843332,-0.039868336,-0.0014471724,0.64321655,0.0,0.0,0.0,1.0
702296000,702296000,0.0058040796,-0.043547615,-0.00081828074,0.63956046,0.0,0.0,0.0,1.0
702396000,702396000,-0.005346081,-0.03995201,-0.00087724766,0.63690835,0.0,0.0,0.0,1.0
702496000,702496000,0.012665727,-0.04846543,-4.7681795e-05,0.63441265,0.0,0.0,0.0,1.0
702596000,702596000,0.0024138566,-0.03549286,0.000255173,0.6342088,0.0,0.0,0.0,1.0
702696000,702696000,0.0076786694,-0.030829761,0.00037312077,0.6304582,0.0,0.0,0.0,1.0
702796000,702796000,-0.00033926056,-0.032393765,0.0009344014,0.6283827,0.0,0.0,0.0,1.0
702900000,702900000,-3.9875653e-05,-0.03202437,-0.0020391955,0.62475264,0.0,0.0,0.0,1.0
703000000,703000000,0.0058780764,-0.032887205,-0.001930469,0.6241607,0.0,0.0,0.0,1.0
703096000,703096000,-0.003317193,-0.037463196,0.0008520786,0.6222029,0.0,0.0,0.0,1.0
703196000,703196000,0.0052919374,-0.033797074,0.0018750803,0.6187805,0.0,0.0,0.0,1.0
703300000,703300000,0.0053304327,-0.04532572,0.0008872801,0.6185445,0.0,0.0,0.0,1.0
703396000,703396000,-0.0075036376,-0.023753718,-0.0006647611,0.61458397,0.0,0.0,0.0,1.0
703496000,703496000,-8.3137085e-05,-0.039763585,-0.0002868056,0.61384034,0.0,0.0,0.0,1.0
703600000,703600000,0.0010406186,-0.028761603,-0.0018360501,0.61052215,0.0,0.0,0.0,1.0
703696000,703696000,-0.0002725682,-0.037703093,-0.0009627853,0.61122656,0.0,0.0,0.0,1.0
703796000,703796000,0.010392783,-0.028080635,-0.00043544394,0.6083184,0.0,0.0,0.0,1.0
703896000,703896000,0.0010510087,-0.024714826,0.0008417442,0.6062465,0.0,0.0,0.0,1.0
703996000,703996000,0.0018514956,-0.021289948,-0.0012766287,0.60538614,0.0,0.0,0.0,1.0
704096000,704096000,0.0007825233,-0.028785093,0.0014825864,0.6033514,0.0,0.0,0.0,1.0
704200000,704200000,0.006628336,-0.027652144,-0.0012653115,0.6011643,0.0,0.0,0.0,1.0
704296000,704296000,-0.0028163549,-0.024099037,0.00013858941,0.6015703,0.0,0.0,0.0,1.0
704400000,704400000,-0.012489831,-0.027304232,-0.0009211387,0.59832233,0.0,0.0,0.0,1.0
704500000,704500000,0.0022133712,-0.0133842435,0.00056143117,0.59900796,0.0,0.0,0.0,1.0
704596000,704596000,0.005266069,-0.020915207,-0.0027716039,0.5971008,0.0,0.0,0.0,1.0
704696000,704696000,-0.0016029341,-0.024269626,0.0015127726,0.59760976,0.0,0.0,0.0,1.0
704796000,704796000,0.005222055,-0.012593479,-0.0011963159,0.5947781,0.0,0.0,0.0,1.0
704896000,704896000,-0.009009276,-0.029701767,-0.0017047883,0.59310204,0.0,0.0,0.0,1.0
704996000,704996000,0.0033106194,-0.024683055,-0.0008825302,0.5905842,0.0,0.0,0.0,1.0
705096000,705096000,-0.0023460342,-0.023792276,-3.3995893e-05,0.5908356,0.0,0.0,0.0,1.0
705196000,705196000,-0.0049262773,-0.01938941,0.00034601655,0.5895785,0.0,0.0,0.0,1.0
705296000,705296000,-0.0057661417,-0.025506834,0.0012983233,0.5890757,0.0,0.0,0.0,1.0
705400000,705400000,0.0037823264,-0.012630021,-0.00020102307,0.5886913,0.0,0.0,0.0,1.0
705500000,705500000,0.0016977999,-0.027957015,-0.0026881874,0.5860499,0.0,0.0,0.0,1.0
705600000,705600000,-0.002921197,-0.026038684,-0.00071220426,0.5861673,0.0,0.0,0.0,1.0
705696000,705696000,-0.0021761716,-0.010782331,0.00058258965,0.5844686,0.0,0.0,0.0,1.0
705796000,705796000,0.008685831,-0.010000864,0.0020850026,0.5857714,0.0,0.0,0.0,1.0
705896000,705896000,0.0042232294,-0.027180204,0.0036417502,0.5853569,0.0,0.0,0.0,1.0
706000000,706000000,0.0031338332,-0.01190968,0.000912313,0.5827195,0.0,0.0,0.0,1.0
706096000,706096000,-0.0012996112,-0.011874029,0.00045866182,0.5796713,0.0,0.0,0.0,1.0
706196000,706196000,0.004022283,-0.02179124,0.00011778386,0.58114994,0.0,0.0,0.0,1.0
706296000,706296000,-0.006006772,-0.013133515,0.00031769296,0.5808163,0.0,0.0,0.0,1.0
706396000,706396000,0.0016655398,-0.013972605,0.00090108986,0.57882804,0.0,0.0,0.0,1.0
706496000,706496000,0.0020356898,-0.019816812,0.0014033798,0.57955015,0.0,0.0,0.0,1.0
706596000,706596000,0.0007771967,-0.022271091,0.0018213176,0.5796064,0.0,0.0,0.0,1.0
706696000,706696000,-0.0038762537,-0.0028227754,0.0025782753,0.578046,0.0,0.0,0.0,1.0
706796000,706796000,0.0042429916,-0.017186524,-0.0009798012,0.577887,0.0,0.0,0.0,1.0
706900000,706900000,-0.0036253128,-0.013708409,0.0003511084,0.57726836,0.0,0.0,0.0,1.0
707000000,707000000,-0.013410214,-0.0082994765,0.00065720675,0.5757448,0.0,0.0,0.0,1.0
707100000,707100000,-0.0013691171,-0.006568945,0.00023891214,0.5756097,0.0,0.0,0.0,1.0
707196000,707196000,-0.0045563234,0.004247333,0.00024373157,0.57543045,0.0,0.0,0.0,1.0
707296000,707296000,0.005560491,-0.0047570746,0.0015998307,0.574959,0.0,0.0,0.0,1.0
707396000,707396000,0.0030419456,-0.00264731,0.00035524007,0.5737703,0.0,0.0,0.0,1.0
707496000,707496000,0.01306415,-0.012799298,-0.00082776666,0.57247055,0.0,0.0,0.0,1.0
707596000,707596000,0.012546461,0.017017448,0.03980638,0.5717718,0.0,0.0,0.0,1.0
707696000,707696000,0.0033340473,0.018318344,0.06350733,0.57150936,0.0,0.0,0.0,1.0
707796000,707796000,0.010679642,0.01701097,0.06947892,0.5704258,0.0,0.0,0.0,1.0
707896000,707896000,-0.0013493422,-0.0004483573,0.06987411,0.5706532,0.0,0.0,0.0,1.0
707996000,707996000,-0.015942533,-0.04605123,0.071861304,0.56657976,0.0,0.0,0.0,1.0
708100000,708100000,-0.027880754,-0.03469202,0.06483776,0.5660279,0.0,0.0,0.0,1.0
708200000,708200000,-0.01560108,-0.013986509,0.06261381,0.56711966,0.0,0.0,0.0,1.0
708296000,708296000,-0.017467711,0.009286766,0.05728067,0.5701471,0.0,0.0,0.0,1.0
708396000,708396000,-0.012611944,0.0048519066,0.046289936,0.5725703,0.0,0.0,0.0,1.0
708496000,708496000,-0.01128364,0.003180454,0.041693807,0.5754666,0.0,0.0,0.0,1.0
708600000,708600000,-0.011012161,0.010657281,0.044462934,0.5814012,0.0,0.0,0.0,1.0
708696000,708696000,-0.005159394,0.00038725324,0.045520894,0.5829908,0.0,0.0,0.0,1.0
708796000,708796000,0.004104657,0.0071664876,0.042964973,0.5862893,0.0,0.0,0.0,1.0
708896000,708896000,-0.0064285602,0.0022521485,0.043116268,0.591089,0.0,0.0,0.0,1.0
708996000,708996000,0.0047526187,0.007998709,0.041089334,0.5947675,0.0,0.0,0.0,1.0
709096000,709096000,-0.009050882,0.008781149,0.037130527,0.5946855,0.0,0.0,0.0,1.0
709196000,709196000,0.0025745798,0.012658911,0.048895143,0.5981731,0.0,0.0,0.0,1.0
709296000,709296000,0.0052981526,0.0058755055,0.04560612,0.59844065,0.0,0.0,0.0,1.0
709396000,709396000,0.0004644337,-0.0008653053,0.046621203,0.5995701,0.0,0.0,0.0,1.0
709496000,709496000,-0.0025148739,0.0085037295,0.04466367,0.59867525,0.0,0.0,0.0,1.0
709596000,709596000,0.01438376,0.005195167,0.039832786,0.5985081,0.0,0.0,0.0,1.0
709696000,709696000,0.010889023,0.01266643,0.037829656,0.5952028,0.0,0.0,0.0,1.0
709800000,709800000,0.008288525,0.006243754,0.044624172,0.5934129,0.0,0.0,0.0,1.0
709896000,709896000,0.014697151,-0.006898261,0.041843608,0.59194475,0.0,0.0,0.0,1.0
709996000,709996000,0.029993597,-0.0050938595,0.043137927,0.58795285,0.0,0.0,0.0,1.0
710096000,710096000,0.025343517,-0.001245101,0.041358534,0.5884059,0.0,0.0,0.0,1.0
710196000,710196000,0.025485547,-0.01320761,0.043316443,0.58552533,0.0,0.0,0.0,1.0
710300000,710300000,0.012844864,0.00023727701,0.047253214,0.5836475,0.0,0.0,0.0,1.0
710396000,710396000,0.011306695,0.005536907,0.046472766,0.5839393,0.0,0.0,0.0,1.0
710496000,710496000,0.013490129,0.0013142098,0.044918764,0.5817847,0.0,0.0,0.0,1.0
710600000,710600000,-0.0028797034,-0.009882241,0.041468162,0.58371246,0.0,0.0,0.0,1.0
710696000,710696000,0.00054916274,-0.0067205513,0.04149659,0.5813329,0.0,0.0,0.0,1.0
710800000,710800000,0.003922428,-0.007894528,0.03976281,0.5810181,0.0,0.0,0.0,1.0
710896000,710896000,0.0021490934,-0.011109419,0.03768219,0.57916206,0.0,0.0,0.0,1.0
710996000,710996000,0.008878286,-0.0019564927,0.045442138,0.5803798,0.0,0.0,0.0,1.0
711096000,711096000,0.003523398,-0.017652184,0.044970687,0.5787455,0.0,0.0,0.0,1.0
711200000,711200000,-0.011424574,-0.01102026,0.042791888,0.57793546,0.0,0.0,0.0,1.0
711296000,711296000,0.0060385414,-0.010490483,0.00984652,0.5780699,0.0,0.0,0.0,1.0
711396000,711396000,0.021262633,-0.016477447,-0.015640445,0.57889205,0.0,0.0,0.0,1.0
711500000,711500000,0.016345654,-0.009226177,-0.02692885,0.57760084,0.0,0.0,0.0,1.0
711600000,711600000,0.007957697,-0.008625931,-0.03022971,0.5783977,0.0,0.0,0.0,1.0
711696000,711696000,0.017737288,0.0014154352,-0.027490472,0.5770048,0.0,0.0,0.0,1.0
711800000,711800000,-0.001270696,-0.009579473,-0.021513782,0.5757661,0.0,0.0,0.0,1.0
711896000,711896000,0.008758146,-0.009308346,-0.02063528,0.5759193,0.0,0.0,0.0,1.0
711996000,711996000,-0.0077298013,-0.009639855,-0.013472352,0.5778464,0.0,0.0,0.0,1.0
712096000,712096000,0.008553808,-0.01809629,-0.009789256,0.5769754,0.0,0.0,0.0,1.0
712200000,712200000,-0.0016389836,-0.016372297,-0.005103262,0.57624185,0.0,0.0,0.0,1.0
712296000,712296000,-0.003368258,0.0050194133,-0.004635416,0.5770994,0.0,0.0,0.0,1.0
712396000,712396000,-0.0070509845,-0.006667851,-0.0017812122,0.5737547,0.0,0.0,0.0,1.0
712496000,712496000,0.008474488,-0.015583893,-0.00112403,0.5752488,0.0,0.0,0.0,1.0
712596000,712596000,0.0057512643,-0.012578663,-0.0014778972,0.57708955,0.0,0.0,0.0,1.0
712696000,712696000,0.0069158655,-0.002873654,-0.00086261705,0.57436836,0.0,0.0,0.0,1.0
712796000,712796000,0.003777333,-0.015897457,-0.00036754273,0.5739212,0.0,0.0,0.0,1.0
712900000,712900000,0.0005438401,-0.014674652,0.0005923249,0.5720854,0.0,0.0,0.0,1.0
712996000,712996000,0.0034232384,-0.0075570005,3.4449622e-06,0.57332176,0.0,0.0,0.0,1.0
713100000,713100000,-0.0104751345,-0.0027209255,-0.00056228787,0.5720051,0.0,0.0,0.0,1.0
713196000,713196000,0.0039684754,-0.008285658,-0.0003460124,0.57253516,0.0,0.0,0.0,1.0
713296000,713296000,0.014228426,-0.011325735,0.00069458317,0.5736067,0.0,0.0,0.0,1.0
713396000,713396000,-0.0027139275,-0.0058340877,-0.0008992953,0.5730142,0.0,0.0,0.0,1.0
713496000,713496000,0.002237086,-0.008168287,-4.783552e-05,0.5710551,0.0,0.0,0.0,1.0
713596000,713596000,-0.0073301666,-0.0073728124,-0.00016590115,0.5714631,0.0,0.0,0.0,1.0
713700000,713700000,0.0011569982,-0.00068788,-0.0003481619,0.5708712,0.0,0.0,0.0,1.0
713796000,713796000,-0.0014676694,-0.019834882,0.0012421659,0.57190406,0.0,0.0,0.0,1.0
713900000,713900000,-0.004956631,-0.008312597,0.00013900781,0.57119364,0.0,0.0,0.0,1.0
713996000,713996000,0.0036923573,0.0070380997,0.0011001341,0.5716502,0.0,0.0,0.0,1.0
714096000,714096000,-0.00076877803,-0.004843791,0.00031338725,0.5695434,0.0,0.0,0.0,1.0
714196000,714196000,0.008704329,-0.00669172,0.0011449838,0.5687587,0.0,0.0,0.0,1.0
714296000,714296000,0.0012809688,0.007833788,0.0014814958,0.57173127,0.0,0.0,0.0,1.0
714396000,714396000,-0.0016961478,-0.0040781717,-0.0005915705,0.56964433,0.0,0.0,0.0,1.0
714496000,714496000,-0.009363059,-0.009739313,-9.6893404e-05,0.5696935,0.0,0.0,0.0,1.0
714596000,714596000,0.007604018,-0.0015155515,-0.0019315835,0.569056,0.0,0.0,0.0,1.0
714696000,714696000,-0.0031392234,-0.020504987,0.0011614205,0.5703627,0.0,0.0,0.0,1.0
714800000,714800000,-0.0013170204,-0.0027633873,-0.00043946085,0.5701511,0.0,0.0,0.0,1.0
714896000,714896000,0.008291528,0.009249938,0.0008491378,0.57001895,0.0,0.0,0.0,1.0
714996000,714996000,0.006104297,-0.0079987,-0.00078343414,0.56938964,0.0,0.0,0.0,1.0
715096000,715096000,-0.0017617332,0.0037229792,-0.0006052274,0.56938255,0.0,0.0,0.0,1.0
715196000,715196000,-0.0063660964,-0.005707874,-0.00032773195,0.56890166,0.0,0.0,0.0,1.0
715296000,715296000,0.0080105085,-0.010690002,-0.009220162,0.56997454,0.0,0.0,0.0,1.0
715396000,715396000,0.009587049,-0.025552673,-0.01640216,0.5687016,0.0,0.0,0.0,1.0
715496000,715496000,0.0093075875,-0.02795314,-0.011482455,0.5705495,0.0,0.0,0.0,1.0
715600000,715600000,0.008719491,-0.023673683,-0.0035139131,0.57196975,0.0,0.0,0.0,1.0
715696000,715696000,-0.003018007,-0.008504499,0.00070879015,0.57464874,0.0,0.0,0.0,1.0
715796000,715796000,0.003175552,-0.0003455216,0.0023495879,0.5807999,0.0,0.0,0.0,1.0
715896000,715896000,0.011305014,-0.0029227575,0.00081678876,0.5859078,0.0,0.0,0.0,1.0
716000000,716000000,-0.009552161,0.013805065,0.0009883316,0.5924262,0.0,0.0,0.0,1.0
716096000,716096000,-0.0073396023,0.00047748303,0.0030434509,0.5975345,0.0,0.0,0.0,1.0
716196000,716196000,-0.0028401078,-0.0115655875,0.0030824677,0.6047258,0.0,0.0,0.0,1.0
716296000,716296000,-0.00751293,-0.011898542,0.0020071089,0.60938716,0.0,0.0,0.0,1.0
716396000,716396000,-0.00050325226,-0.037500925,0.00013075862,0.61922425,0.0,0.0,0.0,1.0
716500000,716500000,-0.008391783,-0.029911054,0.00052720617,0.6187637,0.0,0.0,0.0,1.0
716600000,716600000,-0.008071725,-0.011844385,-0.0010114341,0.62475145,0.0,0.0,0.0,1.0
716696000,716696000,-0.0016909713,-0.015753632,0.001610169,0.6298137,0.0,0.0,0.0,1.0
716796000,716796000,0.013221148,-0.018638857,6.175996e-05,0.633549,0.0,0.0,0.0,1.0
716896000,716896000,0.0041418495,-0.017975224,-0.0015416355,0.64059144,0.0,0.0,0.0,1.0
716996000,716996000,0.0018790422,-0.03729188,-0.0010740927,0.6514565,0.0,0.0,0.0,1.0
717096000,717096000,0.0029283138,-0.042297818,0.0014304345,0.6549698,0.0,0.0,0.0,1.0
717196000,717196000,-0.0066128043,-0.027829118,-7.253321e-05,0.65832067,0.0,0.0,0.0,1.0
717296000,717296000,0.0153049175,-0.013780766,0.0011547492,0.6643972,0.0,0.0,0.0,1.0
717396000,717396000,-0.00349417,-0.020282317,-0.0012248305,0.6678701,0.0,0.0,0.0,1.0
717496000,717496000,-0.003365288,-0.01919047,-0.0029173745,0.668934,0.0,0.0,0.0,1.0
717600000,717600000,0.007445979,-0.028792921,-0.0017495775,0.6746809,0.0,0.0,0.0,1.0
717696000,717696000,0.0021504126,-0.025338698,-0.0013135041,0.6755979,0.0,0.0,0.0,1.0
717796000,717796000,-0.001976519,-0.038408175,-0.001533323,0.6751016,0.0,0.0,0.0,1.0
717896000,717896000,0.0075645484,-0.06229539,-0.00079365156,0.6717265,0.0,0.0,0.0,1.0
717996000,717996000,0.010133471,-0.06499708,-0.0022060277,0.6702248,0.0,0.0,0.0,1.0
718100000,718100000,0.004431185,-0.059230883,-0.0015815163,0.6687162,0.0,0.0,0.0,1.0
718200000,718200000,0.0025528427,-0.047525615,0.00010619916,0.6668305,0.0,0.0,0.0,1.0
718296000,718296000,0.007615704,-0.03929533,-0.0017791251,0.66839415,0.0,0.0,0.0,1.0
718400000,718400000,0.0017859658,-0.027388548,-0.0013546384,0.6698975,0.0,0.0,0.0,1.0
718500000,718500000,-0.0056312755,-0.04665687,-0.0010989141,0.6718051,0.0,0.0,0.0,1.0
718600000,718600000,-0.0076538436,-0.04293693,-0.0013709839,0.67238915,0.0,0.0,0.0,1.0
718696000,718696000,4.78375e-05,-0.05292421,-0.0012853205,0.6709616,0.0,0.0,0.0,1.0
718800000,718800000,0.012088401,-0.05254759,-0.0019310911,0.6709514,0.0,0.0,0.0,1.0
718900000,718900000,-0.0036335923,-0.049436994,-0.0015761079,0.6702506,0.0,0.0,0.0,1.0
718996000,718996000,-0.003191582,-0.027492648,-0.00052632,0.67161196,0.0,0.0,0.0,1.0
719096000,719096000,0.0016237991,-0.04095224,-0.0018411158,0.67292976,0.0,0.0,0.0,1.0
719196000,719196000,-0.006337825,-0.040674306,-0.0015422107,0.673521,0.0,0.0,0.0,1.0
719296000,719296000,-0.008398771,-0.040144004,-0.00025577535,0.6728822,0.0,0.0,0.0,1.0
719396000,719396000,-0.0016663114,-0.045793716,-0.001276017,0.67319745,0.0,0.0,0.0,1.0
719496000,719496000,-0.004473565,-0.047572993,-0.0027919686,0.6730822,0.0,0.0,0.0,1.0
719596000,719596000,0.0028771954,-0.04750817,-0.00072054646,0.6713191,0.0,0.0,0.0,1.0
719696000,719696000,-0.0039295126,-0.046265174,-0.002276036,0.6731989,0.0,0.0,0.0,1.0
719796000,719796000,-0.007701756,-0.045411956,-0.0010403814,0.6745264,0.0,0.0,0.0,1.0
719896000,719896000,0.009079366,-0.039972164,-0.00078642543,0.67523533,0.0,0.0,0.0,1.0
719996000,719996000,0.0019451538,-0.057333853,-1.0130054e-05,0.67503256,0.0,0.0,0.0,1.0
720096000,720096000,-0.019542621,-0.053806208,-0.0023853667,0.6738778,0.0,0.0,0.0,1.0
720196000,720196000,0.015225779,-0.044312526,-0.0014929661,0.67212546,0.0,0.0,0.0,1.0
720296000,720296000,0.012714114,-0.036629938,-0.001317177,0.6729579,0.0,0.0,0.0,1.0
720396000,720396000,0.010851908,-0.04171849,-0.002603658,0.6728321,0.0,0.0,0.0,1.0
720496000,720496000,-0.0009686502,-0.045025017,-0.00031862187,0.67326325,0.0,0.0,0.0,1.0
720600000,720600000,0.0057949936,-0.049207192,0.00045431493,0.67325145,0.0,0.0,0.0,1.0
720696000,720696000,0.0030990855,-0.027565254,-0.002869872,0.66797656,0.0,0.0,0.0,1.0
720800000,720800000,0.006071583,-0.036735766,-0.00038261828,0.6661178,0.0,0.0,0.0,1.0
720900000,720900000,0.009666496,-0.046617217,-0.0008232751,0.6623709,0.0,0.0,0.0,1.0
721000000,721000000,-0.009184773,-0.052230533,-0.00095705176,0.6581058,0.0,0.0,0.0,1.0
721096000,721096000,-0.0010920577,-0.06710919,-0.0012352166,0.65318704,0.0,0.0,0.0,1.0
721196000,721196000,0.010039749,-0.051887136,-1.7246697e-05,0.64864826,0.0,0.0,0.0,1.0
721300000,721300000,0.013803341,-0.05494103,0.00014717586,0.64435565,0.0,0.0,0.0,1.0
721396000,721396000,-0.006775528,-0.044296596,-0.0009427518,0.64289147,0.0,0.0,0.0,1.0
721496000,721496000,0.0074007534,-0.04083911,0.0009243932,0.64107066,0.0,0.0,0.0,1.0
721596000,721596000,0.0011872415,-0.04076671,-0.0017536855,0.6392091,0.0,0.0,0.0,1.0
721696000,721696000,-0.0011718264,-0.03932984,0.001858145,0.6343719,0.0,0.0,0.0,1.0
721796000,721796000,0.004664515,-0.030648483,-0.001108256,0.6328755,0.0,0.0,0.0,1.0
721896000,721896000,0.005977644,-0.041631665,0.0008112427,0.632121,0.0,0.0,0.0,1.0
721996000,721996000,0.0073663075,-0.05610732,0.00037342618,0.6255983,0.0,0.0,0.0,1.0
722096000,722096000,0.006183593,-0.043865398,-0.0011653013,0.6289099,0.0,0.0,0.0,1.0
722196000,722196000,0.004501951,-0.043632492,0.0006233274,0.62331975,0.0,0.0,0.0,1.0
722296000,722296000,-0.00081815466,-0.034857232,-0.0002565584,0.62620306,0.0,0.0,0.0,1.0
722396000,722396000,-0.0017514646,-0.040570132,0.0006870886,0.61865556,0.0,0.0,0.0,1.0
722496000,722496000,0.008161183,-0.04432836,-0.0001940178,0.6219583,0.0,0.0,0.0,1.0
722596000,722596000,0.008017377,-0.035102405,-0.0026983877,0.6150246,0.0,0.0,0.0,1.0
722696000,722696000,-0.001051783,-0.032538235,-0.00061761186,0.61530757,0.0,0.0,0.0,1.0
722796000,722796000,0.0129959,-0.024950689,0.0014316249,0.6132904,0.0,0.0,0.0,1.0
722896000,722896000,-0.0017094914,-0.02655147,-0.0012355256,0.61248547,0.0,0.0,0.0,1.0
722996000,722996000,0.003209984,-0.023233427,0.00046899426,0.6111348,0.0,0.0,0.0,1.0
723100000,723100000,-0.011621523,-0.033341102,3.2527023e-06,0.60942477,0.0,0.0,0.0,1.0
723196000,723196000,0.0074043088,-0.026955623,0.0018144336,0.60954064,0.0,0.0,0.0,1.0
723296000,723296000,-0.001537919,-0.027750151,-0.00086641806,0.60399705,0.0,0.0,0.0,1.0
723396000,723396000,-0.0067847925,-0.018562663,-0.0006773642,0.60717213,0.0,0.0,0.0,1.0
723500000,723500000,-0.006946914,-0.025023507,-0.001413255,0.6013871,0.0,0.0,0.0,1.0
723596000,723596000,-0.0018712535,-0.012371907,-0.0016500377,0.6032335,0.0,0.0,0.0,1.0
723700000,723700000,0.0028354423,-0.027529033,-0.0010277093,0.6000943,0.0,0.0,0.0,1.0
723796000,723796000,-0.0044544702,-0.036507025,-0.0005654842,0.60028934,0.0,0.0,0.0,1.0
723896000,723896000,0.000589448,-0.03995459,0.00038230896,0.5961935,0.0,0.0,0.0,1.0
723996000,723996000,0.0023347712,-0.026363328,-0.0010049598,0.59624416,0.0,0.0,0.0,1.0
724100000,724100000,-0.0070441505,-0.018259468,-0.00031950776,0.59391654,0.0,0.0,0.0,1.0
724196000,724196000,-0.0031241258,-0.01638694,0.00070365745,0.59593177,0.0,0.0,0.0,1.0
724300000,724300000,0.014311863,-0.025043337,0.0008580675,0.5899866,0.0,0.0,0.0,1.0
724396000,724396000,-0.0046943054,-0.02866881,-0.00039878133,0.5944928,0.0,0.0,0.0,1.0
724496000,724496000,-0.0034477606,-0.02229005,0.0012130227,0.5868042,0.0,0.0,0.0,1.0
724596000,724596000,0.0028780429,-0.015417237,0.0014390525,0.5916167,0.0,0.0,0.0,1.0
724696000,724696000,0.004938624,-0.032279186,-0.0008402347,0.5879441,0.0,0.0,0.0,1.0
724800000,724800000,0.009266762,-0.014393986,0.00071602117,0.5910055,0.0,0.0,0.0,1.0
724900000,724900000,0.0011506211,-0.01731278,0.0026583395,0.58569396,0.0,0.0,0.0,1.0
724996000,724996000,-0.0034403934,-0.017588992,0.0017687441,0.5867451,0.0,0.0,0.0,1.0
725096000,725096000,-0.00528715,-0.022949949,0.0017982146,0.58483636,0.0,0.0,0.0,1.0
725196000,725196000,0.015219549,-0.02861352,-0.00075140217,0.5845043,0.0,0.0,0.0,1.0
725296000,725296000,-0.0006306864,-0.015908703,-0.00011942322,0.5840615,0.0,0.0,0.0,1.0
725396000,725396000,-0.0012809775,-0.016243042,0.0019027181,0.58346,0.0,0.0,0.0,1.0
725500000,725500000,-0.01649102,-0.010030588,0.00038640696,0.5819712,0.0,0.0,0.0,1.0
725596000,725596000,0.004608204,-0.019170072,0.0023857267,0.58136755,0.0,0.0,0.0,1.0
725696000,725696000,0.010761623,-0.016956786,-0.00039621416,0.58109975,0.0,0.0,0.0,1.0
725796000,725796000,-0.004636339,-0.017133985,-0.0013746155,0.5790234,0.0,0.0,0.0,1.0
725896000,725896000,-0.0010751806,-0.009107781,0.00068414124,0.58110166,0.0,0.0,0.0,1.0
725996000,725996000,0.0047990377,-0.017415911,0.0029942854,0.57937187,0.0,0.0,0.0,1.0
726100000,726100000,-0.006478306,-0.010902441,0.0018871846,0.5800653,0.0,0.0,0.0,1.0
726196000,726196000,-0.002726498,-0.009160891,0.0018124715,0.5765245,0.0,0.0,0.0,1.0
726300000,726300000,0.0012561699,-0.010533954,0.0009601492,0.5771802,0.0,0.0,0.0,1.0
726400000,726400000,0.0018379437,-0.018496634,0.0022069798,0.57736754,0.0,0.0,0.0,1.0
726496000,726496000,-0.0027161227,-0.018032439,0.0014868927,0.5758034,0.0,0.0,0.0,1.0
726600000,726600000,-0.01571723,-0.0021408778,0.00048705805,0.5749731,0.0,0.0,0.0,1.0
726696000,726696000,0.00016730535,-0.0064780144,0.0013390025,0.57506144,0.0,0.0,0.0,1.0
726796000,726796000,0.013248273,-0.018543253,0.0026847667,0.57422644,0.0,0.0,0.0,1.0
726896000,726896000,0.010462115,0.008753931,0.0011516127,0.5744108,0.0,0.0,0.0,1.0
726996000,726996000,0.00034448446,-0.02539562,0.0013324264,0.57411987,0.0,0.0,0.0,1.0
727096000,727096000,-0.0068800575,0.00029215217,0.0031267218,0.57254356,0.0,0.0,0.0,1.0
727196000,727196000,-0.004675167,-0.013074755,-0.014062839,0.57307094,0.0,0.0,0.0,1.0
