timestamp,x,y,z,yaw,yawspeed,vx,vy,vz,acc_x,acc_y,acc_z,jerk_x,jerk_y,jerk_z,thrust[0],thrust[1],thrust[2]
657304000,nan,nan,nan,0.39087838,0.0,nan,nan,nan,0.0,0.0,0.0,0.0,0.0,0.0,0.0,0.0,0.0
657404000,0.05770023,-0.1369552,-0.01923508,0.39097306,0.0,0.018730773,-0.023516659,-0.0065983497,0.0,0.0,0.0,0.0,0.0,0.0,-0.010911507,0.010072172,-0.5021727
657500000,0.057536196,-0.13661171,-0.03058445,0.39098567,0.0,-0.008787536,0.011374384,-0.03810099,0.0,0.0,0.0,0.0,0.0,0.0,-0.014814756,0.015290621,-0.5251693
657596000,0.056970786,-0.13585614,-0.05997638,0.390931,0.0,-0.0032987683,-0.0030917437,-0.116695434,0.0,0.0,0.0,0.0,0.0,0.0,-0.013536618,0.0121379495,-0.5772834
657692000,0.056661904,-0.13560984,-0.11622312,0.391033,0.0,-0.0057960413,-0.00079733133,-0.2644594,0.0,0.0,0.0,0.0,0.0,0.0,-0.01334132,0.010158026,-0.6312064
657808000,0.056162465,-0.13523155,-0.22806881,0.39104858,0.0,-0.004154466,0.0001030718,-0.5527721,0.0,0.0,0.0,0.0,0.0,0.0,-0.011065036,0.0048180725,-0.6633433
657904000,0.05577848,-0.13493307,-0.3501668,0.39091873,0.0,-0.004057188,-0.006955867,-0.86282027,0.0,0.0,0.0,0.0,0.0,0.0,-0.009651955,-0.00093436096,-0.68858844
658004000,0.05539864,-0.13464418,-0.4956155,0.39106172,0.0,-0.0043991213,-0.008698403,-1.229266,0.0,0.0,0.0,0.0,0.0,0.0,-0.009093144,-0.0023834438,-0.6958779
658100000,0.055072464,-0.13439792,-0.64362204,0.39109808,0.0,-0.0004460581,-0.013761934,-1.5,0.0,0.0,0.0,0.0,0.0,0.0,-0.0074813548,-0.0025838078,-0.6436583
658196000,0.054667972,-0.13416706,-0.79102683,0.3910393,0.0,-0.0017397914,-0.018193765,-1.5,0.0,0.0,0.0,0.0,0.0,0.0,-0.009868943,-0.0032366435,-0.5402587
658292000,0.054283265,-0.13392578,-0.9347976,0.3910393,0.0,-0.0047814823,-0.021169566,-1.9003416,0.0,0.0,0.0,0.0,0.0,0.0,-0.009607996,-0.0028112426,-0.65717655
658388000,0.053505912,-0.13356042,-1.0787703,0.3910393,0.0,-0.0011360154,-0.023450969,-1.8658693,0.0,0.0,0.0,0.0,0.0,0.0,-0.010458246,-0.0024554397,-0.50045437
658504000,0.052757666,-0.13320854,-1.2527125,0.3910393,0.0,-0.003970216,-0.028476406,-1.8386978,0.0,0.0,0.0,0.0,0.0,0.0,-0.0123377545,-0.004376928,-0.59424865
658604000,0.052182168,-0.13286209,-1.4027,0.3910393,0.0,-0.0029043795,-0.032015286,-1.807165,0.0,0.0,0.0,0.0,0.0,0.0,-0.011054388,-0.0043598595,-0.577052
658700000,0.051563386,-0.13258225,-1.5467452,0.3910393,0.0,-0.002350593,-0.036873613,-1.7840394,0.0,0.0,0.0,0.0,0.0,0.0,-0.010305276,-0.0062890155,-0.57697415
658796000,0.05114846,-0.13233158,-1.6907433,0.3910393,0.0,-0.003693638,-0.040589917,-1.7613539,0.0,0.0,0.0,0.0,0.0,0.0,-0.010986817,-0.00618174,-0.5791969
658892000,0.05054732,-0.13204908,-1.8346962,0.3910393,0.0,-0.0024436668,-0.046366315,-1.7413533,0.0,0.0,0.0,0.0,0.0,0.0,-0.010550216,-0.006233004,-0.57822615
659008000,0.049973276,-0.13178176,-2.008701,0.3910393,0.0,-0.0034584813,-0.049219113,-1.7274017,0.0,0.0,0.0,0.0,0.0,0.0,-0.011720615,-0.006776199,-0.5828198
659104000,0.049560104,-0.13156512,-2.1526668,0.3910393,0.0,-0.0028966933,-0.054139845,-1.7136846,0.0,0.0,0.0,0.0,0.0,0.0,-0.011809905,-0.007007618,-0.582667
659204000,0.049088556,-0.13133274,-2.302642,0.3910393,0.0,-0.001992567,-0.05519613,-1.6880645,0.0,0.0,0.0,0.0,0.0,0.0,-0.011075546,-0.006511552,-0.5779892
659300000,0.04870046,-0.13111351,-2.4466658,0.3910393,0.0,-0.0009742521,-0.058467813,-1.6779836,0.0,0.0,0.0,0.0,0.0,0.0,-0.011994139,-0.0069578937,-0.5799735
659396000,0.04830802,-0.1309079,-2.5906744,0.3910393,0.0,-0.0015848973,-0.060326632,-1.6617416,0.0,0.0,0.0,0.0,0.0,0.0,-0.011727919,-0.0066965045,-0.57641137
659492000,0.04793155,-0.13074768,-2.7347035,0.3910393,0.0,-0.0019703568,-0.062618636,-1.6518888,0.0,0.0,0.0,0.0,0.0,0.0,-0.012084594,-0.006936123,-0.58030415
659608000,0.047542308,-0.1305317,-2.9085848,0.3910393,0.0,-0.0014724492,-0.06413377,-1.6451559,0.0,0.0,0.0,0.0,0.0,0.0,-0.01208413,-0.006613854,-0.5838496
659704000,0.047218774,-0.13034333,-3.0527408,0.3910393,0.0,0.00087073515,-0.06515658,-1.6357365,0.0,0.0,0.0,0.0,0.0,0.0,-0.011631572,-0.0073753227,-0.58068734
659804000,0.04690285,-0.13018362,-3.202719,0.3910393,0.0,-0.0004825187,-0.06516456,-1.6215214,0.0,0.0,0.0,0.0,0.0,0.0,-0.012834585,-0.00671596,-0.582464
659900000,0.046672378,-0.1300196,-3.3467155,0.3910393,0.0,-0.000537829,-0.06738722,-1.6138378,0.0,0.0,0.0,0.0,0.0,0.0,-0.013240757,-0.0063539245,-0.58153844
659996000,0.046406884,-0.1298789,-3.490739,0.3910393,0.0,0.00014111004,-0.068216346,-1.6048272,0.0,0.0,0.0,0.0,0.0,0.0,-0.01307584,-0.006183223,-0.57944447
660092000,0.046132997,-0.12970392,-3.6347027,0.3910393,0.0,-0.0012726511,-0.067519605,-1.6014267,0.0,0.0,0.0,0.0,0.0,0.0,-0.013467375,-0.0062962538,-0.5816824
660208000,0.045881137,-0.1295648,-3.8088238,0.3910393,0.0,-0.0013710052,-0.06900626,-1.5961769,0.0,0.0,0.0,0.0,0.0,0.0,-0.013449166,-0.006906136,-0.58124775
660304000,0.0456428,-0.1294457,-3.952766,0.3910393,0.0,0.00033884135,-0.07141844,-1.5939063,0.0,0.0,0.0,0.0,0.0,0.0,-0.012711492,-0.0073620435,-0.5853896
660404000,0.04539569,-0.12931639,-4.1027117,0.3910393,0.0,-0.0015452437,-0.07094088,-1.5794199,0.0,0.0,0.0,0.0,0.0,0.0,-0.013833637,-0.008025188,-0.5806556
660500000,0.04525712,-0.12925999,-4.2467184,0.3910393,0.0,-0.00070400815,-0.07320758,-1.5770915,0.0,0.0,0.0,0.0,0.0,0.0,-0.013872609,-0.009115296,-0.58178526
660596000,0.045034293,-0.12913875,-4.390659,0.3910393,0.0,-0.0011051608,-0.07448177,-1.573759,0.0,0.0,0.0,0.0,0.0,0.0,-0.013616961,-0.009465141,-0.58092624
660692000,0.044851396,-0.1289953,-4.534656,0.3910393,0.0,0.0003997631,-0.07504125,-1.5701445,0.0,0.0,0.0,0.0,0.0,0.0,-0.012993887,-0.009484662,-0.5809644
660808000,0.04466725,-0.12889498,-4.7087007,0.3910393,0.0,0.0010738982,-0.07570795,-1.5704072,0.0,0.0,0.0,0.0,0.0,0.0,-0.013109598,-0.009686801,-0.58425575
660904000,0.044492025,-0.12882167,-4.8527937,0.3910393,0.0,0.0034923956,-0.07642998,-1.5681463,0.0,0.0,0.0,0.0,0.0,0.0,-0.012272777,-0.0099696955,-0.5845117
661004000,0.04435835,-0.1287453,-5.0027266,0.3910393,0.0,0.004741515,-0.076133765,-1.5549126,0.0,0.0,0.0,0.0,0.0,0.0,-0.012498647,-0.009297331,-0.57953316
661100000,0.04423002,-0.12867199,-5.1449203,0.3910393,0.0,0.0065007973,-0.07584404,-1.5149838,0.0,0.0,0.0,0.0,0.0,0.0,-0.012645386,-0.010067571,-0.56372243
661196000,0.044101693,-0.12859868,-5.283276,0.3910393,0.0,0.0068515204,-0.07491493,-1.46827,0.0,0.0,0.0,0.0,0.0,0.0,-0.013725026,-0.010116426,-0.5639663
661292000,0.043973364,-0.12852536,-5.4176445,0.3910393,0.0,0.008304899,-0.07470836,-1.4223157,0.0,0.0,0.0,0.0,0.0,0.0,-0.013638614,-0.010787064,-0.565052
661408000,0.043851715,-0.12843677,-5.5746846,0.3910393,0.0,0.008197691,-0.07395785,-1.3742176,0.0,0.0,0.0,0.0,0.0,0.0,-0.013108967,-0.010475203,-0.5672914
661504000,0.043728676,-0.12836346,-5.7002454,0.3910393,0.0,0.010342078,-0.07330022,-1.3291022,0.0,0.0,0.0,0.0,0.0,0.0,-0.011814753,-0.011414049,-0.56476027
661604000,0.043647237,-0.12828709,-5.826796,0.3910393,0.0,0.011923014,-0.07215674,-1.2772045,0.0,0.0,0.0,0.0,0.0,0.0,-0.012509701,-0.010904807,-0.5629448
661700000,0.04348768,-0.12825797,-5.9443927,0.3910393,0.0,0.014814279,-0.070916384,-1.2379265,0.0,0.0,0.0,0.0,0.0,0.0,-0.011318307,-0.010476951,-0.56599015
661796000,0.043536704,-0.12815198,-6.0586677,0.3910393,0.0,0.014946496,-0.069906734,-1.2023754,0.0,0.0,0.0,0.0,0.0,0.0,-0.0121374205,-0.010353025,-0.5667868
661892000,0.0432763,-0.12811269,-6.1696916,0.3910393,0.0,0.013790616,-0.06874039,-1.1671596,0.0,0.0,0.0,0.0,0.0,0.0,-0.013766095,-0.010425979,-0.5660274
661988000,0.04331877,-0.12801829,-6.2774644,0.3910393,0.0,0.01706724,-0.06649329,-1.1306667,0.0,0.0,0.0,0.0,0.0,0.0,-0.0119743245,-0.010561618,-0.5638306
662104000,0.04327796,-0.12797344,-6.401563,0.3910393,0.0,0.016626533,-0.06393375,-1.0945529,0.0,0.0,0.0,0.0,0.0,0.0,-0.012730861,-0.0098924,-0.5679282
662204000,0.04310422,-0.12793024,-6.5059266,0.3910393,0.0,0.021264864,-0.06453767,-1.0543102,0.0,0.0,0.0,0.0,0.0,0.0,-0.011781637,-0.010365825,-0.5615939
662300000,0.04309836,-0.1278752,-6.6023703,0.3910393,0.0,0.020573556,-0.06165007,-1.0192837,0.0,0.0,0.0,0.0,0.0,0.0,-0.011671392,-0.010671623,-0.56247014
662396000,0.042850833,-0.12789786,-6.6978807,0.3910393,0.0,0.025826868,-0.0610859,-0.98483634,0.0,0.0,0.0,0.0,0.0,0.0,-0.010085215,-0.011234068,-0.5598127
662492000,0.042988773,-0.12789509,-6.7867684,0.3910393,0.0,0.02955931,-0.059189107,-0.9496104,0.0,0.0,0.0,0.0,0.0,0.0,-0.010056904,-0.011358238,-0.563037
662588000,0.04284657,-0.12784351,-6.8759794,0.3910393,0.0,0.030337367,-0.056552123,-0.9194054,0.0,0.0,0.0,0.0,0.0,0.0,-0.010741929,-0.011013072,-0.56310886
662704000,0.042853657,-0.12780596,-6.9796057,0.3910393,0.0,0.033627782,-0.054450005,-0.8893205,0.0,0.0,0.0,0.0,0.0,0.0,-0.010624195,-0.010018865,-0.5654209
662804000,0.042747024,-0.12772939,-7.067458,0.3910393,0.0,0.039437704,-0.051264726,-0.8580174,0.0,0.0,0.0,0.0,0.0,0.0,-0.008847439,-0.009547141,-0.5636519
662900000,0.04273166,-0.12774996,-7.1471157,0.3910393,0.0,0.03910154,-0.04796395,-0.8303957,0.0,0.0,0.0,0.0,0.0,0.0,-0.009850348,-0.008968032,-0.562524
662996000,0.04271973,-0.12772444,-7.2258434,0.3910393,0.0,0.04544672,-0.04591354,-0.8059764,0.0,0.0,0.0,0.0,0.0,0.0,-0.008408315,-0.009697197,-0.56312567
663092000,0.042657036,-0.12769926,-7.301993,0.3910393,0.0,0.043365728,-0.04137149,-0.78353655,0.0,0.0,0.0,0.0,0.0,0.0,-0.009384673,-0.009110069,-0.56375545
663188000,0.042592417,-0.12767053,-7.3766184,0.3910393,0.0,0.04915652,-0.038694326,-0.7628739,0.0,0.0,0.0,0.0,0.0,0.0,-0.0077097034,-0.008339642,-0.5649683
663304000,0.042535372,-0.12761785,-7.463752,0.3910393,0.0,0.049550794,-0.035180297,-0.7400685,0.0,0.0,0.0,0.0,0.0,0.0,-0.008438169,-0.009060266,-0.5663157
663404000,0.04250036,-0.12761083,-7.5375485,0.3910393,0.0,0.053595375,-0.030210283,-0.7151207,0.0,0.0,0.0,0.0,0.0,0.0,-0.007437075,-0.008235639,-0.5631772
663500000,0.04249256,-0.12756982,-7.605594,0.3910393,0.0,0.05396381,-0.029985502,-0.6932652,0.0,0.0,0.0,0.0,0.0,0.0,-0.008984998,-0.008225931,-0.5624737
663596000,0.042463977,-0.12754932,-7.6722164,0.3910393,0.0,0.057140496,-0.024918023,-0.6722491,0.0,0.0,0.0,0.0,0.0,0.0,-0.008288577,-0.0073020523,-0.5636922
663692000,0.04240947,-0.12755568,-7.736769,0.3910393,0.0,0.05663655,-0.023494272,-0.65200955,0.0,0.0,0.0,0.0,0.0,0.0,-0.008758176,-0.0080003785,-0.5636066
663808000,0.04242758,-0.12753001,-7.810592,0.3910393,0.0,0.056926403,-0.02085906,-0.6310645,0.0,0.0,0.0,0.0,0.0,0.0,-0.008972641,-0.0077456785,-0.5650313
663904000,0.04232461,-0.12756684,-7.871301,0.3910393,0.0,0.05882206,-0.01774683,-0.6130863,0.0,0.0,0.0,0.0,0.0,0.0,-0.008719605,-0.0069879093,-0.5654626
664004000,0.042389695,-0.1274369,-7.930372,0.3910393,0.0,0.060034536,-0.015063554,-0.5899468,0.0,0.0,0.0,0.0,0.0,0.0,-0.0071276175,-0.0071647596,-0.5632668
664100000,0.042328466,-0.12747087,-7.9875145,0.3910393,0.0,0.060365636,-0.012750271,-0.5731162,0.0,0.0,0.0,0.0,0.0,0.0,-0.008026343,-0.0068428535,-0.564862
664196000,0.042310406,-0.12742065,-8.041982,0.3910393,0.0,0.06012792,-0.010300315,-0.5555727,0.0,0.0,0.0,0.0,0.0,0.0,-0.007234685,-0.006717688,-0.5639048
664292000,0.042285975,-0.12743574,-8.095078,0.3910393,0.0,0.061504234,-0.0065684556,-0.5388871,0.0,0.0,0.0,0.0,0.0,0.0,-0.007256178,-0.0059763747,-0.56268525
664408000,0.042218853,-0.12746958,-8.157837,0.3910393,0.0,0.0637034,-0.0035662877,-0.52060086,0.0,0.0,0.0,0.0,0.0,0.0,-0.0066629048,-0.0061483593,-0.56409425
664504000,0.042197075,-0.12745589,-8.207493,0.3910393,0.0,0.06251052,-0.002494244,-0.5043504,0.0,0.0,0.0,0.0,0.0,0.0,-0.0068536843,-0.0062083993,-0.5641458
664604000,0.042277858,-0.12741335,-8.257197,0.3910393,0.0,0.06487139,0.0023554834,-0.48493242,0.0,0.0,0.0,0.0,0.0,0.0,-0.0064418633,-0.0047155176,-0.5624779
664700000,0.0422198,-0.12751846,-8.304655,0.3910393,0.0,0.06377121,0.0029650799,-0.47115105,0.0,0.0,0.0,0.0,0.0,0.0,-0.006751117,-0.005260635,-0.5640242
664796000,0.042211726,-0.12744299,-8.350176,0.3910393,0.0,0.065764464,0.0060219024,-0.4552421,0.0,0.0,0.0,0.0,0.0,0.0,-0.0055621895,-0.0048690042,-0.56169504
664892000,0.0421626,-0.12740755,-8.395323,0.3910393,0.0,0.06558419,0.009386192,-0.44064862,0.0,0.0,0.0,0.0,0.0,0.0,-0.0063615455,-0.004840879,-0.5624916
665008000,0.042210273,-0.12749876,-8.446814,0.3910393,0.0,0.066339344,0.014165267,-0.42368665,0.0,0.0,0.0,0.0,0.0,0.0,-0.0054356684,-0.0038719643,-0.5623719
665104000,0.04217514,-0.12751907,-8.488757,0.3910393,0.0,0.06497524,0.013372261,-0.4093878,0.0,0.0,0.0,0.0,0.0,0.0,-0.0061945575,-0.0044626715,-0.5635942
665204000,0.04218667,-0.12749651,-8.530384,0.3910393,0.0,0.06445916,0.017859086,-0.39398056,0.0,0.0,0.0,0.0,0.0,0.0,-0.0062227016,-0.0035503453,-0.5632723
665300000,0.042199105,-0.12756363,-8.569583,0.3910393,0.0,0.06328819,0.017623568,-0.38228086,0.0,0.0,0.0,0.0,0.0,0.0,-0.005797674,-0.004415171,-0.56332856
665396000,0.04214798,-0.12739073,-8.607272,0.3910393,0.0,0.06146005,0.022100467,-0.36931154,0.0,0.0,0.0,0.0,0.0,0.0,-0.0065045445,-0.0033422895,-0.5616308
665492000,0.042174354,-0.12734279,-8.643578,0.3910393,0.0,0.06073147,0.021768542,-0.35633337,0.0,0.0,0.0,0.0,0.0,0.0,-0.006266358,-0.0043562637,-0.5621212
665608000,0.04212123,-0.12743534,-8.6872225,0.3910393,0.0,0.05854746,0.020885553,-0.34332567,0.0,0.0,0.0,0.0,0.0,0.0,-0.006087003,-0.0039736237,-0.5629459
665704000,0.042153466,-0.12736309,-8.721693,0.3910393,0.0,0.057721876,0.022858374,-0.3318486,0.0,0.0,0.0,0.0,0.0,0.0,-0.0066056456,-0.004161855,-0.5637087
665804000,0.042083047,-0.12745725,-8.7573,0.3910393,0.0,0.055089887,0.023439601,-0.31736103,0.0,0.0,0.0,0.0,0.0,0.0,-0.0072210645,-0.0029098315,-0.56052125
665900000,0.04212148,-0.12731387,-8.789815,0.3910393,0.0,0.053144712,0.025196668,-0.30641997,0.0,0.0,0.0,0.0,0.0,0.0,-0.0062665977,-0.0018632663,-0.5639223
665996000,0.0421007,-0.12746471,-8.822128,0.3910393,0.0,0.050616674,0.022810992,-0.29673576,0.0,0.0,0.0,0.0,0.0,0.0,-0.0070042457,-0.0034125084,-0.5620955
666092000,0.042108968,-0.12748177,-8.8531685,0.3910393,0.0,0.049826864,0.024419442,-0.28707522,0.0,0.0,0.0,0.0,0.0,0.0,-0.0074159736,-0.003246435,-0.56307423
666208000,0.042106934,-0.12766851,-8.889979,0.3910393,0.0,0.046395555,0.026934175,-0.27714014,0.0,0.0,0.0,0.0,0.0,0.0,-0.0075714914,-0.0026291127,-0.5632605
666304000,0.042149898,-0.12751076,-8.91871,0.3910393,0.0,0.044334352,0.026427412,-0.26780722,0.0,0.0,0.0,0.0,0.0,0.0,-0.0076741064,-0.002564534,-0.56229603
666404000,0.04208814,-0.12768102,-8.948721,0.3910393,0.0,0.041406814,0.025428386,-0.25661904,0.0,0.0,0.0,0.0,0.0,0.0,-0.0073839044,-0.0034158663,-0.5618125
666500000,0.04208434,-0.1276039,-8.976267,0.3910393,0.0,0.04019214,0.025952732,-0.24862847,0.0,0.0,0.0,0.0,0.0,0.0,-0.0075710844,-0.0033970168,-0.5627569
666596000,0.042066947,-0.12768869,-9.003337,0.3910393,0.0,0.03820236,0.025879255,-0.24035257,0.0,0.0,0.0,0.0,0.0,0.0,-0.007222958,-0.0018418899,-0.5627427
666692000,0.04208865,-0.1275267,-9.029198,0.3910393,0.0,0.037211537,0.0269982,-0.23279303,0.0,0.0,0.0,0.0,0.0,0.0,-0.0077629536,-0.0016549083,-0.5629623
666808000,0.04212238,-0.127449,-9.059667,0.3910393,0.0,0.036449358,0.027766084,-0.22463968,0.0,0.0,0.0,0.0,0.0,0.0,-0.0075986246,-0.0023344844,-0.5629928
666904000,0.042105153,-0.12751812,-9.08417,0.3910393,0.0,0.032640684,0.02372165,-0.21758541,0.0,0.0,0.0,0.0,0.0,0.0,-0.008607222,-0.002995137,-0.5630287
667004000,0.0420891,-0.12751396,-9.109017,0.38768595,0.0,0.031535845,0.026352866,-0.20863575,0.0,0.0,0.0,0.0,0.0,0.0,-0.007932804,-0.0018704124,-0.56091046
667100000,0.040504232,-0.129108,-9.133649,0.31228775,0.0,-0.021229777,-0.026061516,-0.23307136,0.0,0.0,0.0,0.0,0.0,0.0,-0.017677555,-0.011720157,-0.5758289
667196000,0.02970745,-0.1400281,-9.15936,0.23688953,0.0,-0.17370215,-0.17824963,-0.22375724,0.0,0.0,0.0,0.0,0.0,0.0,-0.047323212,-0.041442838,-0.55430347
667292000,0.0014933428,-0.16910313,-9.183844,0.16149126,0.0,-0.4062665,-0.43701842,-0.2122812,0.0,0.0,0.0,0.0,0.0,0.0,-0.0893769,-0.08701622,-0.5497092
667408000,-0.05825966,-0.23653764,-9.211817,0.07038507,0.0,-0.7063166,-0.82299757,-0.20144598,0.0,0.0,0.0,0.0,0.0,0.0,-0.13270137,-0.14336729,-0.5388556
667504000,-0.12592152,-0.31691322,-9.233272,-0.0050131567,0.0,-0.953748,-1.1434278,-0.18960729,0.0,0.0,0.0,0.0,0.0,0.0,-0.15420459,-0.17428309,-0.52745366
667604000,-0.21075644,-0.42015266,-9.253981,-0.08355297,0.0,-1.2021668,-1.4654145,-0.17640965,0.0,0.0,0.0,0.0,0.0,0.0,-0.16370143,-0.18803032,-0.5283661
667700000,-0.3034649,-0.5346624,-9.272381,-0.15895121,0.0,-1.4296937,-1.7614484,-0.16456291,0.0,0.0,0.0,0.0,0.0,0.0,-0.17149451,-0.20032762,-0.53503907
667796000,-0.40532035,-0.66171664,-9.289463,-0.23434947,0.0,-1.6421759,-2.0382931,-0.15517509,0.0,0.0,0.0,0.0,0.0,0.0,-0.17813262,-0.20982182,-0.53976095
667892000,-0.5151392,-0.7996891,-9.305446,-0.30974767,0.0,-1.8425348,-2.2999074,-0.14671709,0.0,0.0,0.0,0.0,0.0,0.0,-0.18825945,-0.22012526,-0.54317254
668008000,-0.6574345,-0.9795293,-9.323492,-0.40085384,0.0,-2.0700662,-2.5963793,-0.13809603,0.0,0.0,0.0,0.0,0.0,0.0,-0.20348985,-0.23855636,-0.5433866
668104000,-0.78268623,-1.1385618,-9.337566,-0.47625205,0.0,-2.2470746,-2.8269105,-0.13070743,0.0,0.0,0.0,0.0,0.0,0.0,-0.21469988,-0.25054,-0.5432405
668204000,-0.920184,-1.313745,-9.351541,-0.5547918,0.0,-2.4167004,-3.0463247,-0.12509382,0.0,0.0,0.0,0.0,0.0,0.0,-0.22064129,-0.25258183,-0.54332405
668300000,-1.0595236,-1.4917864,-9.364444,-0.63019,0.0,-2.5767112,-3.2527914,-0.12015656,0.0,0.0,0.0,0.0,0.0,0.0,-0.2281418,-0.26103476,-0.5437686
668396000,-1.2064718,-1.6800035,-9.376949,-0.7055882,0.0,-2.7294478,-3.4491827,-0.114116445,0.0,0.0,0.0,0.0,0.0,0.0,-0.23544881,-0.26970053,-0.54554874
668492000,-1.3617967,-1.8793687,-9.38914,-0.7809864,0.0,-2.8790417,-3.6414003,-0.109180376,0.0,0.0,0.0,0.0,0.0,0.0,-0.2428358,-0.279064,-0.54688615
668588000,-1.526009,-2.0905333,-9.40109,-0.85638463,0.0,-3.0250978,-3.828474,-0.10436049,0.0,0.0,0.0,0.0,0.0,0.0,-0.2513624,-0.28737333,-0.5452742
668704000,-1.7374126,-2.3626838,-9.415278,-0.9474908,0.0,-3.2066054,-4.050823,-0.09947233,0.0,0.0,0.0,0.0,0.0,0.0,-0.26663807,-0.30300564,-0.54604995
668804000,-1.9310254,-2.6103058,-9.427289,-1.0260307,0.0,-3.3457773,-4.1834497,-0.09328979,0.0,0.0,0.0,0.0,0.0,0.0,-0.2722573,-0.2968966,-0.5458618
668900000,-2.127186,-2.858836,-9.4386835,-1.1014291,0.0,-3.4659896,-4.2961755,-0.08869892,0.0,0.0,0.0,0.0,0.0,0.0,-0.276136,-0.2968791,-0.55078673
668996000,-2.3323486,-3.1171942,-9.44998,-1.1768275,0.0,-3.5547307,-4.3871613,-0.084239125,0.0,0.0,0.0,0.0,0.0,0.0,-0.27567095,-0.29522687,-0.55373263
669092000,-2.5447276,-3.3845007,-9.461183,-1.252226,0.0,-3.5992823,-4.441071,-0.08172406,0.0,0.0,0.0,0.0,0.0,0.0,-0.26789218,-0.291679,-0.5609404
669208000,-2.8078182,-3.7166133,-9.474639,-1.3433324,0.0,-3.5962703,-4.453273,-0.08057603,0.0,0.0,0.0,0.0,0.0,0.0,-0.25510943,-0.28392124,-0.571027
669304000,-3.028127,-3.9961898,-9.485736,-1.4187309,0.0,-3.545565,-4.4039984,-0.08075617,0.0,0.0,0.0,0.0,0.0,0.0,-0.2391623,-0.26872933,-0.5800686
669404000,-3.259252,-4.289024,-9.497284,-1.497271,0.0,-3.4766183,-4.29386,-0.08250137,0.0,0.0,0.0,0.0,0.0,0.0,-0.22690946,-0.2456102,-0.5882802
669500000,-3.483289,-4.571782,-9.508385,-1.5726694,0.0,-3.4194038,-4.2230635,-0.08573954,0.0,0.0,0.0,0.0,0.0,0.0,-0.22144696,-0.23890387,-0.5915625
669596000,-3.7095265,-4.8577247,-9.519467,-1.6480678,0.0,-3.3911076,-4.194181,-0.08871187,0.0,0.0,0.0,0.0,0.0,0.0,-0.22447531,-0.24446075,-0.5836647
669692000,-3.9395814,-5.1484575,-9.53046,-1.7234663,0.0,-3.397497,-4.199577,-0.090110734,0.0,0.0,0.0,0.0,0.0,0.0,-0.23247454,-0.25806814,-0.572972
669808000,-4.220664,-5.5036983,-9.543545,-1.8145727,0.0,-3.3918972,-4.1999655,-0.08757606,0.0,0.0,0.0,0.0,0.0,0.0,-0.23321208,-0.2654398,-0.5623311
669904000,-4.454343,-5.7989063,-9.5542145,-1.8899711,0.0,-3.3868825,-4.2018404,-0.08448866,0.0,0.0,0.0,0.0,0.0,0.0,-0.23179425,-0.26575306,-0.5674833
670004000,-4.6983085,-6.10743,-9.56501,-1.9685112,0.0,-3.3718371,-4.190624,-0.08169876,0.0,0.0,0.0,0.0,0.0,0.0,-0.22732194,-0.2588934,-0.57427764
670100000,-4.933705,-6.404895,-9.575257,-2.0439095,0.0,-3.3674629,-4.1909833,-0.07923034,0.0,0.0,0.0,0.0,0.0,0.0,-0.22545074,-0.25559303,-0.57747114
670196000,-5.16977,-6.703325,-9.585258,-2.119308,0.0,-3.3612058,-4.19056,-0.07883093,0.0,0.0,0.0,0.0,0.0,0.0,-0.22427516,-0.2540257,-0.5787092
670292000,-5.406644,-7.0026855,-9.595074,-2.1947064,0.0,-3.3564413,-4.191386,-0.078296095,0.0,0.0,0.0,0.0,0.0,0.0,-0.22358376,-0.2575732,-0.5771994
670408000,-5.693566,-7.365422,-9.606672,-2.2414222,0.0,-3.357716,-4.204094,-0.07785914,0.0,0.0,0.0,0.0,0.0,0.0,-0.22532283,-0.26323965,-0.57345444
670504000,-5.9310284,-7.6655374,-9.616036,-2.2411764,0.0,-3.3559098,-4.2083855,-0.07558707,0.0,0.0,0.0,0.0,0.0,0.0,-0.22534016,-0.2651327,-0.5718654
670604000,-6.1780095,-7.977731,-9.625539,-2.2409692,0.0,-3.3411555,-4.2017336,-0.07247884,0.0,0.0,0.0,0.0,0.0,0.0,-0.22269648,-0.26208654,-0.5719988
670700000,-6.415292,-8.277616,-9.634468,-2.2407408,0.0,-3.3406093,-4.2064123,-0.06973798,0.0,0.0,0.0,0.0,0.0,0.0,-0.22307266,-0.2625316,-0.5732941
670796000,-6.652255,-8.577154,-9.643176,-2.2405796,0.0,-3.334753,-4.208736,-0.067054026,0.0,0.0,0.0,0.0,0.0,0.0,-0.22129694,-0.25893518,-0.574261
670892000,-6.8893356,-8.876788,-9.651678,-2.2403836,0.0,-3.3344414,-4.212558,-0.064119674,0.0,0.0,0.0,0.0,0.0,0.0,-0.2210543,-0.2605685,-0.57614774
670988000,-7.1261234,-9.176108,-9.659997,-2.2402241,0.0,-3.3296893,-4.214425,-0.062482424,0.0,0.0,0.0,0.0,0.0,0.0,-0.21976924,-0.26125616,-0.5761276
671104000,-7.412634,-9.538141,-9.669789,-2.2399936,0.0,-3.3359704,-4.2299333,-0.058873408,0.0,0.0,0.0,0.0,0.0,0.0,-0.22137693,-0.26641306,-0.5741936
671204000,-7.6588116,-9.849281,-9.677993,-2.239811,0.0,-3.3237922,-4.219526,-0.055831634,0.0,0.0,0.0,0.0,0.0,0.0,-0.21786657,-0.26392964,-0.5742301
671300000,-7.8952894,-10.14808,-9.685688,-2.239628,0.0,-3.3238118,-4.226246,-0.052126706,0.0,0.0,0.0,0.0,0.0,0.0,-0.21805704,-0.2676484,-0.575181
671396000,-8.131366,-10.446418,-9.693198,-2.2394838,0.0,-3.3201363,-4.226631,-0.04835338,0.0,0.0,0.0,0.0,0.0,0.0,-0.21577129,-0.26550826,-0.5745632
671492000,-8.367484,-10.744803,-9.700535,-2.2393324,0.0,-3.319273,-4.2305927,-0.042940885,0.0,0.0,0.0,0.0,0.0,0.0,-0.21609333,-0.26657146,-0.57318413
671608000,-8.652636,-11.10514,-9.709172,-2.2391965,0.0,-3.3250525,-4.239487,-0.037460178,0.0,0.0,0.0,0.0,0.0,0.0,-0.21694334,-0.26813614,-0.573871
671704000,-8.888421,-11.403095,-9.716151,-2.2391117,0.0,-3.3252602,-4.244941,-0.03281942,0.0,0.0,0.0,0.0,0.0,0.0,-0.21779576,-0.27014896,-0.5755227
671804000,-9.133639,-11.712994,-9.723235,-2.2390656,0.0,-3.3157513,-4.23092,-0.026896939,0.0,0.0,0.0,0.0,0.0,0.0,-0.21558964,-0.26612926,-0.5743194
671900000,-9.370655,-12.012491,-9.72991,-2.2390695,0.0,-3.3082175,-4.224035,-0.022576354,0.0,0.0,0.0,0.0,0.0,0.0,-0.21334279,-0.2632371,-0.57604563
671996000,-9.607718,-12.3121195,-9.736451,-2.2390609,0.0,-3.3161173,-4.230648,-0.017507464,0.0,0.0,0.0,0.0,0.0,0.0,-0.21693295,-0.268076,-0.5763215
672092000,-9.843437,-12.609978,-9.742797,-2.2390647,0.0,-3.3169198,-4.232291,-0.011768937,0.0,0.0,0.0,0.0,0.0,0.0,-0.21664779,-0.26847184,-0.5731499
672208000,-10.126898,-12.968101,-9.750237,-2.23914,0.0,-3.3348446,-4.252544,-0.0049417764,0.0,0.0,0.0,0.0,0.0,0.0,-0.22275251,-0.27500054,-0.57143795
672304000,-10.359444,-13.261937,-9.756196,-2.239234,0.0,-3.3393245,-4.252357,0.000882715,0.0,0.0,0.0,0.0,0.0,0.0,-0.22280708,-0.27295363,-0.5713195
672404000,-10.599987,-13.565893,-9.7622385,-2.239398,0.0,-3.3406844,-4.2514505,0.0066220313,0.0,0.0,0.0,0.0,0.0,0.0,-0.22462568,-0.27443528,-0.57311827
672500000,-10.82996,-13.856418,-9.767851,-2.2395544,0.0,-3.3437395,-4.247975,0.014517024,0.0,0.0,0.0,0.0,0.0,0.0,-0.22216412,-0.2706762,-0.5739128
672596000,-11.059356,-14.146253,-9.773333,-2.2397294,0.0,-3.3514044,-4.2537184,0.01803568,0.0,0.0,0.0,0.0,0.0,0.0,-0.2243223,-0.27393872,-0.5745651
672692000,-11.288043,-14.435174,-9.77866,-2.2398872,0.0,-3.351674,-4.2492757,0.025738172,0.0,0.0,0.0,0.0,0.0,0.0,-0.2227076,-0.27318215,-0.57214147
672788000,-11.516908,-14.724343,-9.783891,-2.2400541,0.0,-3.3576665,-4.251514,0.030865356,0.0,0.0,0.0,0.0,0.0,0.0,-0.2257365,-0.27640826,-0.5738016
672904000,-11.793237,-15.073494,-9.790031,-2.2402277,0.0,-3.364194,-4.255515,0.040117323,0.0,0.0,0.0,0.0,0.0,0.0,-0.22586313,-0.27643377,-0.571948
673004000,-12.03144,-15.374428,-9.795262,-2.2404509,0.0,-3.360823,-4.2455096,0.045678638,0.0,0.0,0.0,0.0,0.0,0.0,-0.22658858,-0.2762879,-0.5723723
673100000,-12.260716,-15.66409,-9.800135,-2.2406325,0.0,-3.3592255,-4.2381854,0.051982343,0.0,0.0,0.0,0.0,0.0,0.0,-0.22561076,-0.27343172,-0.5737325
673196000,-12.490686,-15.954616,-9.804955,-2.2409122,0.0,-3.3629534,-4.2367196,0.05823306,0.0,0.0,0.0,0.0,0.0,0.0,-0.2278003,-0.2757216,-0.57535607
673292000,-12.720972,-16.245543,-9.809628,-2.2411554,0.0,-3.36166,-4.228656,0.06143114,0.0,0.0,0.0,0.0,0.0,0.0,-0.22660813,-0.2733574,-0.575439
673388000,-12.952192,-16.537678,-9.814226,-2.2414553,0.0,-3.3651376,-4.226879,0.06531028,0.0,0.0,0.0,0.0,0.0,0.0,-0.22854333,-0.27582446,-0.5773165
673504000,-13.232419,-16.891682,-9.81968,-2.2417562,0.0,-3.3700666,-4.226888,0.068017334,0.0,0.0,0.0,0.0,0.0,0.0,-0.22886835,-0.27669734,-0.5763065
673604000,-13.474605,-17.197643,-9.824264,-2.2420673,0.0,-3.3659291,-4.21455,0.070735306,0.0,0.0,0.0,0.0,0.0,0.0,-0.22971667,-0.2772739,-0.5771908
673700000,-13.708127,-17.492687,-9.828581,-2.2422936,0.0,-3.361587,-4.2049623,0.07245585,0.0,0.0,0.0,0.0,0.0,0.0,-0.22832328,-0.27509576,-0.5770838
673796000,-13.942842,-17.789154,-9.832827,-2.2425983,0.0,-3.3637083,-4.201067,0.07625332,0.0,0.0,0.0,0.0,0.0,0.0,-0.23013943,-0.27725053,-0.5747951
673892000,-14.177462,-18.08531,-9.836991,-2.242848,0.0,-3.3311715,-4.149458,0.07854084,0.0,0.0,0.0,0.0,0.0,0.0,-0.2230539,-0.26672465,-0.5776402
673988000,-14.410262,-18.37854,-9.84109,-2.243184,0.0,-3.2693894,-4.0587177,0.08102885,0.0,0.0,0.0,0.0,0.0,0.0,-0.21462196,-0.25212613,-0.586228
674104000,-14.687323,-18.727158,-9.845972,-2.243519,0.0,-3.1793308,-3.936073,0.081462584,0.0,0.0,0.0,0.0,0.0,0.0,-0.19886768,-0.23412493,-0.59666854
674204000,-14.922152,-19.022657,-9.850114,-2.243863,0.0,-3.0856946,-3.8156562,0.083068535,0.0,0.0,0.0,0.0,0.0,0.0,-0.19026431,-0.2246417,-0.5964138
674300000,-15.144459,-19.302874,-9.8540535,-2.244061,0.0,-2.996194,-3.7084463,0.08410358,0.0,0.0,0.0,0.0,0.0,0.0,-0.18280073,-0.21986528,-0.5938793
674396000,-15.363418,-19.579668,-9.857951,-2.2443385,0.0,-2.9108891,-3.6093667,0.08702378,0.0,0.0,0.0,0.0,0.0,0.0,-0.18018475,-0.2192787,-0.58909994
674492000,-15.578291,-19.852396,-9.86179,-2.2445164,0.0,-2.8205185,-3.5097015,0.08943276,0.0,0.0,0.0,0.0,0.0,0.0,-0.173781,-0.21366425,-0.587205
674608000,-15.83245,-20.176826,-9.86636,-2.2447977,0.0,-2.7221088,-3.4062471,0.09205349,0.0,0.0,0.0,0.0,0.0,0.0,-0.1675316,-0.20718062,-0.5888429
674704000,-16.037642,-20.440216,-9.8700695,-2.2449913,0.0,-2.637741,-3.3097713,0.09237456,0.0,0.0,0.0,0.0,0.0,0.0,-0.16097538,-0.19874404,-0.5927468
674804000,-16.248343,-20.709663,-9.873869,-2.2452912,0.0,-2.5861115,-3.2136338,0.092427276,0.0,0.0,0.0,0.0,0.0,0.0,-0.16375816,-0.19553836,-0.5927499
674900000,-16.449352,-20.964155,-9.8774605,-2.2455049,0.0,-2.5449483,-3.1307964,0.09156671,0.0,0.0,0.0,0.0,0.0,0.0,-0.16535977,-0.19129209,-0.58912444
674996000,-16.64784,-21.213734,-9.880971,-2.2458577,0.0,-2.488062,-3.0457883,0.09214871,0.0,0.0,0.0,0.0,0.0,0.0,-0.16366963,-0.18781501,-0.58744556
675092000,-16.841728,-21.457449,-9.884407,-2.2461014,0.0,-2.4144166,-2.9566424,0.09203659,0.0,0.0,0.0,0.0,0.0,0.0,-0.15463854,-0.1812101,-0.5894115
675188000,-17.030874,-21.69598,-9.887789,-2.246275,0.0,-2.3405764,-2.874877,0.09168927,0.0,0.0,0.0,0.0,0.0,0.0,-0.14648661,-0.17703722,-0.5918532
675304000,-17.252966,-21.977665,-9.891741,-2.2462797,0.0,-2.2507827,-2.78402,0.0934035,0.0,0.0,0.0,0.0,0.0,0.0,-0.13654333,-0.17026845,-0.5911909
675404000,-17.438728,-22.214918,-9.89516,-2.2462745,0.0,-2.168121,-2.700468,0.09403915,0.0,0.0,0.0,0.0,0.0,0.0,-0.13105771,-0.1678032,-0.5920189
675500000,-17.613935,-22.438787,-9.898315,-2.246169,0.0,-2.1271474,-2.6302004,0.09322937,0.0,0.0,0.0,0.0,0.0,0.0,-0.13361068,-0.1644939,-0.5914043
675596000,-17.788006,-22.65838,-9.901397,-2.2461689,0.0,-2.0923338,-2.561419,0.09346698,0.0,0.0,0.0,0.0,0.0,0.0,-0.13893053,-0.16250074,-0.58787304
675692000,-17.958736,-22.872402,-9.904412,-2.246138,0.0,-2.0326376,-2.4807885,0.09357123,0.0,0.0,0.0,0.0,0.0,0.0,-0.13360786,-0.15558532,-0.5868591
675808000,-18.159124,-23.1242,-9.908097,-2.246195,0.0,-1.9567807,-2.4026318,0.09197526,0.0,0.0,0.0,0.0,0.0,0.0,-0.12444695,-0.15082449,-0.5895619
675904000,-18.319582,-23.327303,-9.910873,-2.2461016,0.0,-1.885073,-2.3307726,0.091280654,0.0,0.0,0.0,0.0,0.0,0.0,-0.11603657,-0.14576688,-0.59111255
676004000,-18.48202,-23.53423,-9.913865,-2.246107,0.0,-1.8148679,-2.2590806,0.09125917,0.0,0.0,0.0,0.0,0.0,0.0,-0.11277491,-0.14338668,-0.5896077
676100000,-18.63506,-23.729273,-9.916652,-2.2460215,0.0,-1.777004,-2.1976368,0.09113948,0.0,0.0,0.0,0.0,0.0,0.0,-0.11399818,-0.14036353,-0.5871224
676196000,-18.786577,-23.920177,-9.919356,-2.24613,0.0,-1.7439424,-2.1328695,0.09209406,0.0,0.0,0.0,0.0,0.0,0.0,-0.116938934,-0.13852617,-0.5845968
676292000,-18.934658,-24.106174,-9.92203,-2.2461638,0.0,-1.6837225,-2.067455,0.09190715,0.0,0.0,0.0,0.0,0.0,0.0,-0.11140697,-0.1333127,-0.58449304
676388000,-19.078367,-24.287827,-9.924523,-2.2462919,0.0,-1.6241567,-2.0061963,0.09118855,0.0,0.0,0.0,0.0,0.0,0.0,-0.1071873,-0.12974516,-0.5885517
676504000,-19.246134,-24.501314,-9.927766,-2.246347,0.0,-1.5586342,-1.9323967,0.091766715,0.0,0.0,0.0,0.0,0.0,0.0,-0.099614844,-0.12297217,-0.5884
676604000,-19.387636,-24.680504,-9.930234,-2.2464242,0.0,-1.5261706,-1.8742975,0.090047844,0.0,0.0,0.0,0.0,0.0,0.0,-0.10069215,-0.12316647,-0.58820385
676700000,-19.521624,-24.848904,-9.932689,-2.2463646,0.0,-1.4830378,-1.8167157,0.089727156,0.0,0.0,0.0,0.0,0.0,0.0,-0.10014236,-0.118665,-0.5849358
676796000,-19.652275,-25.013231,-9.935035,-2.2463615,0.0,-1.4365213,-1.7618663,0.0896548,0.0,0.0,0.0,0.0,0.0,0.0,-0.097888365,-0.11633882,-0.5841157
676892000,-19.779335,-25.173271,-9.937311,-2.2462492,0.0,-1.3861675,-1.7032294,0.08846216,0.0,0.0,0.0,0.0,0.0,0.0,-0.092394166,-0.11252884,-0.5843482
677008000,-19.928162,-25.361053,-9.940048,-2.2462006,0.0,-1.3320042,-1.641217,0.093091056,0.0,0.0,0.0,0.0,0.0,0.0,-0.0882517,-0.107613415,-0.5834091
677104000,-20.04733,-25.512009,-9.942197,-2.2460642,0.0,-1.2849202,-1.5923449,0.09241848,0.0,0.0,0.0,0.0,0.0,0.0,-0.08404066,-0.10516209,-0.58575505
677204000,-20.169954,-25.667473,-9.944407,-2.245752,0.0,-1.2380991,-1.5325356,0.09169597,0.0,0.0,0.0,0.0,0.0,0.0,-0.08136004,-0.10109012,-0.58589154
677300000,-20.285025,-25.812843,-9.946501,-2.2456424,0.0,-1.2052593,-1.4876379,0.09180766,0.0,0.0,0.0,0.0,0.0,0.0,-0.0829764,-0.10134808,-0.5825217
677396000,-20.397451,-25.954021,-9.948391,-2.2454767,0.0,-1.1680377,-1.4302537,0.090372846,0.0,0.0,0.0,0.0,0.0,0.0,-0.08154606,-0.09549813,-0.58328646
677492000,-20.50633,-26.090284,-9.950533,-2.2454267,0.0,-1.1257573,-1.3814335,0.090547174,0.0,0.0,0.0,0.0,0.0,0.0,-0.07843332,-0.094214246,-0.58112705
677608000,-20.633448,-26.24973,-9.952727,-2.2452497,0.0,-1.0844877,-1.3364865,0.09049623,0.0,0.0,0.0,0.0,0.0,0.0,-0.07532283,-0.09141849,-0.58275336
677704000,-20.735151,-26.378004,-9.954616,-2.2452617,0.0,-1.0493921,-1.2998632,0.09187973,0.0,0.0,0.0,0.0,0.0,0.0,-0.07389724,-0.09073626,-0.58039534
677804000,-20.837729,-26.50808,-9.956426,-2.245164,0.0,-1.0049015,-1.2529986,0.08733293,0.0,0.0,0.0,0.0,0.0,0.0,-0.070784524,-0.08810215,-0.58294225
677900000,-20.933037,-26.629295,-9.958287,-2.245411,0.0,-0.97245485,-1.2080058,0.08921016,0.0,0.0,0.0,0.0,0.0,0.0,-0.069958456,-0.084983535,-0.57954884
677996000,-21.025965,-26.74628,-9.95983,-2.2455845,0.0,-0.94439816,-1.1578704,0.08680727,0.0,0.0,0.0,0.0,0.0,0.0,-0.06885274,-0.07966585,-0.58271116
678092000,-21.116423,-26.859877,-9.961661,-2.2458181,0.0,-0.9120834,-1.122146,0.085927844,0.0,0.0,0.0,0.0,0.0,0.0,-0.06643068,-0.0796431,-0.58080804
678208000,-21.221977,-26.993202,-9.96347,-2.24587,0.0,-0.87182724,-1.0793468,0.08626063,0.0,0.0,0.0,0.0,0.0,0.0,-0.063462056,-0.077481605,-0.58034045
678304000,-21.306387,-27.100126,-9.96506,-2.2459815,0.0,-0.84341305,-1.0394471,0.08681522,0.0,0.0,0.0,0.0,0.0,0.0,-0.06276099,-0.07535349,-0.579932
678404000,-21.392025,-27.207745,-9.966637,-2.245944,0.0,-0.8083463,-0.9910935,0.08199872,0.0,0.0,0.0,0.0,0.0,0.0,-0.060429394,-0.07177968,-0.5810902
678500000,-21.471792,-27.307974,-9.968096,-2.2459602,0.0,-0.7781646,-0.95448023,0.07949609,0.0,0.0,0.0,0.0,0.0,0.0,-0.059487764,-0.070025,-0.5810753
678596000,-21.549133,-27.405266,-9.969633,-2.245831,0.0,-0.74456966,-0.9159677,0.07848156,0.0,0.0,0.0,0.0,0.0,0.0,-0.05631819,-0.067191124,-0.5793739
678692000,-21.624157,-27.499786,-9.971055,-2.2456553,0.0,-0.7160892,-0.8803567,0.07376627,0.0,0.0,0.0,0.0,0.0,0.0,-0.05558543,-0.06674343,-0.5793127
678808000,-21.712051,-27.610388,-9.9726515,-2.2452996,0.0,-0.68241215,-0.8403117,0.07079888,0.0,0.0,0.0,0.0,0.0,0.0,-0.053671397,-0.06329383,-0.5804428
678904000,-21.782518,-27.69905,-9.973969,-2.2453403,0.0,-0.6551061,-0.80616534,0.069361955,0.0,0.0,0.0,0.0,0.0,0.0,-0.05124452,-0.062089637,-0.5785574
679004000,-21.853735,-27.788652,-9.975295,-2.2451649,0.0,-0.6205973,-0.76456124,0.06255024,0.0,0.0,0.0,0.0,0.0,0.0,-0.048096284,-0.05877421,-0.579956
679100000,-21.920052,-27.872202,-9.976447,-2.2450814,0.0,-0.59461683,-0.7320138,0.06381838,0.0,0.0,0.0,0.0,0.0,0.0,-0.047743145,-0.056976773,-0.5767356
679196000,-21.98463,-27.953348,-9.977553,-2.2448843,0.0,-0.5674765,-0.6982864,0.05762674,0.0,0.0,0.0,0.0,0.0,0.0,-0.04628181,-0.054536507,-0.57915986
679292000,-22.047287,-28.032263,-9.978636,-2.244761,0.0,-0.5390551,-0.6672387,0.055277232,0.0,0.0,0.0,0.0,0.0,0.0,-0.045453496,-0.052718356,-0.5779398
679388000,-22.108057,-28.108961,-9.979801,-2.244579,0.0,-0.51446235,-0.6377229,0.0539661,0.0,0.0,0.0,0.0,0.0,0.0,-0.044064667,-0.050904937,-0.57599986
679504000,-22.179695,-28.198658,-9.9810915,-2.2440774,0.0,-0.4872577,-0.59556806,0.050240256,0.0,0.0,0.0,0.0,0.0,0.0,-0.04167234,-0.04806231,-0.5785108
679604000,-22.23923,-28.273106,-9.982125,-2.2433238,0.0,-0.45789677,-0.564599,0.05267447,0.0,0.0,0.0,0.0,0.0,0.0,-0.03942299,-0.04658056,-0.5729817
679700000,-22.294926,-28.34314,-9.983071,-2.2425847,0.0,-0.4329568,-0.5421068,0.048077248,0.0,0.0,0.0,0.0,0.0,0.0,-0.038125426,-0.047711164,-0.5784225
679796000,-22.348772,-28.411297,-9.984029,-2.2417064,0.0,-0.40391153,-0.5116229,0.04663263,0.0,0.0,0.0,0.0,0.0,0.0,-0.03555192,-0.04490836,-0.5743783
679892000,-22.400892,-28.477154,-9.984976,-2.2410302,0.0,-0.38131875,-0.47897822,0.045864377,0.0,0.0,0.0,0.0,0.0,0.0,-0.034808554,-0.042270042,-0.57558477
679988000,-22.451502,-28.540886,-9.985855,-2.2403822,0.0,-0.35662824,-0.45204508,0.044633687,0.0,0.0,0.0,0.0,0.0,0.0,-0.033930466,-0.04017944,-0.5740657
680104000,-22.511114,-28.615686,-9.98705,-2.2398384,0.0,-0.33707422,-0.42677218,0.041652583,0.0,0.0,0.0,0.0,0.0,0.0,-0.034104846,-0.038836002,-0.57417613
680204000,-22.560968,-28.678463,-9.987783,-2.2393246,0.0,-0.3105511,-0.39724806,0.039128754,0.0,0.0,0.0,0.0,0.0,0.0,-0.03161958,-0.038344085,-0.57519877
680300000,-22.607244,-28.736954,-9.988632,-2.2388213,0.0,-0.28873307,-0.37320355,0.037160162,0.0,0.0,0.0,0.0,0.0,0.0,-0.031052127,-0.036967516,-0.57358
680396000,-22.651978,-28.793676,-9.989443,-2.2382257,0.0,-0.26617807,-0.34597144,0.032751914,0.0,0.0,0.0,0.0,0.0,0.0,-0.029300496,-0.034125417,-0.57400775
680492000,-22.695505,-28.848297,-9.990148,-2.240658,0.0,-0.24805082,-0.31833082,0.030798336,0.0,0.0,0.0,0.0,0.0,0.0,-0.029393084,-0.03221955,-0.5735897
680588000,-22.737936,-28.90154,-9.990973,-2.2186668,0.0,-0.2313982,-0.30516705,0.028354682,0.0,0.0,0.0,0.0,0.0,0.0,-0.028682105,-0.03307285,-0.57226926
680704000,-22.783318,-28.968178,-9.991817,-2.1275604,0.0,-0.11313102,-0.34678674,0.023019664,0.0,0.0,0.0,0.0,0.0,0.0,-0.0080261305,-0.045174345,-0.57310516
680804000,-22.806503,-29.029823,-9.992754,-2.0490203,0.0,0.1125678,-0.38372162,0.0242221,0.0,0.0,0.0,0.0,0.0,0.0,0.031726353,-0.051898632,-0.56707203
680900000,-22.805328,-29.09267,-9.993337,-1.9736218,0.0,0.42320698,-0.42640144,0.020930286,0.0,0.0,0.0,0.0,0.0,0.0,0.08141,-0.05660822,-0.566923
680996000,-22.776937,-29.159111,-9.994055,-1.8982234,0.0,0.7617818,-0.46882343,0.0236387,0.0,0.0,0.0,0.0,0.0,0.0,0.12372879,-0.057357028,-0.55718166
681092000,-22.731234,-29.218475,-9.994588,-1.822825,0.0,1.0619111,-0.5001284,0.020011984,0.0,0.0,0.0,0.0,0.0,0.0,0.14630748,-0.057035822,-0.55355376
681188000,-22.678637,-29.269388,-9.995067,-1.7474265,0.0,1.3131974,-0.5153824,0.021677364,0.0,0.0,0.0,0.0,0.0,0.0,0.15120283,-0.05435961,-0.55159736
681304000,-22.601147,-29.330374,-9.995493,-1.6563201,0.0,1.596265,-0.53342193,0.018649107,0.0,0.0,0.0,0.0,0.0,0.0,0.1609788,-0.056259997,-0.5577554
681404000,-22.523441,-29.382618,-9.995928,-1.57778,0.0,1.8216763,-0.5389718,0.01734881,0.0,0.0,0.0,0.0,0.0,0.0,0.16181335,-0.054757576,-0.5594
681500000,-22.440144,-29.432037,-9.99631,-1.5023816,0.0,2.0242167,-0.5285981,0.013928646,0.0,0.0,0.0,0.0,0.0,0.0,0.17025992,-0.05150619,-0.56067157
681596000,-22.348745,-29.480225,-9.996667,-1.4269831,0.0,2.2160158,-0.50805104,0.011788877,0.0,0.0,0.0,0.0,0.0,0.0,0.17937317,-0.045109168,-0.5612845
681692000,-22.249596,-29.527065,-9.997017,-1.3515847,0.0,2.3972757,-0.4828644,0.009748455,0.0,0.0,0.0,0.0,0.0,0.0,0.18853176,-0.039995275,-0.5624343
681808000,-22.119497,-29.581816,-9.997421,-1.2604783,0.0,2.6091318,-0.44463518,0.0067024785,0.0,0.0,0.0,0.0,0.0,0.0,0.20040828,-0.03509645,-0.56241655
681904000,-22.003675,-29.625465,-9.997737,-1.1850798,0.0,2.7564828,-0.4053983,0.005096056,0.0,0.0,0.0,0.0,0.0,0.0,0.20429343,-0.03271869,-0.5641831
682004000,-21.87639,-29.669064,-9.998071,-1.1065397,0.0,2.8663592,-0.35000682,0.0030344361,0.0,0.0,0.0,0.0,0.0,0.0,0.1972268,-0.026476808,-0.5676895
682100000,-21.748924,-29.708649,-9.998375,-1.0311413,0.0,2.9402618,-0.28398657,0.0011221156,0.0,0.0,0.0,0.0,0.0,0.0,0.1904882,-0.01902204,-0.5714471
682196000,-21.61705,-29.74541,-9.99868,-0.955743,0.0,2.9830148,-0.2092061,-0.0011160332,0.0,0.0,0.0,0.0,0.0,0.0,0.18190205,-0.010230087,-0.57444143
682292000,-21.482168,-29.77928,-9.998981,-0.8803448,0.0,2.9911048,-0.13229233,-0.004362886,0.0,0.0,0.0,0.0,0.0,0.0,0.1726753,-0.0025080591,-0.5777459
682388000,-21.345804,-29.810244,-9.999274,-0.8049466,0.0,2.9695132,-0.05864021,-0.008234692,0.0,0.0,0.0,0.0,0.0,0.0,0.16290873,0.0023825243,-0.5805585
682504000,-21.181189,-29.844332,-9.999633,-0.7138404,0.0,2.9033425,0.0043216646,-0.0121200085,0.0,0.0,0.0,0.0,0.0,0.0,0.14863393,0.0038273185,-0.5804176
682604000,-21.041258,-29.8727,-9.999937,-0.63530064,0.0,2.7968366,0.022763193,-0.017411176,0.0,0.0,0.0,0.0,0.0,0.0,0.13093895,-0.005911164,-0.58686286
682700000,-20.910038,-29.90028,-10.000231,-0.5599024,0.0,2.6669698,0.029539645,-0.023238346,0.0,0.0,0.0,0.0,0.0,0.0,0.11248618,-0.011266336,-0.5861139
682796000,-20.782562,-29.92836,-10.00052,-0.48450422,0.0,2.533618,0.033326328,-0.028847136,0.0,0.0,0.0,0.0,0.0,0.0,0.09832387,-0.015262924,-0.5871993
682892000,-20.658184,-29.956726,-10.000808,-0.40910602,0.0,2.4175084,0.042096525,-0.033642963,0.0,0.0,0.0,0.0,0.0,0.0,0.091613755,-0.01454556,-0.5866682
682988000,-20.536116,-29.984997,-10.0011,-0.3337078,0.0,2.3214622,0.053982407,-0.036600016,0.0,0.0,0.0,0.0,0.0,0.0,0.08858819,-0.014398925,-0.5836401
683104000,-20.390848,-30.018362,-10.001444,-0.24260163,0.0,2.2292883,0.079716414,-0.038375802,0.0,0.0,0.0,0.0,0.0,0.0,0.08809678,-0.010384977,-0.58099043
683204000,-20.267363,-30.045696,-10.001742,-0.16406177,0.0,2.1538177,0.10602388,-0.041233543,0.0,0.0,0.0,0.0,0.0,0.0,0.08947718,-0.00898654,-0.57993346
683300000,-20.14993,-30.070524,-10.002035,-0.08866353,0.0,2.0994654,0.13241628,-0.042663988,0.0,0.0,0.0,0.0,0.0,0.0,0.08970024,-0.00727845,-0.5786368
683396000,-20.033638,-30.094069,-10.002311,-0.01326531,0.0,2.0462198,0.14509532,-0.044019368,0.0,0.0,0.0,0.0,0.0,0.0,0.08784652,-0.008952409,-0.57874775
683492000,-19.91859,-30.117336,-10.002595,0.007933652,0.0,1.993729,0.14683911,-0.0458465,0.0,0.0,0.0,0.0,0.0,0.0,0.08448712,-0.011899166,-0.57772535
683588000,-19.805054,-30.140373,-10.002865,0.0108964965,0.0,1.9400073,0.15139604,-0.047848094,0.0,0.0,0.0,0.0,0.0,0.0,0.08122747,-0.013382077,-0.5789322
683704000,-19.669695,-30.167343,-10.003187,0.01459149,0.0,1.8857578,0.16482466,-0.049449682,0.0,0.0,0.0,0.0,0.0,0.0,0.07850643,-0.0106186345,-0.577245
683804000,-19.554802,-30.189535,-10.003464,0.018023709,0.0,1.8332106,0.17835459,-0.050237093,0.0,0.0,0.0,0.0,0.0,0.0,0.07617406,-0.007924557,-0.5779054
683900000,-19.446104,-30.20987,-10.003727,0.02153467,0.0,1.7890034,0.19261262,-0.050310746,0.0,0.0,0.0,0.0,0.0,0.0,0.074605286,-0.0061180443,-0.5765658
683996000,-19.33907,-30.229235,-10.003982,0.024689026,0.0,1.7473261,0.20413002,-0.049752742,0.0,0.0,0.0,0.0,0.0,0.0,0.07353454,-0.0054439083,-0.5745348
684092000,-19.233675,-30.247902,-10.0042305,0.028031409,0.0,1.7072653,0.21033248,-0.049015798,0.0,0.0,0.0,0.0,0.0,0.0,0.07172571,-0.008015171,-0.57548594
684188000,-19.129921,-30.266127,-10.004485,0.031058008,0.0,1.6692927,0.21376598,-0.049028464,0.0,0.0,0.0,0.0,0.0,0.0,0.070109524,-0.009503573,-0.576912
684304000,-19.0066,-30.287575,-10.004784,0.034709234,0.0,1.6295013,0.21855772,-0.049188156,0.0,0.0,0.0,0.0,0.0,0.0,0.06747965,-0.009812452,-0.5753486
684404000,-18.90194,-30.305452,-10.0050335,0.037805438,0.0,1.5907696,0.22364241,-0.050323606,0.0,0.0,0.0,0.0,0.0,0.0,0.0668804,-0.010247916,-0.5766724
684500000,-18.80316,-30.321985,-10.005265,0.04088893,0.0,1.5538284,0.23084834,-0.05146946,0.0,0.0,0.0,0.0,0.0,0.0,0.06388603,-0.009713918,-0.5755463
684596000,-18.70604,-30.337809,-10.005505,0.043798,0.0,1.5232228,0.23786326,-0.052884817,0.0,0.0,0.0,0.0,0.0,0.0,0.06386444,-0.008953735,-0.57539123
684692000,-18.610504,-30.352907,-10.005735,0.04689837,0.0,1.4927957,0.24583484,-0.0550554,0.0,0.0,0.0,0.0,0.0,0.0,0.06314689,-0.008870482,-0.5756447
684788000,-18.516624,-30.367268,-10.005966,0.049925823,0.0,1.4633172,0.25325102,-0.057008483,0.0,0.0,0.0,0.0,0.0,0.0,0.06239561,-0.007810585,-0.5746767
684904000,-18.40539,-30.383842,-10.006236,0.053631846,0.0,1.4324626,0.25871158,-0.058313582,0.0,0.0,0.0,0.0,0.0,0.0,0.060053736,-0.007864825,-0.573786
685004000,-18.311384,-30.397543,-10.006456,0.05696629,0.0,1.4008828,0.2636964,-0.059017897,0.0,0.0,0.0,0.0,0.0,0.0,0.05867731,-0.008511186,-0.5742781
685100000,-18.22279,-30.41018,-10.006677,0.06013312,0.0,1.3728689,0.26851916,-0.05893839,0.0,0.0,0.0,0.0,0.0,0.0,0.05600061,-0.00846222,-0.5721255
685196000,-18.135763,-30.422342,-10.006886,0.06336027,0.0,1.3474835,0.27212662,-0.05767536,0.0,0.0,0.0,0.0,0.0,0.0,0.056080855,-0.0087402165,-0.5720991
685292000,-18.050293,-30.434114,-10.007097,0.066622905,0.0,1.32129,0.2753306,-0.055384595,0.0,0.0,0.0,0.0,0.0,0.0,0.05461972,-0.008316696,-0.572536
685408000,-17.949114,-30.447823,-10.007354,0.07046935,0.0,1.2935659,0.27912217,-0.053376343,0.0,0.0,0.0,0.0,0.0,0.0,0.052888054,-0.007355951,-0.5709944
685504000,-17.867151,-30.458729,-10.007551,0.07386923,0.0,1.2675107,0.28273958,-0.051865205,0.0,0.0,0.0,0.0,0.0,0.0,0.051793143,-0.0071336403,-0.57162136
685604000,-17.78346,-30.469662,-10.007751,0.07773686,0.0,1.2402723,0.28742713,-0.0504331,0.0,0.0,0.0,0.0,0.0,0.0,0.051270373,-0.0067584887,-0.5703819
685700000,-17.704756,-30.479744,-10.007949,0.08133994,0.0,1.2167555,0.29194623,-0.048798457,0.0,0.0,0.0,0.0,0.0,0.0,0.050579034,-0.0062027574,-0.57092017
685796000,-17.627264,-30.489323,-10.008137,0.08503495,0.0,1.2010124,0.29863048,-0.047403965,0.0,0.0,0.0,0.0,0.0,0.0,0.051027,-0.0051769167,-0.57148474
685892000,-17.551113,-30.498377,-10.008327,0.08872845,0.0,1.1781715,0.30343705,-0.044337902,0.0,0.0,0.0,0.0,0.0,0.0,0.048904404,-0.004343264,-0.56987214
686008000,-17.461208,-30.508904,-10.008544,0.093171984,0.0,1.1530734,0.30680177,-0.041989576,0.0,0.0,0.0,0.0,0.0,0.0,0.048492737,-0.0040610284,-0.5720665
686104000,-17.388582,-30.517307,-10.008713,0.09691654,0.0,1.128871,0.30938247,-0.040702622,0.0,0.0,0.0,0.0,0.0,0.0,0.045621835,-0.004493296,-0.57114977
686204000,-17.314613,-30.525764,-10.008893,0.10129487,0.0,1.104951,0.31318912,-0.04017184,0.0,0.0,0.0,0.0,0.0,0.0,0.04465609,-0.0033856109,-0.5721199
686300000,-17.245106,-30.533587,-10.009063,0.10526896,0.0,1.0816835,0.3169734,-0.03924045,0.0,0.0,0.0,0.0,0.0,0.0,0.043678794,-0.0029308647,-0.56949294
686396000,-17.176836,-30.541012,-10.009228,0.109491795,0.0,1.0674508,0.32285854,-0.039344236,0.0,0.0,0.0,0.0,0.0,0.0,0.04443816,-0.0024744123,-0.5711895
686492000,-17.109833,-30.548008,-10.00939,0.11356725,0.0,1.0475109,0.3281913,-0.03895207,0.0,0.0,0.0,0.0,0.0,0.0,0.04350964,-0.0023236498,-0.5692556
686608000,-17.030796,-30.556087,-10.009593,0.11820917,0.0,1.0247383,0.32961196,-0.03815664,0.0,0.0,0.0,0.0,0.0,0.0,0.04295022,-0.0032031685,-0.5703852
686704000,-16.967075,-30.56261,-10.0097475,0.1219205,0.0,1.003316,0.33050537,-0.037497453,0.0,0.0,0.0,0.0,0.0,0.0,0.041066058,-0.0032443032,-0.56939197
686804000,-16.902073,-30.569134,-10.0099,0.12625803,0.0,0.98184884,0.33404228,-0.036058206,0.0,0.0,0.0,0.0,0.0,0.0,0.040847342,-0.0016478226,-0.570362
686900000,-16.840757,-30.575068,-10.010055,0.13013008,0.0,0.9673804,0.33704847,-0.034373242,0.0,0.0,0.0,0.0,0.0,0.0,0.04048974,-0.001110144,-0.56777745
686996000,-16.780546,-30.58069,-10.010195,0.13432859,0.0,0.9496043,0.3408094,-0.032207705,0.0,0.0,0.0,0.0,0.0,0.0,0.040021352,-0.0008636713,-0.56808627
687092000,-16.72158,-30.586044,-10.0103445,0.13829118,0.0,0.93038476,0.3416495,-0.030065337,0.0,0.0,0.0,0.0,0.0,0.0,0.04029989,-0.002013065,-0.5685731
687208000,-16.65205,-30.592411,-10.01051,0.14248694,0.0,0.90523654,0.34068722,-0.027803706,0.0,0.0,0.0,0.0,0.0,0.0,0.036270104,-0.0027468503,-0.5685512
687304000,-16.595652,-30.597406,-10.010643,0.14606547,0.0,0.89138734,0.34282508,-0.027909191,0.0,0.0,0.0,0.0,0.0,0.0,0.037167042,-0.0016852319,-0.5707026
687404000,-16.537903,-30.602291,-10.010781,0.14967456,0.0,0.87242657,0.3432752,-0.029545864,0.0,0.0,0.0,0.0,0.0,0.0,0.036418665,-0.002471108,-0.5690836
687500000,-16.483583,-30.60687,-10.010911,0.15383151,0.0,0.85589546,0.34291044,-0.031209078,0.0,0.0,0.0,0.0,0.0,0.0,0.03639932,-0.0019952208,-0.56940603
687596000,-16.430574,-30.61131,-10.011024,0.1577574,0.0,0.83956033,0.3443666,-0.030468974,0.0,0.0,0.0,0.0,0.0,0.0,0.036511086,-0.0018407069,-0.568506
687692000,-16.37848,-30.615538,-10.011157,0.16217117,0.0,0.8267352,0.34623092,-0.03175878,0.0,0.0,0.0,0.0,0.0,0.0,0.03571192,-0.00065166876,-0.57053083
687788000,-16.327642,-30.619598,-10.011243,0.16642073,0.0,0.80710465,0.34736353,-0.030432515,0.0,0.0,0.0,0.0,0.0,0.0,0.033591148,0.00023112074,-0.5690925
687904000,-16.267757,-30.624275,-10.011471,0.17200336,0.0,0.790816,0.3499194,-0.031121774,0.0,0.0,0.0,0.0,0.0,0.0,0.033384323,-1.0933727e-05,-0.56934005
688004000,-16.21718,-30.628117,-10.011559,0.17683125,0.0,0.77722985,0.35099688,-0.030389499,0.0,0.0,0.0,0.0,0.0,0.0,0.033566818,-0.0005627647,-0.5684147
688100000,-16.169655,-30.631655,-10.011693,0.18216093,0.0,0.7608094,0.35370362,-0.030653577,0.0,0.0,0.0,0.0,0.0,0.0,0.032232266,0.0009444319,-0.56932515
688196000,-16.123215,-30.635048,-10.011762,0.1870425,0.0,0.74508685,0.3551435,-0.032073107,0.0,0.0,0.0,0.0,0.0,0.0,0.031515118,0.000730142,-0.5694669
688292000,-16.077703,-30.63825,-10.011878,0.1927352,0.0,0.7341618,0.35918987,-0.03218548,0.0,0.0,0.0,0.0,0.0,0.0,0.031481974,0.0014376566,-0.5677421
688408000,-16.02383,-30.641882,-10.012021,0.19875279,0.0,0.71642685,0.36033094,-0.03183686,0.0,0.0,0.0,0.0,0.0,0.0,0.029539056,0.0019021444,-0.5675614
688504000,-15.980435,-30.64481,-10.012138,0.20440759,0.0,0.69793713,0.36154255,-0.032967985,0.0,0.0,0.0,0.0,0.0,0.0,0.028789375,0.0021851175,-0.56903046
688604000,-15.936261,-30.647743,-10.012238,0.209792,0.0,0.68155074,0.36241058,-0.03322394,0.0,0.0,0.0,0.0,0.0,0.0,0.027876645,0.0015094914,-0.569527
688700000,-15.894709,-30.650427,-10.012372,0.21477386,0.0,0.6669375,0.36297318,-0.03446873,0.0,0.0,0.0,0.0,0.0,0.0,0.027426777,0.0013274215,-0.56931645
688796000,-15.853918,-30.653002,-10.012468,0.21904647,0.0,0.6536425,0.36201254,-0.03483337,0.0,0.0,0.0,0.0,0.0,0.0,0.026970513,0.0009015985,-0.56847495
688892000,-15.814025,-30.655468,-10.012581,0.20560609,0.0,0.63764966,0.3617384,-0.034907326,0.0,0.0,0.0,0.0,0.0,0.0,0.026569817,0.0007493347,-0.56711596
689008000,-15.766916,-30.658278,-10.012696,0.20560609,0.0,0.6217566,0.36065573,-0.035576984,0.0,0.0,0.0,0.0,0.0,0.0,0.026577696,0.00067255646,-0.5708691
689104000,-15.728139,-30.660498,-10.012777,0.13020782,0.0,0.63414365,0.35928786,-0.037579343,0.0,0.0,0.0,0.0,0.0,0.0,0.03121666,0.0006741211,-0.56876457
689204000,-15.684574,-30.662786,-10.012875,0.051668014,0.0,0.7033606,0.35631055,-0.03788367,0.0,0.0,0.0,0.0,0.0,0.0,0.046700086,0.001117602,-0.56625557
689300000,-15.635803,-30.664957,-10.012962,0.03652044,0.0,0.8314679,0.3551837,-0.03800044,0.0,0.0,0.0,0.0,0.0,0.0,0.072268814,0.0025138147,-0.56444603
689396000,-15.576486,-30.667099,-10.013058,0.03656612,0.0,1.0187101,0.35311666,-0.036457185,0.0,0.0,0.0,0.0,0.0,0.0,0.10299454,0.003731314,-0.56057775
689492000,-15.5032835,-30.669209,-10.013152,0.03678395,0.0,1.2532637,0.3526234,-0.035728525,0.0,0.0,0.0,0.0,0.0,0.0,0.13618378,0.003289152,-0.5601659
689608000,-15.395022,-30.671701,-10.013257,0.036900457,0.0,1.550647,0.35045052,-0.031874817,0.0,0.0,0.0,0.0,0.0,0.0,0.16957551,0.0013809465,-0.5548807
689704000,-15.289606,-30.673716,-10.013338,0.037154853,0.0,1.7978933,0.34982735,-0.027880771,0.0,0.0,0.0,0.0,0.0,0.0,0.18872099,0.0008893721,-0.55292046
689804000,-15.165375,-30.675758,-10.013415,0.037279803,0.0,2.0486238,0.3472685,-0.024118999,0.0,0.0,0.0,0.0,0.0,0.0,0.19854972,0.00074227527,-0.5575035
689900000,-15.032848,-30.67767,-10.013496,0.037603043,0.0,2.2878466,0.34633413,-0.021531766,0.0,0.0,0.0,0.0,0.0,0.0,0.211089,0.00073377043,-0.55874604
689996000,-14.88793,-30.679531,-10.01358,0.037813324,0.0,2.5196953,0.3438249,-0.019610342,0.0,0.0,0.0,0.0,0.0,0.0,0.2226566,0.0013808273,-0.56074804
690092000,-14.730887,-30.681347,-10.013646,0.0382538,0.0,2.7460232,0.34292287,-0.018057585,0.0,0.0,0.0,0.0,0.0,0.0,0.23543775,0.00223732,-0.5600084
690208000,-14.525327,-30.683483,-10.013727,0.038712375,0.0,3.0156128,0.34051746,-0.016520053,0.0,0.0,0.0,0.0,0.0,0.0,0.25568303,0.0017481744,-0.5620636
690304000,-14.34234,-30.685207,-10.013804,0.039369036,0.0,3.224535,0.34025186,-0.015422174,0.0,0.0,0.0,0.0,0.0,0.0,0.26602003,0.0029708035,-0.56000084
690404000,-14.140904,-30.686941,-10.013869,0.03999108,0.0,3.3876545,0.3396287,-0.0131728295,0.0,0.0,0.0,0.0,0.0,0.0,0.26303926,0.0030284785,-0.5623855
690500000,-13.939305,-30.688463,-10.013939,0.040907882,0.0,3.499653,0.3420753,-0.011920778,0.0,0.0,0.0,0.0,0.0,0.0,0.25680417,0.004938755,-0.56770784
690596000,-13.73189,-30.68985,-10.013998,0.041734654,0.0,3.5602396,0.343048,-0.011368465,0.0,0.0,0.0,0.0,0.0,0.0,0.24454863,0.0049477927,-0.5770069
690692000,-13.520316,-30.691101,-10.01405,0.042788517,0.0,3.5702648,0.34522894,-0.01180416,0.0,0.0,0.0,0.0,0.0,0.0,0.22916946,0.0057531036,-0.5810912
690808000,-13.261951,-30.692434,-10.014125,0.043893192,0.0,3.52227,0.3460672,-0.013568997,0.0,0.0,0.0,0.0,0.0,0.0,0.21328244,0.005320452,-0.5878154
690904000,-13.048756,-30.69339,-10.014194,0.045043617,0.0,3.4189184,0.34782043,-0.015212771,0.0,0.0,0.0,0.0,0.0,0.0,0.1934267,0.005606681,-0.58981687
691004000,-12.830624,-30.694237,-10.014239,0.046098195,0.0,3.2479973,0.34775105,-0.01845918,0.0,0.0,0.0,0.0,0.0,0.0,0.1689538,0.0056314208,-0.5941654
691100000,-12.627271,-30.6949,-10.014285,0.047287077,0.0,3.0719535,0.34912696,-0.018982029,0.0,0.0,0.0,0.0,0.0,0.0,0.14962101,0.0062505826,-0.5939559
691196000,-12.429921,-30.695438,-10.014345,0.04829766,0.0,2.9166822,0.34771648,-0.022355247,0.0,0.0,0.0,0.0,0.0,0.0,0.13892552,0.00680092,-0.595995
691292000,-12.237403,-30.695957,-10.014405,0.049493987,0.0,2.7851298,0.3466965,-0.023881579,0.0,0.0,0.0,0.0,0.0,0.0,0.13531238,0.0064163655,-0.5916584
691408000,-12.01017,-30.696571,-10.014444,0.05063031,0.0,2.6614945,0.34368333,-0.022918276,0.0,0.0,0.0,0.0,0.0,0.0,0.1360188,0.0053841285,-0.58775735
691504000,-11.826073,-30.69707,-10.014519,0.051767047,0.0,2.5719001,0.34214532,-0.021894116,0.0,0.0,0.0,0.0,0.0,0.0,0.13745312,0.0057561584,-0.5847219
691604000,-11.637839,-30.697569,-10.014575,0.052707687,0.0,2.4785082,0.3386275,-0.020274084,0.0,0.0,0.0,0.0,0.0,0.0,0.1366292,0.0045824647,-0.5838076
691700000,-11.460693,-30.698034,-10.01464,0.053772874,0.0,2.4000177,0.33657977,-0.019874204,0.0,0.0,0.0,0.0,0.0,0.0,0.1323183,0.0040638,-0.5851808
691796000,-11.287036,-30.698486,-10.014688,0.05459282,0.0,2.327734,0.33301783,-0.019045461,0.0,0.0,0.0,0.0,0.0,0.0,0.12811595,0.0039709173,-0.5843622
691892000,-11.116774,-30.69892,-10.014729,0.055644464,0.0,2.258046,0.33073863,-0.018575761,0.0,0.0,0.0,0.0,0.0,0.0,0.12480916,0.0048681945,-0.5848015
692008000,-10.906686,-30.699442,-10.0147915,0.056651358,0.0,2.1888783,0.3267718,-0.018156491,0.0,0.0,0.0,0.0,0.0,0.0,0.122760564,0.004758939,-0.5838155
692104000,-10.726892,-30.699879,-10.014903,0.057832807,0.0,2.132173,0.32508475,-0.013810872,0.0,0.0,0.0,0.0,0.0,0.0,0.12071353,0.0054411776,-0.58067715
692204000,-10.545001,-30.700306,-10.01484,0.05886614,0.0,2.0707688,0.32186696,-0.013136296,0.0,0.0,0.0,0.0,0.0,0.0,0.120074354,0.0062256902,-0.5827738
692300000,-10.374122,-30.700697,-10.014957,0.06015196,0.0,2.017451,0.3205391,-0.010033718,0.0,0.0,0.0,0.0,0.0,0.0,0.117272034,0.007072989,-0.58009654
692396000,-10.207464,-30.701063,-10.015,0.061199784,0.0,1.9673884,0.3179098,-0.009521396,0.0,0.0,0.0,0.0,0.0,0.0,0.11399665,0.006402772,-0.58133
692492000,-10.04484,-30.70141,-10.015081,0.06190519,0.0,1.9179624,0.31354454,-0.0060383966,0.0,0.0,0.0,0.0,0.0,0.0,0.112214044,0.004969366,-0.5795409
692588000,-9.893399,-30.701717,-10.015131,0.0629845,0.0,1.8672673,0.3110425,-0.005597435,0.0,0.0,0.0,0.0,0.0,0.0,0.10944045,0.0057295784,-0.5806904
692704000,-9.709441,-30.702074,-10.015098,0.06405868,0.0,1.8145664,0.30718383,-0.003718542,0.0,0.0,0.0,0.0,0.0,0.0,0.10605542,0.0053835846,-0.57977694
692804000,-9.55327,-30.702358,-10.015182,0.06520578,0.0,1.7632736,0.30427355,-0.002370853,0.0,0.0,0.0,0.0,0.0,0.0,0.10442395,0.0049249865,-0.5786565
692900000,-9.406539,-30.70261,-10.015258,0.06599863,0.0,1.7196088,0.30034932,-0.003044759,0.0,0.0,0.0,0.0,0.0,0.0,0.10210208,0.004846044,-0.58069557
692996000,-9.269574,-30.702831,-10.015285,0.0671908,0.0,1.6732395,0.29811648,-3.482742e-05,0.0,0.0,0.0,0.0,0.0,0.0,0.09993254,0.006062258,-0.5776638
693092000,-9.129736,-30.70304,-10.015395,0.06818486,0.0,1.6306474,0.29497275,-0.0013344361,0.0,0.0,0.0,0.0,0.0,0.0,0.09797649,0.0063784793,-0.58109975
693208000,-8.962002,-30.703321,-10.01533,0.06959198,0.0,1.5846713,0.29004294,0.0006796502,0.0,0.0,0.0,0.0,0.0,0.0,0.09506573,0.0047479235,-0.57882154
693304000,-8.829765,-30.7037,-10.015473,0.07052351,0.0,1.5425113,0.28575295,-0.002391968,0.0,0.0,0.0,0.0,0.0,0.0,0.09179892,0.004296016,-0.5811608
693404000,-8.6902,-30.704086,-10.015464,0.07183512,0.0,1.5019146,0.28280616,-0.0006212271,0.0,0.0,0.0,0.0,0.0,0.0,0.090584934,0.0047818013,-0.5774949
693500000,-8.564387,-30.704426,-10.015635,0.07277898,0.0,1.4569244,0.2790094,-0.0039680973,0.0,0.0,0.0,0.0,0.0,0.0,0.087816134,0.004274592,-0.580882
693596000,-8.436747,-30.704748,-10.015713,0.07402091,0.0,1.4183408,0.27624044,-0.0017620125,0.0,0.0,0.0,0.0,0.0,0.0,0.08701466,0.0044063963,-0.5759918
693692000,-8.312451,-30.70505,-10.015852,0.0749922,0.0,1.3855323,0.27246615,0.0025363779,0.0,0.0,0.0,0.0,0.0,0.0,0.0857336,0.0041235127,-0.5746232
693788000,-8.191024,-30.70532,-10.015954,0.07628187,0.0,1.3457569,0.2697053,0.0020116784,0.0,0.0,0.0,0.0,0.0,0.0,0.082919605,0.0054639913,-0.5772692
693904000,-8.0431795,-30.705631,-10.016053,0.077606276,0.0,1.3020154,0.26580268,0.0039837873,0.0,0.0,0.0,0.0,0.0,0.0,0.07939974,0.0050273314,-0.57860136
694004000,-7.925284,-30.705854,-10.016133,0.07939923,0.0,1.2583631,0.26389515,0.008200729,0.0,0.0,0.0,0.0,0.0,0.0,0.07660459,0.005793102,-0.57616395
694100000,-7.810639,-30.706053,-10.016267,0.08078936,0.0,1.2232099,0.26121715,0.008851645,0.0,0.0,0.0,0.0,0.0,0.0,0.074849054,0.0053645708,-0.5747346
694196000,-7.6991653,-30.70622,-10.016295,0.08242504,0.0,1.188167,0.2591847,0.009349648,0.0,0.0,0.0,0.0,0.0,0.0,0.07253894,0.0051911604,-0.5771839
694292000,-7.5907907,-30.706364,-10.0163555,0.08375439,0.0,1.1538243,0.25618032,0.012452089,0.0,0.0,0.0,0.0,0.0,0.0,0.07149468,0.0053561814,-0.5759041
694388000,-7.485431,-30.706476,-10.016372,0.085250124,0.0,1.1192465,0.2535362,0.014615136,0.0,0.0,0.0,0.0,0.0,0.0,0.068672046,0.005435614,-0.5757571
694504000,-7.3614497,-30.70658,-10.016435,0.086746275,0.0,1.0821302,0.2497089,0.013053354,0.0,0.0,0.0,0.0,0.0,0.0,0.06626121,0.005145408,-0.57710075
694604000,-7.2569942,-30.706749,-10.016415,0.08838946,0.0,1.0437382,0.2446967,0.013282176,0.0,0.0,0.0,0.0,0.0,0.0,0.06425567,0.0042877775,-0.57556164
694700000,-7.158388,-30.706953,-10.016556,0.089587316,0.0,1.0122656,0.24094525,0.014643384,0.0,0.0,0.0,0.0,0.0,0.0,0.06302832,0.00354027,-0.5732721
694796000,-7.0626245,-30.70713,-10.016411,0.09112772,0.0,0.98014927,0.23796895,0.015617097,0.0,0.0,0.0,0.0,0.0,0.0,0.06118871,0.0030517746,-0.5744138
694892000,-6.9695644,-30.707275,-10.016435,0.09239032,0.0,0.9495386,0.2343243,0.017503254,0.0,0.0,0.0,0.0,0.0,0.0,0.060201753,0.0033156946,-0.5725581
695008000,-6.8607006,-30.707415,-10.016443,0.09418386,0.0,0.9144785,0.23075984,0.018404827,0.0,0.0,0.0,0.0,0.0,0.0,0.057496667,0.0034253504,-0.57324725
695104000,-6.7733536,-30.707499,-10.016352,0.09549558,0.0,0.8869727,0.22720219,0.019276865,0.0,0.0,0.0,0.0,0.0,0.0,0.056097418,0.0033463296,-0.57460415
695204000,-6.684833,-30.707552,-10.0164,0.09755139,0.0,0.8539683,0.22467344,0.023539852,0.0,0.0,0.0,0.0,0.0,0.0,0.05496946,0.0035209656,-0.569879
695300000,-6.6022196,-30.707575,-10.016369,0.09916232,0.0,0.8261795,0.2217307,0.02224524,0.0,0.0,0.0,0.0,0.0,0.0,0.053300545,0.0036622342,-0.57310677
695396000,-6.521925,-30.707571,-10.016317,0.10093881,0.0,0.7975121,0.21904126,0.025029665,0.0,0.0,0.0,0.0,0.0,0.0,0.051349394,0.0033253767,-0.57220435
695492000,-6.4440584,-30.70768,-10.016349,0.1024186,0.0,0.76635635,0.21277143,0.026107462,0.0,0.0,0.0,0.0,0.0,0.0,0.04864686,0.002460003,-0.5722141
695608000,-6.353113,-30.707932,-10.016374,0.10464027,0.0,0.7389606,0.20958234,0.028851377,0.0,0.0,0.0,0.0,0.0,0.0,0.04717498,0.0018066913,-0.5707918
695704000,-6.2801623,-30.708109,-10.01638,0.10626435,0.0,0.7072815,0.20632376,0.030200759,0.0,0.0,0.0,0.0,0.0,0.0,0.045307517,0.0020486861,-0.5716442
695804000,-6.206571,-30.708261,-10.016409,0.10840917,0.0,0.6763534,0.20340742,0.030987466,0.0,0.0,0.0,0.0,0.0,0.0,0.04360659,0.0019687861,-0.57196957
695900000,-6.13774,-30.708378,-10.016397,0.11005816,0.0,0.65862346,0.20017628,0.032389566,0.0,0.0,0.0,0.0,0.0,0.0,0.043860666,0.0014713332,-0.57212126
695996000,-6.0706577,-30.708466,-10.01644,0.11232019,0.0,0.6297539,0.19787137,0.03275878,0.0,0.0,0.0,0.0,0.0,0.0,0.041848022,0.0014136471,-0.5713249
696092000,-6.0058846,-30.708523,-10.016479,0.114251584,0.0,0.6005807,0.19503239,0.032001365,0.0,0.0,0.0,0.0,0.0,0.0,0.039209276,0.0015949626,-0.5714673
696208000,-5.9300747,-30.708553,-10.016483,0.11747914,0.0,0.57572347,0.19325931,0.03233706,0.0,0.0,0.0,0.0,0.0,0.0,0.038262308,0.002003597,-0.57093686
696304000,-5.8694167,-30.70855,-10.016487,0.11623939,0.0,0.5509804,0.19084889,0.033944953,0.0,0.0,0.0,0.0,0.0,0.0,0.037778147,0.0022177417,-0.57013714
696404000,-5.8079553,-30.70844,-10.016491,0.15708011,0.0,0.5379594,0.20160276,0.034623016,0.0,0.0,0.0,0.0,0.0,0.0,0.038797595,0.0050415434,-0.5698904
696500000,-5.745812,-30.705055,-10.016495,0.20264028,0.0,0.6151118,0.24852419,0.03496634,0.0,0.0,0.0,0.0,0.0,0.0,0.058184065,0.014124144,-0.5676001
696596000,-5.671809,-30.69722,-10.016499,0.2029448,0.0,0.794122,0.2989338,0.03639208,0.0,0.0,0.0,0.0,0.0,0.0,0.09437719,0.021770766,-0.5663708
696692000,-5.5771337,-30.68493,-10.016502,0.20318066,0.0,1.079517,0.35129803,0.03689562,0.0,0.0,0.0,0.0,0.0,0.0,0.14540526,0.027578097,-0.5601071
696808000,-5.4368305,-30.665522,-10.016507,0.20344044,0.0,1.4543856,0.41372752,0.03813635,0.0,0.0,0.0,0.0,0.0,0.0,0.19774504,0.03307163,-0.5484299
