timestamp,states[0],states[1],states[2],states[3],states[4],states[5],states[6],states[7],states[8],states[9],states[10],states[11],states[12],states[13],states[14],states[15],states[16],states[17],states[18],states[19],states[20],states[21],states[22],states[23],vibe[0],vibe[1],vibe[2],covariances[0],covariances[1],covariances[2],covariances[3],covariances[4],covariances[5],covariances[6],covariances[7],covariances[8],covariances[9],covariances[10],covariances[11],covariances[12],covariances[13],covariances[14],covariances[15],covariances[16],covariances[17],covariances[18],covariances[19],covariances[20],covariances[21],covariances[22],covariances[23],control_mode_flags,pos_horiz_accuracy,pos_vert_accuracy,mag_test_ratio,vel_test_ratio,pos_test_ratio,hgt_test_ratio,tas_test_ratio,hagl_test_ratio,beta_test_ratio,time_slip,gps_check_fail_flags,filter_fault_flags,innovation_check_flags,solution_status_flags,n_states,pre_flt_fail,health_flags,timeout_flags
657300000,-0.98093367,0.002733238,-0.0086718155,-0.1941302,0.045321666,-0.059399452,-0.008834362,0.037646275,-0.112431936,-0.021449253,-5.531216e-06,-4.8553175e-05,8.112216e-06,-0.0020717103,0.0014403891,-0.0012710046,0.21561153,0.0103419395,0.42644256,-2.8308397e-05,-0.0001999095,0.0028739558,0.0,0.0,6.2322797e-10,2.4831923e-05,0.00029786862,1.3748949e-06,5.7671796e-06,5.767047e-06,3.486677e-05,0.015299272,0.0152989095,0.011145308,0.09038247,0.09038189,0.05789159,1.0536576e-11,1.0533544e-11,1.8101591e-11,5.1437908e-08,5.144362e-08,5.000007e-08,0.0,0.0,0.0,0.0,0.0,0.0,0.0,0.0,535,0.42516392,0.24060671,0.002611446,0.028780673,0.0101805935,0.004002408,0.0,0.0,0.0,0.004,0,0,0,831,24,0,0,0
657492000,-0.9809146,0.0026760455,-0.008743169,-0.1942245,0.047857445,-0.058087777,-0.0052728867,0.036205757,-0.11369275,-0.01936687,-5.5816754e-06,-4.8580358e-05,8.098122e-06,-0.002071712,0.001440378,-0.0012721085,0.21561153,0.0103419395,0.42644256,-2.8308397e-05,-0.0001999095,0.0028739558,0.0,0.0,6.556426e-10,2.5403837e-05,0.00027772938,1.3741666e-06,5.751244e-06,5.751042e-06,3.482245e-05,0.01514987,0.0151496,0.01105439,0.08951223,0.08951166,0.057207096,1.05266984e-11,1.0523651e-11,1.8092361e-11,5.143876e-08,5.144447e-08,5e-08,0.0,0.0,0.0,0.0,0.0,0.0,0.0,0.0,663,0.42311215,0.23918004,0.012664806,0.027192192,0.010008716,0.00399941,0.0,0.0,0.0,0.004,0,0,0,831,24,0,0,0
657692000,-0.980918,0.0025618884,-0.00874482,-0.1942083,0.051405214,-0.056019112,-0.0013405159,0.03436268,-0.114017844,-0.013837947,-5.64035e-06,-4.861279e-05,8.095101e-06,-0.0020717145,0.0014403614,-0.0012745361,0.21561153,0.0103419395,0.42644256,-2.8308397e-05,-0.0001999095,0.0028739558,0.0,0.0,2.1669264e-09,2.8386174e-05,0.00029841927,1.3751736e-06,5.743938e-06,5.7437032e-06,3.4854645e-05,0.015077638,0.015077487,0.011098707,0.089111954,0.089111425,0.05765767,1.0522136e-11,1.05190665e-11,1.8099149e-11,5.143965e-08,5.1445355e-08,5.000007e-08,0.0,0.0,0.0,0.0,0.0,0.0,0.0,0.0,663,0.4221651,0.24012011,0.00403489,0.032837354,0.010302274,0.0021663934,0.0,0.0,0.0,0.004,0,0,0,831,24,0,0,0
657892000,-0.9809025,-0.00407074,-0.009540893,-0.19422373,0.049909074,-0.045202862,-0.12773226,0.037219007,-0.11427972,-0.01297412,-5.6878575e-06,-4.862962e-05,8.104173e-06,-0.0020717203,0.0014403495,-0.0012779032,0.21561153,0.0103419395,0.42644256,-2.8308397e-05,-0.0001999095,0.0028739558,0.0,0.0,3.4032581e-09,2.8249207e-05,0.0003091468,1.3744201e-06,5.738593e-06,5.7380676e-06,3.4828874e-05,0.015107105,0.015107029,0.011048777,0.08875283,0.08875233,0.05727776,1.0518341e-11,1.05152475e-11,1.8093988e-11,5.1440537e-08,5.144624e-08,5e-08,0.0,0.0,0.0,0.0,0.0,0.0,0.0,0.0,663,0.4213136,0.23932773,0.010731235,0.02123491,0.010283673,0.00011816334,0.0,0.0,0.0,0.004,0,0,0,831,24,0,0,0
658092000,-0.98091924,-0.006729125,-0.008117111,-0.19412974,0.03570506,-0.0074852966,-0.66438675,0.035253175,-0.110865794,-0.07988294,-5.733524e-06,-4.8660768e-05,8.113614e-06,-0.0020717834,0.0014403906,-0.0012841743,0.21561153,0.0103419395,0.42644256,-2.8308397e-05,-0.0001999095,0.0028739558,0.0,0.0,3.866029e-09,2.6532518e-05,0.0003074272,1.3745286e-06,5.7259863e-06,5.7272987e-06,3.4861692e-05,0.01542081,0.015420649,0.011095737,0.08844691,0.08844647,0.05773703,1.0512414e-11,1.0509284e-11,1.8100799e-11,5.1441127e-08,5.1446822e-08,5.000007e-08,0.0,0.0,0.0,0.0,0.0,0.0,0.0,0.0,663,0.42058694,0.2402853,0.0091422945,0.053821106,0.009766676,0.0007302036,0.0,0.0,0.0,0.004,0,0,0,831,24,0,0,0
658292000,-0.9809248,-0.001637364,-0.0069887973,-0.19425516,0.030008346,0.005073867,-1.3983064,0.035727914,-0.101766974,-0.27786365,-5.7741586e-06,-4.8669714e-05,8.108555e-06,-0.0020718277,0.0014405113,-0.0012918027,0.21561153,0.0103419395,0.42644256,-2.8308397e-05,-0.0001999095,0.0028739558,0.0,0.0,3.1125553e-09,2.5474981e-05,0.0006564597,1.3753117e-06,5.70364e-06,5.7040947e-06,3.483811e-05,0.015862392,0.015862094,0.011048641,0.08821298,0.088212624,0.057363965,1.0502683e-11,1.0499531e-11,1.8095659e-11,5.1440068e-08,5.144576e-08,5.0000036e-08,0.0,0.0,0.0,0.0,0.0,0.0,0.0,0.0,663,0.42003047,0.23950775,0.0109392665,0.079568006,0.008282829,0.0024239316,0.0,0.0,0.0,0.004,0,0,0,831,24,0,0,0
658492000,-0.98091686,0.00010555166,-0.007500885,-0.19428338,0.03287693,0.0018515775,-1.8783897,0.034699462,-0.09102988,-0.58750695,-5.8189285e-06,-4.8686135e-05,8.093618e-06,-0.002071918,0.0014407256,-0.0012908706,0.21561153,0.0103419395,0.42644256,-2.8308397e-05,-0.0001999095,0.0028739558,0.0,0.0,2.43429e-09,2.5566973e-05,0.0007273595,1.3745216e-06,5.678766e-06,5.678857e-06,3.4813947e-05,0.016103836,0.016103547,0.011001832,0.08805008,0.088049784,0.056990974,1.049212e-11,1.048895e-11,1.8090508e-11,5.1437937e-08,5.144362e-08,5e-08,0.0,0.0,0.0,0.0,0.0,0.0,0.0,0.0,663,0.41964254,0.23872782,0.011386325,0.01870707,0.010707302,0.0061841067,0.0,0.0,0.0,0.004,0,0,0,831,24,0,0,0
658692000,-0.98089856,-0.00027512343,-0.009472298,-0.19428915,0.042940404,0.002349533,-1.7506526,0.035277214,-0.07670384,-0.96786654,-5.88371e-06,-4.8691287e-05,8.077378e-06,-0.0020719462,0.001441122,-0.0012855701,0.21561153,0.0103419395,0.42644256,-2.8308397e-05,-0.0001999095,0.0028739558,0.0,0.0,2.0143966e-09,2.3876499e-05,0.0005506951,1.3755664e-06,5.6527924e-06,5.651561e-06,3.4845227e-05,0.015869658,0.015869485,0.011049802,0.08792259,0.08792234,0.057444118,1.0481313e-11,1.0478118e-11,1.8097307e-11,5.1434892e-08,5.1440573e-08,5.0000036e-08,0.0,0.0,0.0,0.0,0.0,0.0,0.0,0.0,663,0.4193387,0.23967503,0.0023613842,0.032695085,0.0116916085,0.0018754981,0.0,0.0,0.0,0.004,0,0,0,831,24,0,0,0
658892000,-0.9808703,0.0010018003,-0.010781786,-0.19436125,0.038278736,-1.5642036e-05,-1.7202624,0.035271287,-0.06564044,-1.3133914,-5.933096e-06,-4.8708425e-05,8.075327e-06,-0.0020720481,0.0014413657,-0.001286716,0.21561153,0.0103419395,0.42644256,-2.8308397e-05,-0.0001999095,0.0028739558,0.0,0.0,1.6546133e-09,2.320824e-05,0.00045627958,1.375873e-06,5.630478e-06,5.6283047e-06,3.481937e-05,0.015725862,0.01572562,0.0110053625,0.08778791,0.08778769,0.05707808,1.0472785e-11,1.0469577e-11,1.8092179e-11,5.143265e-08,5.143832e-08,5e-08,0.0,0.0,0.0,0.0,0.0,0.0,0.0,0.0,663,0.41901743,0.23891018,0.010157126,0.020433493,0.01178141,0.0060416325,0.0,0.0,0.0,0.004,0,0,0,831,24,0,0,0
659092000,0.9806371,-0.0022335742,0.010358055,0.19554694,0.03669922,-0.0070627094,-1.6763805,0.03394178,-0.05848795,-1.6602093,-5.9695567e-06,-4.873479e-05,8.067536e-06,-0.0020721818,0.0014415396,-0.0012831186,0.2219065,0.009935766,0.42643437,-2.8308397e-05,-0.0001999095,0.0028739558,0.0,0.0,1.3676977e-09,2.4137755e-05,0.00039576655,7.2761286e-05,5.972879e-06,5.781228e-06,0.0018223693,0.015149273,0.015148946,0.011054281,0.08764277,0.087642565,0.057532314,1.04663335e-11,1.04630965e-11,1.8134789e-11,5.1431105e-08,5.1436757e-08,5.000007e-08,0.0,0.0,0.0,0.0,0.0,0.0,0.0,0.0,8389271,0.41867092,0.23985894,0.0063334103,0.02322597,0.011171513,0.016022472,0.0,0.0,0.0,0.004,0,0,0,831,24,0,0,0
659292000,0.9809239,-0.0029912111,0.010524053,0.19408423,0.039590076,-0.013284237,-1.6439109,0.031926896,-0.049915906,-1.9950511,-6.0179227e-06,-4.8755952e-05,8.0665395e-06,-0.002072111,0.0014414171,-0.0012810696,0.2219065,0.009935766,0.42643437,-2.8308397e-05,-0.0001999095,0.0028739558,0.0,0.0,1.0247514e-09,2.4509209e-05,0.0003475727,4.1310384e-05,5.978946e-06,5.8719397e-06,0.0010366639,0.013984542,0.013983703,0.011009806,0.087435216,0.08743503,0.057160076,1.04738215e-11,1.0470536e-11,1.8237117e-11,5.143075e-08,5.1436352e-08,5e-08,0.0,0.0,0.0,0.0,0.0,0.0,0.0,0.0,8389271,0.4181749,0.23908174,0.0051658363,0.024042012,0.011443447,0.010204618,0.0,0.0,0.0,0.004,0,0,0,831,24,0,0,0
659492000,0.98089236,-0.002884912,0.011040774,0.19421658,0.04238005,-0.021520853,-1.6109675,0.031478453,-0.046333797,-2.3265748,-6.047607e-06,-4.8777907e-05,8.065763e-06,-0.0020718246,0.0014411617,-0.0012782271,0.2219065,0.009935766,0.42643437,-2.8308397e-05,-0.0001999095,0.0028739558,0.0,0.0,9.06053e-10,2.4161707e-05,0.00033477583,2.9768478e-05,6.041556e-06,5.955802e-06,0.0007495581,0.013204009,0.0132023245,0.011061864,0.087108575,0.08710839,0.057623904,1.04923206e-11,1.0488995e-11,1.833943e-11,5.1419153e-08,5.1424713e-08,5.000007e-08,0.0,0.0,0.0,0.0,0.0,0.0,0.0,0.0,8389271,0.41739306,0.2400498,0.0055197678,0.021179024,0.011434175,0.0061537945,0.0,0.0,0.0,0.004,0,0,0,831,24,0,0,0
659692000,0.9810535,-0.0030578554,0.01104459,0.19339813,0.042336382,-0.025825404,-1.5830315,0.03043351,-0.042822637,-2.653169,-6.0832663e-06,-4.87997e-05,8.065195e-06,-0.002071315,0.0014405106,-0.0012742114,0.2219065,0.009935766,0.42643437,-2.8308397e-05,-0.0001999095,0.0028739558,0.0,0.0,7.773864e-10,2.4041681e-05,0.0003264762,2.2614317e-05,6.0989832e-06,6.034959e-06,0.000571565,0.012748351,0.01274597,0.011020413,0.086689174,0.08668895,0.057258986,1.05197535e-11,1.0516393e-11,1.844171e-11,5.138582e-08,5.1391346e-08,5.0000036e-08,0.0,0.0,0.0,0.0,0.0,0.0,0.0,0.0,8389271,0.416387,0.2392885,0.008562502,0.024767155,0.010927964,0.0021149083,0.0,0.0,0.0,0.004,0,0,0,831,24,0,0,0
659892000,0.98093975,-0.0030500947,0.011302082,0.1939592,0.043580625,-0.02833666,-1.5650442,0.031726524,-0.039022233,-2.9714394,-6.119226e-06,-4.881068e-05,8.063957e-06,-0.0020709683,0.0014394879,-0.0012714607,0.2219065,0.009935766,0.42643437,-2.8308397e-05,-0.0001999095,0.0028739558,0.0,0.0,7.626727e-10,2.460113e-05,0.00031153395,1.8294751e-05,6.157536e-06,6.103501e-06,0.00046184953,0.012571498,0.012568498,0.010979163,0.08620554,0.08620527,0.056894213,1.0554604e-11,1.05512135e-11,1.8543946e-11,5.1321912e-08,5.132742e-08,5e-08,0.0,0.0,0.0,0.0,0.0,0.0,0.0,0.0,8389271,0.4152238,0.23852508,0.0060450262,0.01993437,0.010367809,0.0014786287,0.0,0.0,0.0,0.004,0,0,0,831,24,0,0,0
660092000,0.9808709,-0.0031034397,0.01159604,0.1942891,0.046485227,-0.032163132,-1.543009,0.030417813,-0.035345856,-3.2885296,-6.158897e-06,-4.8830298e-05,8.0629425e-06,-0.0020701252,0.0014379614,-0.0012681204,0.2219065,0.009935766,0.42643437,-2.8308397e-05,-0.0001999095,0.0028739558,0.0,0.0,7.341656e-10,2.5105492e-05,0.00029474235,1.5673015e-05,6.20773e-06,6.1593764e-06,0.0003945314,0.012625154,0.012621487,0.011032287,0.0856872,0.085686825,0.05735299,1.0595747e-11,1.05923334e-11,1.864615e-11,5.122026e-08,5.122574e-08,5.0000036e-08,0.0,0.0,0.0,0.0,0.0,0.0,0.0,0.0,8389271,0.41397345,0.23948485,0.0064920336,0.026391285,0.0111498665,0.0062476923,0.0,0.0,0.0,0.004,0,0,0,831,24,0,0,0
660292000,0.98084295,-0.0025702564,0.012158656,0.19440322,0.047060993,-0.034291353,-1.5279602,0.03134522,-0.031583875,-3.6030228,-6.1981e-06,-4.8840793e-05,8.062281e-06,-0.0020696265,0.0014360012,-0.0012647592,0.2219065,0.009935766,0.42643437,-2.8308397e-05,-0.0001999095,0.0028739558,0.0,0.0,7.096019e-10,2.512961e-05,0.0002775508,1.3498838e-05,6.245578e-06,6.1984942e-06,0.00033896576,0.012872795,0.012868299,0.010993364,0.08516332,0.08516283,0.056995403,1.0642339e-11,1.0638903e-11,1.8748267e-11,5.1075453e-08,5.1080903e-08,5e-08,0.0,0.0,0.0,0.0,0.0,0.0,0.0,0.0,8389271,0.41270587,0.2387371,0.0017744178,0.026069183,0.010562192,0.0072445814,0.0,0.0,0.0,0.004,0,0,0,831,24,0,0,0
660492000,0.9807962,-0.002813162,0.012353115,0.19462326,0.045862824,-0.033299424,-1.5118146,0.03043021,-0.030140286,-3.9127178,-6.230132e-06,-4.885847e-05,8.060955e-06,-0.0020685697,0.0014341384,-0.0012622749,0.2219065,0.009935766,0.42643437,-2.8308397e-05,-0.0001999095,0.0028739558,0.0,0.0,7.700269e-10,2.501874e-05,0.00028165098,1.2001481e-05,6.264822e-06,6.2221084e-06,0.00030130087,0.013272295,0.013267351,0.011047282,0.0846615,0.08466084,0.057455912,1.0693732e-11,1.06902785e-11,1.885034e-11,5.0884008e-08,5.0889422e-08,5.000007e-08,0.0,0.0,0.0,0.0,0.0,0.0,0.0,0.0,8389271,0.41148797,0.23969963,0.0053865025,0.023159947,0.011508077,0.013235027,0.0,0.0,0.0,0.004,0,0,0,831,24,0,0,0
660692000,0.98075086,-0.0038520345,0.0126581015,0.1948149,0.0460678,-0.030911438,-1.5058848,0.027723636,-0.029658692,-4.223022,-6.258079e-06,-4.888157e-05,8.059198e-06,-0.0020668989,0.0014322933,-0.0012585524,0.2219065,0.009935766,0.42643437,-2.8308397e-05,-0.0001999095,0.0028739558,0.0,0.0,8.6778523e-10,2.5545902e-05,0.00027712563,1.0656508e-05,6.2667855e-06,6.228906e-06,0.0002678471,0.013792267,0.013787206,0.011007644,0.08420639,0.084205486,0.057092313,1.07494265e-11,1.0745957e-11,1.8952286e-11,5.0644505e-08,5.0649867e-08,5e-08,0.0,0.0,0.0,0.0,0.0,0.0,0.0,0.0,8389271,0.41038015,0.23893997,0.009561406,0.02736306,0.013451214,0.010241063,0.0,0.0,0.0,0.004,0,0,0,831,24,0,0,0
660892000,0.9806917,-0.0049161525,0.012934885,0.19507019,0.03973534,-0.030557469,-1.4990898,0.022403138,-0.029593568,-4.532316,-6.286552e-06,-4.8910733e-05,8.0572045e-06,-0.0020643107,0.0014299544,-0.0012541148,0.2219065,0.009935766,0.42643437,-2.8308397e-05,-0.0001999095,0.0028739558,0.0,0.0,8.7985846e-10,2.5334697e-05,0.00027765837,9.697419e-06,6.250997e-06,6.217422e-06,0.00024381177,0.014390838,0.014385103,0.011063563,0.083818756,0.0838176,0.05756292,1.0809009e-11,1.0805527e-11,1.9054192e-11,5.0357638e-08,5.036294e-08,5.000007e-08,0.0,0.0,0.0,0.0,0.0,0.0,0.0,0.0,8389271,0.4094342,0.23992275,0.010714947,0.03709624,0.012890667,0.0074961125,0.0,0.0,0.0,0.004,0,0,0,831,24,0,0,0
661092000,0.98069805,-0.0054302434,0.012491648,0.19505322,0.039922252,-0.03430317,-1.4906594,0.02089815,-0.032380123,-4.84108,-6.3000402e-06,-4.892764e-05,8.056578e-06,-0.0020628632,0.001429097,-0.0012498819,0.2219065,0.009935766,0.42643437,-2.8308397e-05,-0.0001999095,0.0028739558,0.0,0.0,9.241462e-10,2.4950907e-05,0.00027259887,8.8021825e-06,6.2134163e-06,6.186747e-06,0.00022147426,0.015033248,0.015026969,0.01102553,0.0835142,0.08351274,0.057206552,1.0872152e-11,1.0868658e-11,1.9155922e-11,5.0026106e-08,5.003134e-08,5.0000036e-08,0.0,0.0,0.0,0.0,0.0,0.0,0.0,0.0,8389271,0.4086893,0.23917891,0.0035254285,0.015981723,0.013885464,0.0060538896,0.0,0.0,0.0,0.004,0,0,0,831,24,0,0,0
661292000,0.9806901,-0.005517073,0.012045785,0.19511874,0.042702086,-0.03252056,-1.4622667,0.016630094,-0.03302547,-5.1449194,-6.3236967e-06,-4.8947895e-05,8.05459e-06,-0.0020609153,0.0014267105,-0.0012458262,0.2219065,0.009935766,0.42643437,-2.8308397e-05,-0.0001999095,0.0028739558,0.0,0.0,7.2520295e-10,2.2263377e-05,0.00028228195,8.052642e-06,6.1603687e-06,6.1384917e-06,0.00020291301,0.015673654,0.015667474,0.0109870145,0.08330276,0.08330094,0.05685004,1.0938565e-11,1.0935063e-11,1.9257514e-11,5.0000285e-08,5.0000285e-08,5e-08,0.0,0.0,0.0,0.0,0.0,0.0,0.0,0.0,8389271,0.40817118,0.23843247,0.0017081278,0.025362952,0.01575063,0.0045237807,0.0,0.0,0.0,0.004,0,0,0,831,24,0,0,0
661492000,0.98071426,-0.005846033,0.013251141,0.19490987,0.04640629,-0.032304194,-1.3576851,0.013024958,-0.036868688,-5.4333572,-6.3378657e-06,-4.8971386e-05,8.053082e-06,-0.0020582355,0.0014253216,-0.0012418517,0.2219065,0.009935766,0.42643437,-2.8308397e-05,-0.0001999095,0.0028739558,0.0,0.0,7.582332e-10,2.3593755e-05,0.0002964491,7.4693553e-06,6.1030164e-06,6.0773873e-06,0.00018888454,0.016242277,0.016236389,0.011042072,0.0831869,0.083184734,0.057315595,1.1008064e-11,1.1004552e-11,1.9359068e-11,5.0000285e-08,5.0000285e-08,5.0000036e-08,0.0,0.0,0.0,0.0,0.0,0.0,0.0,0.0,8389271,0.4078868,0.23940676,0.01433442,0.02705775,0.015048435,0.0040449603,0.0,0.0,0.0,0.004,0,0,0,831,24,0,0,0
661692000,0.98074883,-0.0061617577,0.013232165,0.19472688,0.04304185,-0.030307304,-1.2718451,0.0088773975,-0.04029918,-5.7033024,-6.3515845e-06,-4.899282e-05,8.052645e-06,-0.0020558068,0.0014239987,-0.0012384072,0.2219065,0.009935766,0.42643437,-2.8308397e-05,-0.0001999095,0.0028739558,0.0,0.0,9.313581e-10,2.3819799e-05,0.00029767805,6.917372e-06,6.028565e-06,6.0054817e-06,0.00017525467,0.016790828,0.016784824,0.0110045355,0.08316354,0.083161026,0.05696556,1.1080381e-11,1.1076863e-11,1.9460373e-11,5.0000285e-08,5.0000285e-08,5e-08,0.0,0.0,0.0,0.0,0.0,0.0,0.0,0.0,8389271,0.40782908,0.2386746,0.0076042255,0.022397256,0.018639497,0.00082111626,0.0,0.0,0.0,0.004,0,0,0,831,24,0,0,0
661900000,0.98081684,-0.006666671,0.012606132,0.19440942,0.049762145,-0.031084985,-1.1752851,0.018582419,-0.046630383,-5.9642386,-6.3516277e-06,-4.8992595e-05,8.0542295e-06,-0.0020558215,0.0014239863,-0.0012357531,0.2219065,0.009935766,0.42643437,-2.8308397e-05,-0.0001999095,0.0028739558,0.0,0.0,9.297823e-10,2.3255874e-05,0.00030669078,6.4422607e-06,6.1482892e-06,6.1307906e-06,0.0001634862,0.019227512,0.019220475,0.0112181045,0.09363646,0.093632095,0.057572752,1.1186869e-11,1.1183351e-11,1.956561e-11,5.0001198e-08,5.0001187e-08,5e-08,0.0,0.0,0.0,0.0,0.0,0.0,0.0,0.0,8389271,0.43274537,0.23994322,0.0020889647,0.022397256,0.018639497,0.012288528,0.0,0.0,0.0,0.004,0,0,0,831,24,0,0,0
662092000,0.9808592,-0.0062556244,0.01220944,0.19423425,0.049465388,-0.030398997,-1.1087719,0.010908274,-0.049741294,-6.1934876,-6.3668904e-06,-4.9018814e-05,8.054006e-06,-0.0020522675,0.0014221731,-0.0012307187,0.2219065,0.009935766,0.42643437,-2.8308397e-05,-0.0001999095,0.0028739558,0.0,0.0,8.0935975e-10,2.3595363e-05,0.00029829764,6.0705056e-06,6.040317e-06,6.0244515e-06,0.00015429917,0.01949681,0.019490233,0.011221405,0.0929388,0.092934296,0.05771284,1.1255704e-11,1.1252178e-11,1.9662608e-11,5.0000722e-08,5.0000722e-08,5e-08,0.0,0.0,0.0,0.0,0.0,0.0,0.0,0.0,8389271,0.43113002,0.24023497,0.012229499,0.031219399,0.018660322,0.009246529,0.0,0.0,0.0,0.004,0,0,0,831,24,0,0,0
662292000,0.9809155,-0.00627242,0.012630016,0.1939227,0.04817837,-0.028733559,-1.0396,0.0027666714,-0.053769983,-6.4276023,-6.3806096e-06,-4.9045004e-05,8.056125e-06,-0.0020483788,0.00142024,-0.0012208814,0.2219065,0.009935766,0.42643437,-2.8308397e-05,-0.0001999095,0.0028739558,0.0,0.0,7.7726253e-10,2.2357397e-05,0.00029818952,5.7419743e-06,5.938369e-06,5.9217496e-06,0.00014610583,0.019797614,0.019791476,0.011268768,0.09278347,0.09277882,0.058179837,1.1331489e-11,1.1327956e-11,1.9763543e-11,5.0000722e-08,5.0000722e-08,5.000007e-08,0.0,0.0,0.0,0.0,0.0,0.0,0.0,0.0,8389271,0.4307694,0.24120496,0.006773179,0.03778433,0.017268673,0.010076861,0.0,0.0,0.0,0.004,0,0,0,831,24,0,0,0
662492000,0.9809213,-0.006043713,0.012358511,0.19391786,0.046851743,-0.026796455,-0.96638536,-0.0045628143,-0.058024827,-6.643667,-6.3921048e-06,-4.9068432e-05,8.056655e-06,-0.002044843,0.0014185935,-0.0012136605,0.2219065,0.009935766,0.42643437,-2.8308397e-05,-0.0001999095,0.0028739558,0.0,0.0,9.807706e-10,2.3109955e-05,0.00029460635,5.422334e-06,5.8343985e-06,5.819198e-06,0.0001378651,0.020028047,0.020022321,0.01121894,0.09271618,0.09271141,0.057801716,1.1409762e-11,1.1406222e-11,1.9864086e-11,5.0000704e-08,5.0000715e-08,5.0000036e-08,0.0,0.0,0.0,0.0,0.0,0.0,0.0,0.0,8389271,0.43061304,0.24041988,0.00550948,0.030392202,0.017827868,0.0049112216,0.0,0.0,0.0,0.004,0,0,0,831,24,0,0,0
662692000,0.9808733,-0.006888532,0.01146305,0.19418767,0.047240086,-0.023987569,-0.8861894,-0.012765438,-0.06628787,-6.8449273,-6.396179e-06,-4.90949e-05,8.052533e-06,-0.0020404612,0.0014181384,-0.0012060124,0.2219065,0.009935766,0.42643437,-2.8308397e-05,-0.0001999095,0.0028739558,0.0,0.0,1.0289649e-09,2.3947978e-05,0.00029887861,5.1360657e-06,5.731393e-06,5.7212405e-06,0.00013052188,0.020182941,0.020177856,0.011169083,0.092719905,0.09271507,0.05742307,1.1490193e-11,1.1486648e-11,1.9964395e-11,5.000069e-08,5.000069e-08,5e-08,0.0,0.0,0.0,0.0,0.0,0.0,0.0,0.0,8389271,0.4306216,0.23963112,0.0010757389,0.03399667,0.01642422,0.013273437,0.0,0.0,0.0,0.004,0,0,0,831,24,0,0,0
662892000,0.9808624,-0.007119808,0.01116138,0.19425227,0.050128933,-0.023714568,-0.8215766,-0.020672666,-0.074630305,-7.02615,-6.3998623e-06,-4.9120612e-05,8.054607e-06,-0.0020360588,0.0014177983,-0.0012006218,0.2219065,0.009935766,0.42643437,-2.8308397e-05,-0.0001999095,0.0028739558,0.0,0.0,1.0565983e-09,2.356567e-05,0.00029288194,4.9153573e-06,5.6354856e-06,5.626989e-06,0.0001246419,0.020286663,0.020282336,0.011216634,0.09278029,0.09277554,0.057883054,1.1572474e-11,1.1568923e-11,2.0064724e-11,5.0000693e-08,5.0000697e-08,5.0000036e-08,0.0,0.0,0.0,0.0,0.0,0.0,0.0,0.0,8389271,0.43076193,0.24058898,0.012240105,0.033953328,0.016982818,0.0026903886,0.0,0.0,0.0,0.004,0,0,0,831,24,0,0,0
663100000,0.9808314,-0.006632332,0.010298733,0.19447294,0.05356689,-0.02412054,-0.7625439,-0.024912927,-0.08445498,-7.2040615,-6.39966e-06,-4.91418e-05,8.051483e-06,-0.002032543,0.0014182025,-0.0011937775,0.2219065,0.009935766,0.42643437,-2.8308397e-05,-0.0001999095,0.0028739558,0.0,0.0,1.2145054e-09,2.302404e-05,0.00027472613,4.68304e-06,5.5497007e-06,5.5429387e-06,0.0001186437,0.020426877,0.020423107,0.01121038,0.09335289,0.09334818,0.05782341,1.1660388e-11,1.1656832e-11,2.0168641e-11,5.000072e-08,5.000071e-08,5.0000036e-08,0.0,0.0,0.0,0.0,0.0,0.0,0.0,0.0,8389271,0.4320892,0.24046499,0.017108701,0.028544068,0.017613199,0.0012603716,0.0,0.0,0.0,0.004,0,0,0,831,24,0,0,0
663292000,0.98084015,-0.0061781197,0.00950471,0.19448419,0.054789174,-0.020059895,-0.71090966,-0.030642822,-0.090914294,-7.35676,-6.404325e-06,-4.9162587e-05,8.050858e-06,-0.0020290194,0.0014174181,-0.0011883655,0.2219065,0.009935766,0.42643437,-2.8308397e-05,-0.0001999095,0.0028739558,0.0,0.0,1.1913809e-09,2.359725e-05,0.00028717535,4.4920903e-06,5.4609727e-06,5.455608e-06,0.00011379876,0.0203202,0.020316932,0.011217407,0.09301614,0.09301167,0.05797137,1.1741371e-11,1.1737814e-11,2.026441e-11,5.0000683e-08,5.0000672e-08,5.000007e-08,0.0,0.0,0.0,0.0,0.0,0.0,0.0,0.0,8389271,0.4313094,0.24077244,0.014325197,0.028826723,0.016741084,0.007580566,0.0,0.0,0.0,0.004,0,0,0,831,24,0,0,0
663492000,0.9808562,-0.0057440707,0.0088778045,0.19444673,0.05490734,-0.015966097,-0.66862214,-0.036795527,-0.10050439,-7.5080285,-6.4048177e-06,-4.9186176e-05,8.05088e-06,-0.0020248431,0.0014173909,-0.001182551,0.2219065,0.009935766,0.42643437,-2.8308397e-05,-0.0001999095,0.0028739558,0.0,0.0,1.1495289e-09,2.402838e-05,0.0002823534,4.2941447e-06,5.386122e-06,5.3817034e-06,0.00010880519,0.020264126,0.020261224,0.011169485,0.09316744,0.09316315,0.057592593,1.1827455e-11,1.1823901e-11,2.0363678e-11,5.0000665e-08,5.0000665e-08,5e-08,0.0,0.0,0.0,0.0,0.0,0.0,0.0,0.0,8389271,0.43166026,0.23998457,0.00011467887,0.033198472,0.015734842,0.0013936658,0.0,0.0,0.0,0.004,0,0,0,831,24,0,0,0
663692000,0.9808694,-0.005620311,0.008428774,0.19440314,0.06343571,-0.011581741,-0.62644815,-0.038300782,-0.104743436,-7.6519346,-6.4089054e-06,-4.9201655e-05,8.049199e-06,-0.0020223204,0.0014165567,-0.0011755863,0.2219065,0.009935766,0.42643437,-2.8308397e-05,-0.0001999095,0.0028739558,0.0,0.0,1.01026e-09,2.4873894e-05,0.00027881155,4.130504e-06,5.320368e-06,5.3167473e-06,0.00010475294,0.020159325,0.020157196,0.011220233,0.09332675,0.09332271,0.05806214,1.19143e-11,1.1910746e-11,2.046303e-11,5.0000672e-08,5.0000654e-08,5.000007e-08,0.0,0.0,0.0,0.0,0.0,0.0,0.0,0.0,8389271,0.43202946,0.24096087,0.011757848,0.023149615,0.0145604415,0.0051263673,0.0,0.0,0.0,0.004,0,0,0,831,24,0,0,0
663892000,0.9808865,-0.0050265873,0.008904245,0.19431221,0.068016775,-0.0080008125,-0.5861577,-0.040281937,-0.11269271,-7.786623,-6.4080464e-06,-4.922147e-05,8.048695e-06,-0.0020190235,0.0014167384,-0.001169471,0.2219065,0.009935766,0.42643437,-2.8308397e-05,-0.0001999095,0.0028739558,0.0,0.0,7.8411877e-10,2.4215338e-05,0.00029192024,3.96058e-06,5.265371e-06,5.2603064e-06,0.00010053642,0.020015892,0.020014184,0.011174556,0.09348556,0.09348182,0.05769027,1.2001685e-11,1.1998132e-11,2.056169e-11,5.0000672e-08,5.0000647e-08,5.0000036e-08,0.0,0.0,0.0,0.0,0.0,0.0,0.0,0.0,8389271,0.43239725,0.24018799,0.0051878816,0.025252279,0.016449705,0.0044598514,0.0,0.0,0.0,0.004,0,0,0,831,24,0,0,0
664092000,0.98089075,-0.0049438104,0.009180998,0.19427963,0.06946499,-0.0061633266,-0.54757816,-0.041993245,-0.11917905,-7.9105372,-6.408517e-06,-4.924119e-05,8.049319e-06,-0.002015814,0.0014166322,-0.0011636615,0.2219065,0.009935766,0.42643437,-2.8308397e-05,-0.0001999095,0.0028739558,0.0,0.0,9.1832675e-10,2.3963876e-05,0.00030122828,3.808069e-06,5.219145e-06,5.2136024e-06,9.6656826e-05,0.01984027,0.019838767,0.011128778,0.093636945,0.09363347,0.057317987,1.20893885e-11,1.2085834e-11,2.0659996e-11,5.000065e-08,5.000059e-08,5e-08,0.0,0.0,0.0,0.0,0.0,0.0,0.0,0.0,8389271,0.4327475,0.23941176,0.0105802715,0.026811952,0.016094282,0.0135947745,0.0,0.0,0.0,0.004,0,0,0,831,24,0,0,0
664292000,0.98090464,-0.004431308,0.008450553,0.19425529,0.067882724,-0.00452599,-0.5134096,-0.042693794,-0.12680247,-8.030238,-6.4062033e-06,-4.9259947e-05,8.050136e-06,-0.0020128703,0.0014169994,-0.0011574042,0.2219065,0.009935766,0.42643437,-2.8308397e-05,-0.0001999095,0.0028739558,0.0,0.0,9.321169e-10,2.3208457e-05,0.00029807558,3.6835702e-06,5.1804036e-06,5.175845e-06,9.348327e-05,0.019640157,0.019638592,0.011179653,0.09377545,0.09377223,0.05778146,1.2177192e-11,1.2173635e-11,2.075845e-11,5.0000647e-08,5.00006e-08,5.0000036e-08,0.0,0.0,0.0,0.0,0.0,0.0,0.0,0.0,8389271,0.43306777,0.24037775,0.0046947384,0.02287562,0.015771283,0.004747627,0.0,0.0,0.0,0.004,0,0,0,831,24,0,0,0
664492000,0.98094374,-0.004219854,0.007828019,0.19408873,0.064404115,-0.0010606968,-0.48336616,-0.04386144,-0.13373819,-8.143998,-6.404711e-06,-4.9279515e-05,8.052139e-06,-0.0020098933,0.0014171234,-0.0011502976,0.2219065,0.009935766,0.42643437,-2.8308397e-05,-0.0001999095,0.0028739558,0.0,0.0,9.686328e-10,2.3332399e-05,0.00029482998,3.5486805e-06,5.1509614e-06,5.147381e-06,9.015226e-05,0.0194216,0.019419884,0.011135925,0.09389738,0.093894385,0.05741599,1.22648836e-11,1.2261323e-11,2.0856053e-11,5.0000633e-08,5.0000576e-08,5e-08,0.0,0.0,0.0,0.0,0.0,0.0,0.0,0.0,8389271,0.43334946,0.23961633,0.01577165,0.027001528,0.013503941,0.006062582,0.0,0.0,0.0,0.004,0,0,0,831,24,0,0,0
664692000,0.9809292,-0.003912825,0.0073112026,0.19418867,0.064739965,0.0032754187,-0.45108703,-0.04605116,-0.14100632,-8.2510805,-6.4028063e-06,-4.930107e-05,8.053325e-06,-0.0020067592,0.0014172894,-0.001144082,0.2219065,0.009935766,0.42643437,-2.8308397e-05,-0.0001999095,0.0028739558,0.0,0.0,1.0265978e-09,2.4467603e-05,0.00029751429,3.4459374e-06,5.1305783e-06,5.1276584e-06,8.740756e-05,0.019186215,0.019184535,0.011187349,0.09399933,0.093996555,0.057880227,1.235225e-11,1.2348685e-11,2.0953846e-11,5.0000647e-08,5.000059e-08,5.000007e-08,0.0,0.0,0.0,0.0,0.0,0.0,0.0,0.0,8389271,0.43358493,0.24058309,0.0041827313,0.029376384,0.013261984,0.019545479,0.0,0.0,0.0,0.004,0,0,0,831,24,0,0,0
664892000,0.9809221,-0.0033714334,0.007079507,0.19424328,0.06609842,0.002220293,-0.42360592,-0.04676946,-0.14966711,-8.355825,-6.3972857e-06,-4.932235e-05,8.050406e-06,-0.0020038616,0.0014179095,-0.0011362684,0.2219065,0.009935766,0.42643437,-2.8308397e-05,-0.0001999095,0.0028739558,0.0,0.0,1.0872871e-09,2.422359e-05,0.00030173588,3.331759e-06,5.1191087e-06,5.116294e-06,8.4512e-05,0.018943,0.018941509,0.0111428695,0.094079524,0.09407697,0.057508055,1.2439082e-11,1.243551e-11,2.1050679e-11,5.0000647e-08,5.000058e-08,5e-08,0.0,0.0,0.0,0.0,0.0,0.0,0.0,0.0,8389271,0.4337701,0.23980837,0.010330886,0.025838142,0.012847649,0.014030729,0.0,0.0,0.0,0.004,0,0,0,831,24,0,0,0
665092000,0.98092806,-0.0028765516,0.0064797406,0.19424225,0.066744655,0.008078788,-0.39349723,-0.04366184,-0.15343902,-8.449769,-6.395318e-06,-4.9335624e-05,8.048476e-06,-0.0020021969,0.0014180403,-0.0011301751,0.2219065,0.009935766,0.42643437,-2.8308397e-05,-0.0001999095,0.0028739558,0.0,0.0,1.0279972e-09,2.3990198e-05,0.0002894225,3.2365833e-06,5.1153047e-06,5.113082e-06,8.212756e-05,0.018693546,0.018691963,0.011196374,0.09413711,0.09413474,0.05798175,1.2525162e-11,1.2521584e-11,2.1147768e-11,5.0000647e-08,5.0000573e-08,5.000007e-08,0.0,0.0,0.0,0.0,0.0,0.0,0.0,0.0,8389271,0.43390304,0.240794,0.00048954634,0.024083668,0.012709762,0.0042295987,0.0,0.0,0.0,0.004,0,0,0,831,24,0,0,0
665292000,0.9809463,-0.0028035739,0.0060514645,0.19416489,0.06761013,0.012782596,-0.36084256,-0.03982064,-0.15712065,-8.535579,-6.392228e-06,-4.9349495e-05,8.051846e-06,-0.002000553,0.0014183114,-0.0011248094,0.2219065,0.009935766,0.42643437,-2.8308397e-05,-0.0001999095,0.0028739558,0.0,0.0,9.1494046e-10,2.4635134e-05,0.00029637423,3.1368497e-06,5.1193715e-06,5.1176935e-06,7.959223e-05,0.018441381,0.018439734,0.011153676,0.09417155,0.09416933,0.057616327,1.2610281e-11,1.2606695e-11,2.1243767e-11,5.0000647e-08,5.0000573e-08,5.0000036e-08,0.0,0.0,0.0,0.0,0.0,0.0,0.0,0.0,8389271,0.43398258,0.24003401,0.004539658,0.024320705,0.011184142,0.0048234714,0.0,0.0,0.0,0.004,0,0,0,831,24,0,0,0
665492000,0.9809422,-0.0024245912,0.006128089,0.19418815,0.06747985,0.017453501,-0.34206855,-0.03384229,-0.158415,-8.625234,-6.3901953e-06,-4.93584e-05,8.054476e-06,-0.001999589,0.0014183633,-0.0011154852,0.2219065,0.009935766,0.42643437,-2.8308397e-05,-0.0001999095,0.0028739558,0.0,0.0,7.9941403e-10,2.4526067e-05,0.00029369764,3.0460758e-06,5.1312268e-06,5.1293655e-06,7.721906e-05,0.018198699,0.018196935,0.011110658,0.09418355,0.09418149,0.05725029,1.2694221e-11,1.2690626e-11,2.1339291e-11,5.0000633e-08,5.0000548e-08,5e-08,0.0,0.0,0.0,0.0,0.0,0.0,0.0,0.0,8389271,0.43401042,0.23927033,0.011053629,0.030346325,0.011922532,0.014397799,0.0,0.0,0.0,0.004,0,0,0,831,24,0,0,0
665692000,0.9809365,-0.00219942,0.006456282,0.19420882,0.06647868,0.018272592,-0.3189412,-0.032313105,-0.16192546,-8.704448,-6.3864163e-06,-4.937879e-05,8.053813e-06,-0.001997515,0.0014186354,-0.0011095363,0.2219065,0.009935766,0.42643437,-2.8308397e-05,-0.0001999095,0.0028739558,0.0,0.0,6.627974e-10,2.3325829e-05,0.0002833341,2.9694304e-06,5.149853e-06,5.147613e-06,7.5258715e-05,0.017959263,0.017957533,0.011163689,0.09417394,0.094172,0.057717957,1.2776724e-11,1.2773119e-11,2.1435168e-11,5.0000647e-08,5.0000573e-08,5.0000036e-08,0.0,0.0,0.0,0.0,0.0,0.0,0.0,0.0,8389271,0.43398842,0.24024561,0.008911489,0.022492178,0.010942898,0.01608207,0.0,0.0,0.0,0.004,0,0,0,831,24,0,0,0
665892000,0.9809188,-0.002505097,0.0066732955,0.19428727,0.06734145,0.021314131,-0.2943812,-0.023760723,-0.16248593,-8.779167,-6.380776e-06,-4.9383387e-05,8.0503605e-06,-0.0019970285,0.0014190346,-0.0011034888,0.2219065,0.009935766,0.42643437,-2.8308397e-05,-0.0001999095,0.0028739558,0.0,0.0,6.854162e-10,2.3513858e-05,0.00028422952,2.8875716e-06,5.1744178e-06,5.172092e-06,7.316008e-05,0.01772613,0.017724331,0.0111221885,0.09414348,0.09414167,0.057358366,1.2857568e-11,1.2853954e-11,2.152976e-11,5.0000644e-08,5.0000548e-08,5e-08,0.0,0.0,0.0,0.0,0.0,0.0,0.0,0.0,8389271,0.43391836,0.23949607,0.011492899,0.01435253,0.011224967,0.011134509,0.0,0.0,0.0,0.004,0,0,0,831,24,0,0,0
666092000,0.98090404,-0.001633843,0.0069051576,0.1943626,0.060950145,0.017212536,-0.2683774,-0.018819813,-0.16345417,-8.846341,-6.3779885e-06,-4.9395883e-05,8.052104e-06,-0.0019959114,0.00141919,-0.0010989401,0.2219065,0.009935766,0.42643437,-2.8308397e-05,-0.0001999095,0.0028739558,0.0,0.0,8.80699e-10,2.444036e-05,0.00028578218,2.822329e-06,5.2046175e-06,5.2018263e-06,7.142083e-05,0.017502034,0.017500352,0.011175348,0.094094135,0.09409242,0.05782668,1.2936525e-11,1.2932898e-11,2.1624771e-11,5.0000672e-08,5.0000573e-08,5.000007e-08,0.0,0.0,0.0,0.0,0.0,0.0,0.0,0.0,8389271,0.43380475,0.24047178,0.004331674,0.010508814,0.010739067,0.007732196,0.0,0.0,0.0,0.004,0,0,0,831,24,0,0,0
666292000,0.9809121,-0.0014573757,0.0066084033,0.19433387,0.061534543,0.019313782,-0.25419647,-0.012277202,-0.16397694,-8.913641,-6.3737043e-06,-4.9404036e-05,8.051353e-06,-0.0019952238,0.0014193913,-0.001091541,0.2219065,0.009935766,0.42643437,-2.8308397e-05,-0.0001999095,0.0028739558,0.0,0.0,7.1466294e-10,2.3857428e-05,0.00028547682,2.7476665e-06,5.239267e-06,5.2368628e-06,6.955545e-05,0.017295856,0.017294222,0.011132602,0.09402802,0.0940264,0.05745993,1.3013359e-11,1.3009721e-11,2.1718348e-11,5.0000672e-08,5.0000573e-08,5e-08,0.0,0.0,0.0,0.0,0.0,0.0,0.0,0.0,8389271,0.4336524,0.239708,0.0006207608,0.027755631,0.009522519,0.009743706,0.0,0.0,0.0,0.004,0,0,0,831,24,0,0,0
666492000,0.9809114,-0.0011903585,0.00719919,0.19431849,0.05725506,0.020848641,-0.23801827,-0.0069127404,-0.16202995,-8.972802,-6.3756365e-06,-4.941335e-05,8.05083e-06,-0.0019944988,0.0014191995,-0.0010866806,0.2219065,0.009935766,0.42643437,-2.8308397e-05,-0.0001999095,0.0028739558,0.0,0.0,6.7613093e-10,2.2855083e-05,0.0002763154,2.6862897e-06,5.2793293e-06,5.27627e-06,6.800927e-05,0.017101582,0.017100016,0.01118741,0.09394662,0.09394501,0.057937417,1.3087786e-11,1.3084136e-11,2.181244e-11,5.0000672e-08,5.0000573e-08,5.000007e-08,0.0,0.0,0.0,0.0,0.0,0.0,0.0,0.0,8389271,0.43346468,0.24070193,0.0033732415,0.017733159,0.008655702,0.0031267693,0.0,0.0,0.0,0.004,0,0,0,831,24,0,0,0
666692000,0.9808998,-0.0013535868,0.007278722,0.19437253,0.05139778,0.022539437,-0.22095469,-0.002566632,-0.16244268,-9.028858,-6.371466e-06,-4.942675e-05,8.047156e-06,-0.0019935921,0.001419402,-0.0010819386,0.2219065,0.009935766,0.42643437,-2.8308397e-05,-0.0001999095,0.0028739558,0.0,0.0,7.202912e-10,2.283303e-05,0.00028060417,2.6207163e-06,5.3227704e-06,5.319761e-06,6.633887e-05,0.016919943,0.016918426,0.011146022,0.09385202,0.09385042,0.057576843,1.315958e-11,1.3155918e-11,2.190495e-11,5.0000686e-08,5.0000573e-08,5.0000036e-08,0.0,0.0,0.0,0.0,0.0,0.0,0.0,0.0,8389271,0.4332464,0.23995174,0.00057933864,0.012064342,0.0075254417,0.0147734685,0.0,0.0,0.0,0.004,0,0,0,831,24,0,0,0
666892000,0.98094565,-0.0010177154,0.0070450217,0.19415231,0.04998959,0.019487573,-0.20624553,0.0009692035,-0.1621217,-9.086323,-6.370794e-06,-4.9440278e-05,8.0587815e-06,-0.001992792,0.0014193833,-0.0010758556,0.2219065,0.009935766,0.42643437,-2.8308397e-05,-0.0001999095,0.0028739558,0.0,0.0,7.671675e-10,2.4088078e-05,0.0002767451,2.5568309e-06,5.36934e-06,5.3666545e-06,6.476324e-05,0.016752597,0.016751302,0.011104056,0.09374627,0.09374468,0.057215277,1.3228485e-11,1.322481e-11,2.1996857e-11,5.000069e-08,5.0000576e-08,5e-08,0.0,0.0,0.0,0.0,0.0,0.0,0.0,0.0,8389271,0.43300223,0.23919715,0.021700693,0.012109541,0.0061952714,0.009937919,0.0,0.0,0.0,0.004,0,0,0,831,24,0,0,0
667092000,0.9809493,-0.000790343,0.0075409166,0.19411644,0.048189677,0.019492427,-0.19333881,0.005772626,-0.16134615,-9.136572,-6.368743e-06,-4.9451195e-05,8.061436e-06,-0.0019921984,0.001419441,-0.0010713108,0.2219065,0.009935766,0.42643437,-2.8308397e-05,-0.0001999095,0.0028739558,0.0,0.0,7.163183e-10,2.4619378e-05,0.00028246123,2.5054287e-06,5.4054353e-06,5.402242e-06,6.345614e-05,0.016452193,0.01645106,0.011145501,0.0930064,0.093004905,0.05766567,1.3288735e-11,1.3285046e-11,2.2089405e-11,5.0000263e-08,5.000022e-08,5.0000036e-08,0.0,0.0,0.0,0.0,0.0,0.0,0.0,0.0,8389271,0.4312903,0.24013677,0.008277473,0.008803775,0.0057097767,0.005187017,0.0,0.0,0.0,0.004,0,0,0,831,24,0,0,0
667292000,0.98105997,-0.0011852272,0.007990837,0.1935357,0.04183393,0.019151973,-0.19547069,0.010003632,-0.15502383,-9.188323,-6.3817033e-06,-4.9454553e-05,8.057751e-06,-0.0019919649,0.001418817,-0.0010645951,0.2219065,0.009935766,0.42643437,-2.8308397e-05,-0.0001999095,0.0028739558,0.0,0.0,8.811851e-09,3.7804493e-05,0.0002917621,2.434079e-06,5.446514e-06,5.442994e-06,6.205012e-05,0.016199943,0.016199028,0.011093117,0.09232756,0.09232614,0.057289656,1.3346125e-11,1.3342425e-11,2.2180131e-11,5.0000263e-08,5.000022e-08,5e-08,0.0,0.0,0.0,0.0,0.0,0.0,0.0,0.0,8389271,0.42971352,0.23935258,0.01658231,0.022645166,0.006553198,0.018893987,0.0,0.0,0.0,0.004,0,0,0,831,24,0,0,0
667492000,0.98285097,-0.023387086,0.034282383,0.17967138,0.016243465,-0.014449078,-0.2126446,0.014766963,-0.15414642,-9.23819,-6.3711013e-06,-4.944681e-05,8.049244e-06,-0.001990998,0.0014179107,-0.0010609473,0.22191738,0.009929559,0.4263703,-2.0846988e-05,-0.00021244018,0.0028097462,0.0,0.0,4.3991612e-08,4.3747696e-05,0.00027508146,2.0483617e-06,5.508211e-06,5.4727825e-06,6.0609233e-05,0.015955415,0.01596231,0.011135007,0.091658294,0.09166793,0.057739247,1.3382206e-11,1.3375614e-11,2.2267918e-11,5.000007e-08,5.000007e-08,5.000007e-08,5.506353e-06,2.9829228e-06,1.4090041e-05,5.6386843e-06,4.8356596e-06,1.4072416e-05,0.0,0.0,8389351,0.4281661,0.24028993,0.028471295,0.0119775385,0.0050977133,0.008892728,0.0,0.0,0.0,0.004,0,0,0,831,24,0,0,0
667692000,0.9797071,-0.09141094,0.10838912,0.14166829,-0.15948802,-0.23011947,-0.22404489,0.012587061,-0.16325723,-9.290895,-6.364502e-06,-4.9359365e-05,8.035711e-06,-0.0019891479,0.0014142018,-0.0010573406,0.22196795,0.009913818,0.4261746,3.1135944e-05,-0.0002450782,0.0026253406,0.0,0.0,9.426726e-08,4.892307e-05,0.0002871227,1.3193135e-06,5.920669e-06,5.8190235e-06,5.8274236e-05,0.015710542,0.015721085,0.01107049,0.09099479,0.09102741,0.057354916,1.3396606e-11,1.3383272e-11,2.2350686e-11,5e-08,5e-08,5e-08,5.4073585e-06,2.9505836e-06,1.3473068e-05,5.53406e-06,4.7622466e-06,1.3454408e-05,0.0,0.0,8389351,0.4266406,0.23948887,0.036655385,0.041431975,0.0046583926,0.008386485,0.0,0.0,0.0,0.004,0,0,0,831,24,0,0,0
667892000,0.9734823,-0.14824492,0.15146075,0.08611332,-0.5011883,-0.65562165,-0.18234187,-0.038039926,-0.23081748,-9.338744,-6.3783827e-06,-4.9281112e-05,8.010792e-06,-0.0019915234,0.0014100277,-0.0010545132,0.2219616,0.009884268,0.42605415,3.0294032e-05,-0.00027897416,0.0024724386,0.0,0.0,9.519325e-08,4.4637593e-05,0.00028443377,6.640918e-07,6.276884e-06,6.446108e-06,5.6222732e-05,0.015542936,0.015506902,0.01107309,0.09039994,0.09044925,0.057805784,1.3416395e-11,1.3396366e-11,2.2436986e-11,5.000007e-08,5.000007e-08,5.000007e-08,5.327746e-06,2.9255882e-06,1.3009095e-05,5.4500433e-06,4.7055128e-06,1.2988836e-05,0.0,0.0,8389351,0.42526367,0.24042833,0.041598447,0.06797605,0.0020932097,0.002945028,0.0,0.0,0.0,0.004,0,0,0,831,24,0,0,0
668092000,0.9725095,-0.17588153,0.15145342,0.018785145,-0.8601497,-1.1216743,-0.15234905,-0.15653348,-0.38406828,-9.37658,-6.41067e-06,-4.9160215e-05,7.995016e-06,-0.0019926983,0.0014056946,-0.0010531255,0.22197615,0.009864371,0.4259149,6.262955e-05,-0.00029266,0.0023310625,0.0,0.0,8.01579e-08,3.7231315e-05,0.00029340334,3.108495e-07,6.0847274e-06,6.8056556e-06,5.4667136e-05,0.015484846,0.015352929,0.010969057,0.08984652,0.08990745,0.05741007,1.3433468e-11,1.3404654e-11,2.2522668e-11,5.0000036e-08,5.0000036e-08,5.0000036e-08,5.2460514e-06,2.9004746e-06,1.2558482e-05,5.363752e-06,4.649218e-06,1.2537934e-05,0.0,0.0,8389351,0.42397404,0.23960398,0.030783787,0.08338993,0.005120391,0.004202467,0.0,0.0,0.0,0.004,0,0,0,831,24,0,0,0
668292000,0.9676386,-0.19856375,0.14504433,-0.05665892,-1.1709896,-1.5434062,-0.13608837,-0.34782654,-0.63366896,-9.408159,-6.4400106e-06,-4.907409e-05,7.98746e-06,-0.0019930229,0.001402815,-0.0010527767,0.22198236,0.00985345,0.4258037,8.475722e-05,-0.00029175868,0.0022228227,0.0,0.0,7.253267e-08,3.1391675e-05,0.00030439257,5.47508e-07,5.839018e-06,7.091314e-06,5.2853087e-05,0.015487604,0.015244033,0.010866209,0.08934176,0.089404136,0.05700235,1.3451221e-11,1.3412068e-11,2.2609511e-11,5e-08,5e-08,5e-08,5.1715997e-06,2.878032e-06,1.2168456e-05,5.284283e-06,4.5989877e-06,1.2149392e-05,0.0,0.0,8389351,0.42278352,0.23875165,0.008407302,0.05846763,0.0044116373,0.0033389884,0.0,0.0,0.0,0.004,0,0,0,831,24,0,0,0
668492000,0.95475894,-0.22413588,0.14013644,-0.13623601,-1.4533547,-1.9371986,-0.12720847,-0.5985285,-0.9677243,-9.441198,-6.4557325e-06,-4.8999904e-05,7.975014e-06,-0.0019934338,0.0013999394,-0.0010514919,0.22198804,0.009838511,0.42574012,0.00010437129,-0.00029789467,0.002148721,0.0,0.0,7.172712e-08,2.9190505e-05,0.00029490053,1.5054035e-06,5.642904e-06,7.435901e-06,5.0530416e-05,0.015532532,0.015180245,0.010855874,0.08888996,0.088941455,0.057409205,1.3472011e-11,1.3421858e-11,2.2698806e-11,5.0000036e-08,5.0000036e-08,5.0000036e-08,5.1106417e-06,2.8599757e-06,1.1861823e-05,5.2180317e-06,4.5576876e-06,1.1845399e-05,0.0,0.0,8389351,0.42170063,0.23960218,0.033469204,0.04656799,0.005202549,0.0073656775,0.0,0.0,0.0,0.004,0,0,0,831,24,0,0,0
668692000,0.9353921,-0.24678773,0.12802203,-0.21851283,-1.7219807,-2.2882948,-0.113606706,-0.9068418,-1.3720319,-9.473129,-6.4958813e-06,-4.890376e-05,7.973192e-06,-0.001991683,0.001396572,-0.0010492994,0.22201602,0.009829393,0.42565987,0.00013712798,-0.00028299115,0.0020963931,0.0,0.0,7.2526994e-08,2.8008586e-05,0.00031601233,3.1882278e-06,5.388821e-06,7.699042e-06,4.7561633e-05,0.015573806,0.0151403025,0.010755224,0.08847453,0.08850666,0.056986842,1.3489874e-11,1.34259e-11,2.2787385e-11,5e-08,5e-08,5e-08,5.0466824e-06,2.841029e-06,1.1552761e-05,5.1473853e-06,4.513434e-06,1.1541124e-05,0.0,0.0,8389351,0.4206913,0.23871917,0.015290152,0.06069569,0.00562344,0.018682618,0.0,0.0,0.0,0.004,0,0,0,831,24,0,0,0
668892000,0.90794283,-0.26881683,0.11059898,-0.30190262,-1.9698182,-2.616231,-0.10730774,-1.2689,-1.8458393,-9.503606,-6.540579e-06,-4.881905e-05,7.974929e-06,-0.0019895001,0.0013936425,-0.0010465824,0.22204548,0.009823358,0.42562705,0.00016096726,-0.00026621486,0.0020928306,0.0,0.0,7.302099e-08,2.718488e-05,0.00030874743,5.598143e-06,5.140581e-06,7.945864e-06,4.411079e-05,0.01563894,0.015149635,0.010749702,0.08810503,0.08810776,0.057372298,1.3509824e-11,1.3431543e-11,2.2878067e-11,5.000007e-08,5.000007e-08,5.000007e-08,4.9932523e-06,2.8253478e-06,1.1304419e-05,5.086876e-06,4.474428e-06,1.129851e-05,0.0,0.0,8389351,0.41977707,0.23952515,0.013356972,0.054446716,0.00540793,0.012862458,0.0,0.0,0.0,0.004,0,0,0,831,24,0,0,0
669092000,0.87208956,-0.28666478,0.092452005,-0.3856628,-2.2025864,-2.914257,-0.086597644,-1.6771108,-2.378702,-9.531117,-6.5980607e-06,-4.8733484e-05,7.970878e-06,-0.001987469,0.0013904455,-0.0010456047,0.22204375,0.00981167,0.425552,0.00016484008,-0.00025624214,0.0020145203,0.0,0.0,8.148357e-08,2.8326007e-05,0.00032512052,8.682202e-06,4.9270507e-06,8.048834e-06,4.0029037e-05,0.015694937,0.015184071,0.010658973,0.087765574,0.08773369,0.056927875,1.3527025e-11,1.3431823e-11,2.2968091e-11,5e-08,5e-08,5e-08,4.9359646e-06,2.8084685e-06,1.10490155e-05,5.020651e-06,4.4297867e-06,1.1051656e-05,0.0,0.0,8389351,0.41892633,0.23859563,0.010314718,0.066736735,0.007913909,0.008589948,0.0,0.0,0.0,0.004,0,0,0,831,24,0,0,0
669292000,0.83163947,-0.29165003,0.07034959,-0.4672978,-2.4190311,-3.1410706,-0.062043704,-2.136193,-2.9669042,-9.554674,-6.661908e-06,-4.866782e-05,7.9687015e-06,-0.0019845203,0.00138783,-0.0010439316,0.22204605,0.009799798,0.42550978,0.00016863822,-0.00025172267,0.0019659533,0.0,0.0,8.5077964e-08,2.8038876e-05,0.0003142827,1.2263887e-05,4.7793174e-06,7.850621e-06,3.5871264e-05,0.015732827,0.015270228,0.010670859,0.087463744,0.08739293,0.057306472,1.3545769e-11,1.3433982e-11,2.3059998e-11,5.000007e-08,5.000007e-08,5.000007e-08,4.886908e-06,2.7941048e-06,1.084106e-05,4.9625155e-06,4.3883456e-06,1.0851924e-05,0.0,0.0,8389351,0.41815868,0.2393877,0.031326152,0.06392635,0.0047686505,0.009308311,0.0,0.0,0.0,0.004,0,0,0,831,24,0,0,0
669492000,0.79021966,-0.28046405,0.038394153,-0.5435244,-2.5568852,-3.2756536,-0.029231034,-2.6326988,-3.592623,-9.566383,-6.7250176e-06,-4.859455e-05,7.970184e-06,-0.0019798165,0.0013854771,-0.0010444765,0.22206661,0.009787848,0.42545244,0.00017169547,-0.00022932178,0.0019240524,0.0,0.0,8.6451124e-08,2.8835444e-05,0.0002920139,1.6024045e-05,4.7115504e-06,7.2950584e-06,3.176837e-05,0.015728403,0.015370274,0.010604799,0.08718259,0.08707569,0.056862976,1.3562111e-11,1.3432238e-11,2.31512e-11,5.0000036e-08,5.0000036e-08,5.0000036e-08,4.8328334e-06,2.778364e-06,1.0627481e-05,4.8977513e-06,4.3395557e-06,1.0648378e-05,0.0,0.0,8389351,0.41744253,0.23845959,0.025510365,0.06189188,0.00354924,0.0074510244,0.0,0.0,0.0,0.004,0,0,0,831,24,0,0,0
669692000,0.7490461,-0.25124073,0.01268299,-0.61290073,-2.5747712,-3.2965593,-0.023440877,-3.1457,-4.233094,-9.574527,-6.794921e-06,-4.852792e-05,7.964468e-06,-0.001974606,0.0013834668,-0.0010452088,0.22207837,0.009770478,0.42540765,0.00018047771,-0.00021580535,0.0018686074,0.0,0.0,9.6963554e-08,3.3099688e-05,0.00029655785,1.9723371e-05,4.7386247e-06,6.4790847e-06,2.7977014e-05,0.015718963,0.015516458,0.010549718,0.08692353,0.0867884,0.05642416,1.3577492e-11,1.3430516e-11,2.3242516e-11,5e-08,5e-08,5e-08,4.7789767e-06,2.7630904e-06,1.0435585e-05,4.83341e-06,4.2882466e-06,1.046592e-05,0.0,0.0,8389351,0.41678762,0.2375377,0.023089616,0.06682365,0.004246386,0.0041452553,0.0,0.0,0.0,0.004,0,0,0,831,24,0,0,0
669892000,0.700761,-0.23876165,-0.0012382875,-0.67225397,-2.533336,-3.2211065,-0.067734934,-3.6544125,-4.867239,-9.59516,-6.8703694e-06,-4.846663e-05,7.956618e-06,-0.0019692446,0.001381916,-0.0010425722,0.2220816,0.009757571,0.42540509,0.00018517261,-0.00021489405,0.0018476916,0.0,0.0,9.5311606e-08,3.285998e-05,0.0002954334,2.3278053e-05,4.696511e-06,6.045933e-06,2.4185527e-05,0.015768072,0.015765812,0.0105947545,0.08668963,0.08654011,0.05680183,1.3592049e-11,1.3431676e-11,2.3334496e-11,5.0000036e-08,5.0000036e-08,5.0000036e-08,4.7309513e-06,2.7498875e-06,1.0281068e-05,4.7765534e-06,4.2406386e-06,1.0317935e-05,0.0,0.0,8389351,0.41620877,0.23833135,0.014443421,0.06446905,0.0038593463,0.0070662554,0.0,0.0,0.0,0.004,0,0,0,831,24,0,0,0
670092000,0.64405537,-0.2540511,-0.025438609,-0.72111285,-2.5253663,-3.1842966,-0.06317758,-4.154875,-5.4820037,-9.617373,-6.9662005e-06,-4.837355e-05,7.933721e-06,-0.0019607618,0.00137957,-0.0010424454,0.2220794,0.009730814,0.42539808,0.00020525807,-0.00020372334,0.0017958288,0.0,0.0,8.827809e-08,3.1639698e-05,0.00028661935,2.6595748e-05,4.629188e-06,6.013619e-06,2.0218178e-05,0.015885612,0.016048973,0.010557723,0.08646871,0.0863246,0.056386646,1.3603982e-11,1.3431818e-11,2.3424162e-11,5e-08,5e-08,5e-08,4.6775913e-06,2.7354095e-06,1.0118361e-05,4.7131734e-06,4.1853837e-06,1.0164538e-05,0.0,0.0,8389351,0.41568416,0.23745872,0.028350579,0.09078468,0.007413339,0.011811609,0.0,0.0,0.0,0.004,0,0,0,831,24,0,0,0
670292000,0.5883478,-0.25210562,-0.04911873,-0.7667314,-2.5447724,-3.2162063,-0.04471633,-4.6557574,-6.090285,-9.634405,-7.1027553e-06,-4.8261583e-05,7.920391e-06,-0.0019486523,0.0013789692,-0.001043201,0.22207986,0.009715803,0.4253812,0.00018757551,-0.0002116563,0.0017581341,0.0,0.0,7.9493056e-08,3.0001922e-05,0.00028434236,2.9770603e-05,4.6208e-06,5.7476423e-06,1.66925e-05,0.016097141,0.016380854,0.010605621,0.086274356,0.08615073,0.05677898,1.3616229e-11,1.343636e-11,2.3513679e-11,5.000007e-08,5.000007e-08,5.000007e-08,4.6302266e-06,2.7228775e-06,9.980691e-06,4.656401e-06,4.1344892e-06,1.0038031e-05,0.0,0.0,8389351,0.415241,0.2382834,0.009561271,0.11023631,0.007261185,0.014220959,0.0,0.0,0.0,0.004,0,0,0,831,24,0,0,0
670492000,0.5327764,-0.24067429,-0.06349762,-0.80882215,-2.555973,-3.2311635,-0.04978716,-5.154986,-6.702276,-9.651106,-7.2364865e-06,-4.8129183e-05,7.88768e-06,-0.0019346087,0.0013771057,-0.0010439546,0.2220625,0.009687527,0.4253939,0.00019873714,-0.00020729797,0.0017065441,0.0,0.0,7.0576434e-08,2.8221642e-05,0.00028388784,3.2684642e-05,4.568354e-06,5.366381e-06,1.35215805e-05,0.016351195,0.01675575,0.010567852,0.08610016,0.086010896,0.05637233,1.3627755e-11,1.34422e-11,2.3599935e-11,5e-08,5e-08,5e-08,4.577091e-06,2.709048e-06,9.83619e-06,4.5929974e-06,4.076116e-06,9.906694e-06,0.0,0.0,8389351,0.4148627,0.23742858,0.011761534,0.1180924,0.006683702,0.009272343,0.0,0.0,0.0,0.004,0,0,0,831,24,0,0,0
670692000,0.47661442,-0.23581657,-0.08234943,-0.84288067,-2.5584261,-3.2276506,-0.055850424,-5.650328,-7.3110223,-9.671417,-7.3773667e-06,-4.7983765e-05,7.85832e-06,-0.0019186861,0.001375608,-0.0010447012,0.22202443,0.009665966,0.42537776,0.00019739277,-0.00022770604,0.0016248209,0.0,0.0,5.572478e-08,2.858608e-05,0.0002842463,3.519503e-05,4.5388942e-06,5.0981894e-06,1.071495e-05,0.016637841,0.01715484,0.01061977,0.0859612,0.0859177,0.056784745,1.3640238e-11,1.34534805e-11,2.368514e-11,5.000007e-08,5.000007e-08,5.000007e-08,4.5294205e-06,2.6970147e-06,9.71526e-06,4.5365277e-06,4.02341e-06,9.798017e-06,0.0,0.0,8389351,0.41458282,0.2382955,0.028566923,0.11988823,0.011438691,0.00944831,0.0,0.0,0.0,0.004,0,0,0,831,24,0,0,0
670892000,0.43536478,-0.23318279,-0.098700285,-0.8639106,-2.5655465,-3.2494593,-0.047665574,-6.145563,-7.9178467,-9.691256,-7.534935e-06,-4.7838053e-05,7.826287e-06,-0.0019003738,0.0013760522,-0.00104626,0.22198807,0.009646201,0.42538664,0.00019570993,-0.00025327716,0.0015696007,0.0,0.0,4.1089713e-08,2.8428243e-05,0.00027708602,3.6677066e-05,4.5016145e-06,4.8668e-06,8.843066e-06,0.016930172,0.017537238,0.010582456,0.0858476,0.08586233,0.05639705,1.3653836e-11,1.3468254e-11,2.3766303e-11,5.0000036e-08,5.0000036e-08,5.0000036e-08,4.4765216e-06,2.6838288e-06,9.5861e-06,4.4740214e-06,3.9644424e-06,9.684387e-06,0.0,0.0,8389351,0.41437897,0.23748063,0.02561507,0.13004802,0.012858983,0.0019424104,0.0,0.0,0.0,0.004,0,0,0,831,24,0,0,0
671092000,0.41400325,-0.22979377,-0.10286283,-0.874766,-2.5786886,-3.277094,-0.03981488,-6.6393304,-8.527343,-9.711615,-7.700162e-06,-4.7682366e-05,7.793256e-06,-0.0018793542,0.0013771154,-0.0010481467,0.22193833,0.009630929,0.42542785,0.00020170308,-0.00029156328,0.0015398505,0.0,0.0,2.8150179e-08,2.7650696e-05,0.0002813489,3.7292953e-05,4.378016e-06,4.657352e-06,7.928743e-06,0.017226448,0.017905202,0.010550427,0.08576846,0.085849054,0.05601444,1.3669911e-11,1.3488757e-11,2.3844754e-11,5e-08,5e-08,5e-08,4.424645e-06,2.671101e-06,9.464504e-06,4.4140033e-06,3.9075467e-06,9.578625e-06,0.0,0.0,8389351,0.41426742,0.2366737,0.009503082,0.13890584,0.013015962,0.014954602,0.0,0.0,0.0,0.004,0,0,0,831,24,0,0,0
671292000,0.4061321,-0.22819224,-0.10375058,-0.87876105,-2.5864074,-3.288117,-0.04164412,-7.1282406,-9.140037,-9.732161,-7.854888e-06,-4.750754e-05,7.757486e-06,-0.0018553619,0.0013764283,-0.0010491875,0.22188015,0.009610845,0.42549127,0.00021394559,-0.00031546483,0.0015132651,0.0,0.0,1.8190347e-08,2.5263864e-05,0.00028434145,3.7407404e-05,4.2436673e-06,4.495726e-06,7.582253e-06,0.01752443,0.018261146,0.010614662,0.08573075,0.08588044,0.05643486,1.36893274e-11,1.3516064e-11,2.3921915e-11,5.0000036e-08,5.0000036e-08,5.0000036e-08,4.3791674e-06,2.660227e-06,9.362724e-06,4.3635955e-06,3.8595576e-06,9.490349e-06,0.0,0.0,8389351,0.41425982,0.23756023,0.015283545,0.13652426,0.015014656,0.009839277,0.0,0.0,0.0,0.004,0,0,0,831,24,0,0,0
671492000,0.40491694,-0.22952601,-0.106135234,-0.8786896,-2.5998816,-3.2986228,-0.03650404,-7.6172137,-9.752595,-9.758739,-8.010112e-06,-4.733896e-05,7.721147e-06,-0.0018301054,0.0013765311,-0.001048483,0.22180457,0.009593165,0.42552704,0.00023097481,-0.00035558254,0.0014535082,0.0,0.0,1.1811177e-08,2.4218489e-05,0.0002753638,3.718463e-05,4.132028e-06,4.372643e-06,7.482165e-06,0.017790427,0.01856802,0.0106017785,0.085723154,0.08594677,0.056070466,1.3712453e-11,1.3548933e-11,2.399465e-11,5e-08,5e-08,5e-08,4.3302944e-06,2.648517e-06,9.255307e-06,4.3110676e-06,3.80915e-06,9.3974095e-06,0.0,0.0,8389351,0.4143307,0.23679203,0.01825925,0.13661683,0.018723445,0.0056211934,0.0,0.0,0.0,0.004,0,0,0,831,24,0,0,0
671692000,0.40652645,-0.2299061,-0.10757857,-0.8776709,-2.612561,-3.3199472,-0.030052349,-8.104476,-10.368667,-9.780746,-8.1543485e-06,-4.7168764e-05,7.679106e-06,-0.0018035325,0.0013762246,-0.0010498799,0.2217114,0.00957361,0.42559618,0.00026871322,-0.0003913839,0.0014045889,0.0,0.0,7.833969e-09,2.325449e-05,0.00028113768,3.6925674e-05,4.0290684e-06,4.264067e-06,7.4981053e-06,0.018033816,0.018832395,0.010682166,0.085754715,0.08605066,0.05650507,1.37403335e-11,1.35886614e-11,2.4066143e-11,5.000007e-08,5.000007e-08,5.000007e-08,4.287634e-06,2.6385926e-06,9.164484e-06,4.2675806e-06,3.7670475e-06,9.319523e-06,0.0,0.0,8389351,0.41449413,0.23770794,0.02801137,0.13554063,0.018220231,0.029530799,0.0,0.0,0.0,0.004,0,0,0,831,24,0,0,0
671892000,0.40841737,-0.23059021,-0.10810337,-0.87654847,-2.6471307,-3.3679879,-0.016942395,-8.630084,-11.038159,-9.802375,-8.157903e-06,-4.7154783e-05,7.6617325e-06,-0.0018023722,0.0013745605,-0.0010436018,0.22170216,0.009560865,0.42559725,0.00028360705,-0.00036852935,0.0013736415,0.0,0.0,5.5134124e-09,2.3373112e-05,0.0002878381,3.6760095e-05,4.100241e-06,4.3146174e-06,7.5341463e-06,0.020367334,0.021345403,0.010883956,0.09683341,0.09744456,0.05677091,1.3839947e-11,1.368691e-11,2.4153636e-11,5e-08,5e-08,5e-08,4.2502556e-06,2.6293287e-06,9.075355e-06,4.2239203e-06,3.7247696e-06,9.239493e-06,0.0,0.0,8389351,0.44076976,0.23826647,0.022951802,0.13554063,0.018220231,0.019764846,0.0,0.0,0.0,0.004,0,0,0,831,24,0,0,0
672092000,0.41042566,-0.2307934,-0.107858926,-0.8755865,-2.6436512,-3.3697004,-0.006174639,-9.093207,-11.623962,-9.826853,-8.364306e-06,-4.6934525e-05,7.604085e-06,-0.0017660398,0.0013757116,-0.0010451879,0.22161053,0.009527877,0.42569864,0.00031512917,-0.00038928248,0.0013284913,0.0,0.0,4.0807913e-09,2.484973e-05,0.00030073035,3.6507576e-05,3.9825927e-06,4.216849e-06,7.5706253e-06,0.020376068,0.021337476,0.010967724,0.096375756,0.09704871,0.057225145,1.3867458e-11,1.3729941e-11,2.4218877e-11,5.000007e-08,5.000007e-08,5.000007e-08,4.2096694e-06,2.620109e-06,8.993557e-06,4.1861917e-06,3.6875917e-06,9.170102e-06,0.0,0.0,8389351,0.43980047,0.23921777,0.008218426,0.1557115,0.08020847,0.0140747335,0.0,0.0,0.0,0.004,0,0,0,831,24,0,0,0
672292000,0.4119634,-0.2305944,-0.10739459,-0.87497354,-2.641467,-3.3689225,-0.0032199696,-9.553181,-12.218055,-9.849004,-8.537463e-06,-4.67355e-05,7.579142e-06,-0.0017307203,0.0013746917,-0.0010463352,0.22152412,0.009507689,0.42576724,0.0003258669,-0.00042757156,0.0012832234,0.0,0.0,4.5989887e-09,2.6387632e-05,0.00029618063,3.6242433e-05,3.876878e-06,4.1283065e-06,7.5864136e-06,0.020362945,0.021298341,0.010963699,0.09598433,0.09671566,0.056871086,1.3901343e-11,1.37796476e-11,2.4279679e-11,5.0000036e-08,5.0000036e-08,5.0000036e-08,4.166504e-06,2.6102111e-06,8.907386e-06,4.146877e-06,3.6484917e-06,9.096753e-06,0.0,0.0,8389351,0.43897608,0.23847659,0.014974885,0.13754956,0.077074006,0.023407537,0.0,0.0,0.0,0.004,0,0,0,831,24,0,0,0
672492000,0.41241962,-0.23519711,-0.10949011,-0.8732722,-2.6432688,-3.379746,0.0047247466,-10.015983,-12.816585,-9.874782,-8.701091e-06,-4.6559486e-05,7.552786e-06,-0.0016955603,0.0013742021,-0.0010454801,0.22144006,0.009486615,0.42583835,0.00034172944,-0.00045886004,0.0012399555,0.0,0.0,4.2599155e-09,2.4442004e-05,0.00028160366,3.59566e-05,3.800783e-06,4.103067e-06,7.574121e-06,0.020319184,0.021218376,0.010960581,0.09565612,0.09643868,0.05652561,1.3941528e-11,1.3835707e-11,2.4337749e-11,5e-08,5e-08,5e-08,4.125007e-06,2.6007954e-06,8.825621e-06,4.1103153e-06,3.6117353e-06,9.027545e-06,0.0,0.0,8389351,0.43828622,0.23775116,0.023305522,0.13315386,0.07267737,0.013953694,0.0,0.0,0.0,0.004,0,0,0,831,24,0,0,0
672692000,0.4125269,-0.23904704,-0.11007142,-0.8721024,-2.6610334,-3.4016862,0.022020243,-10.484505,-13.420287,-9.896346,-8.855315e-06,-4.6405672e-05,7.5119106e-06,-0.0016607783,0.0013753348,-0.0010453784,0.22134753,0.009464645,0.42594013,0.0003793691,-0.0004861385,0.001212777,0.0,0.0,2.97233e-09,2.4058705e-05,0.00028599863,3.5742676e-05,3.7286347e-06,4.094181e-06,7.5616845e-06,0.02024712,0.021092217,0.011050948,0.09538629,0.09620887,0.05700187,1.3988394e-11,1.3897924e-11,2.439519e-11,5.0000036e-08,5.0000036e-08,5.0000036e-08,4.088767e-06,2.592859e-06,8.755471e-06,4.07977e-06,3.5806358e-06,8.96886e-06,0.0,0.0,8389351,0.43771586,0.23875065,0.016882787,0.13361621,0.06632049,0.015162381,0.0,0.0,0.0,0.004,0,0,0,831,24,0,0,0
672892000,0.41292778,-0.2390209,-0.10967991,-0.87196904,-2.6825027,-3.4166415,0.028317526,-10.956646,-14.029487,-9.924134,-9.004673e-06,-4.626941e-05,7.4838663e-06,-0.0016236729,0.0013763688,-0.0010414264,0.22125638,0.009446483,0.426011,0.00040402147,-0.0005223949,0.0011683562,0.0,0.0,2.4965003e-09,2.4244986e-05,0.00028298778,3.5546447e-05,3.6661665e-06,4.055585e-06,7.5450544e-06,0.020153753,0.020940786,0.011050019,0.09515722,0.09601366,0.056679454,1.4039874e-11,1.39644355e-11,2.444855e-11,5e-08,5e-08,5e-08,4.0504283e-06,2.5842621e-06,8.681117e-06,4.0476552e-06,3.547783e-06,8.906409e-06,0.0,0.0,8389351,0.4372309,0.23807447,0.016046451,0.13502963,0.06245075,0.021961868,0.0,0.0,0.0,0.004,0,0,0,831,24,0,0,0
673092000,0.41338247,-0.24005514,-0.110446006,-0.8713727,-2.699227,-3.4283433,0.04284974,-11.435663,-14.649116,-9.944251,-9.124656e-06,-4.6155965e-05,7.457331e-06,-0.0015902987,0.0013765751,-0.0010391042,0.22116277,0.009431369,0.42609864,0.00044193977,-0.0005567471,0.0011406516,0.0,0.0,2.4217544e-09,2.3851568e-05,0.0002839901,3.5371322e-05,3.6275492e-06,4.0454365e-06,7.542355e-06,0.020041084,0.020768743,0.011136985,0.09496952,0.095849,0.057173047,1.4097086e-11,1.4035643e-11,2.4501541e-11,5.000007e-08,5.000007e-08,5.000007e-08,4.016875e-06,2.5770198e-06,8.617786e-06,4.020717e-06,3.5199e-06,8.85358e-06,0.0,0.0,8389351,0.43682778,0.23910886,0.020692635,0.12726097,0.058146797,0.022528825,0.0,0.0,0.0,0.004,0,0,0,831,24,0,0,0
673292000,0.41360334,-0.24178034,-0.111028805,-0.8707165,-2.7113824,-3.443492,0.05969666,-11.914466,-15.27185,-9.962047,-9.247758e-06,-4.605046e-05,7.431323e-06,-0.0015562556,0.0013765845,-0.0010375999,0.22107007,0.00941225,0.4261786,0.00048132526,-0.00058138225,0.0010982451,0.0,0.0,2.0199407e-09,2.4254954e-05,0.00029742144,3.5178495e-05,3.5960372e-06,4.050754e-06,7.527655e-06,0.019904157,0.020577,0.011127888,0.094807684,0.09570489,0.05685629,1.4157138e-11,1.4109315e-11,2.4550162e-11,5e-08,5e-08,5e-08,3.981454e-06,2.5691413e-06,8.550405e-06,3.9922975e-06,3.4904024e-06,8.797201e-06,0.0,0.0,8389351,0.43647745,0.23844557,0.02884567,0.13288198,0.057266578,0.013262271,0.0,0.0,0.0,0.004,0,0,0,831,24,0,0,0
673492000,0.41374248,-0.24188958,-0.11014598,-0.8707321,-2.7248626,-3.4539688,0.07304513,-12.398197,-15.898691,-9.97163,-9.353665e-06,-4.5968496e-05,7.403265e-06,-0.0015235275,0.0013775139,-0.0010380071,0.22097033,0.009398412,0.42626318,0.0005289273,-0.0006172632,0.001063903,0.0,0.0,1.5320353e-09,2.3686993e-05,0.0002945282,3.5056775e-05,3.5685712e-06,4.0553414e-06,7.5194166e-06,0.019760823,0.02037593,0.011210035,0.09467344,0.095578656,0.057371095,1.42217965e-11,1.418628e-11,2.4598497e-11,5.000007e-08,5.000007e-08,5.000007e-08,3.950549e-06,2.5625186e-06,8.492926e-06,3.968381e-06,3.465328e-06,8.749374e-06,0.0,0.0,8389351,0.43617898,0.23952264,0.027424093,0.1299492,0.05265053,0.019922446,0.0,0.0,0.0,0.004,0,0,0,831,24,0,0,0
673692000,0.4139508,-0.24199826,-0.10966666,-0.8706634,-2.738709,-3.4603755,0.08079601,-12.890752,-16.533989,-9.982802,-9.457099e-06,-4.5905013e-05,7.3770907e-06,-0.0014936646,0.0013785342,-0.0010369061,0.22089103,0.009380969,0.42633528,0.0005689897,-0.00063357863,0.0010278822,0.0,0.0,1.476016e-09,2.3290093e-05,0.00029745983,3.491438e-05,3.5534417e-06,4.064914e-06,7.5065004e-06,0.019607143,0.020168535,0.011193927,0.09455458,0.09546338,0.057067618,1.4287454e-11,1.4263837e-11,2.464227e-11,5.0000036e-08,5.0000036e-08,5.0000036e-08,3.917923e-06,2.5552606e-06,8.432009e-06,3.9430615e-06,3.438788e-06,8.698295e-06,0.0,0.0,8389351,0.4359105,0.2388883,0.014623181,0.116424166,0.047363393,0.019846685,0.0,0.0,0.0,0.004,0,0,0,831,24,0,0,0
673892000,0.41404405,-0.24279359,-0.10999649,-0.87035614,-2.7508714,-3.4641104,0.081407584,-13.387457,-17.174877,-9.9985895,-9.543175e-06,-4.5857072e-05,7.359425e-06,-0.0014640443,0.0013787041,-0.0010328118,0.22080775,0.009368156,0.42639437,0.0006075254,-0.0006598354,0.0009866892,0.0,0.0,1.6621305e-09,2.5795884e-05,0.00029682936,3.477364e-05,3.5539545e-06,4.090888e-06,7.493589e-06,0.01944888,0.01995841,0.011172307,0.09445013,0.09535642,0.056763995,1.4354664e-11,1.434203e-11,2.4683372e-11,5e-08,5e-08,5e-08,3.886705e-06,2.5482996e-06,8.374129e-06,3.919192e-06,3.413665e-06,8.649731e-06,0.0,0.0,8389351,0.43566793,0.23825195,0.0060535385,0.11381753,0.043676678,0.017852917,0.0,0.0,0.0,0.004,0,0,0,831,24,0,0,0
