timestamp,lat,lon,alt,alt_ellipsoid,delta_alt,vel_n,vel_e,vel_d,yaw,eph,epv,terrain_alt,lat_lon_reset_counter,alt_reset_counter,terrain_alt_valid,dead_reckoning
657300000,47.3977509,8.5456065,488.104,0.0,0.0,0.0,0.0,0.0,0.0,0.0,0.0,0.0,0,0,0,0
657400000,47.3977509,8.5456065,488.104,0.0,0.0,0.0,0.0,0.0,0.0,0.0,0.0,0.0,0,0,0,0
657500000,47.3977509,8.5456065,488.104,0.0,0.0,0.0,0.0,0.0,0.0,0.0,0.0,0.0,0,0,0,0
657600000,47.3977509,8.5456065,488.104,0.0,0.0,0.0,0.0,0.0,0.0,0.0,0.0,0.0,0,0,0,0
657700000,47.3977509,8.5456065,488.108,0.0,0.0,0.0,0.0,-0.089999996,0.0,0.0,0.0,0.0,0,0,0,0
657800000,47.3977509,8.5456065,488.129,0.0,0.0,0.0,0.02,-0.32,0.0,0.0,0.0,0.0,0,0,0,0
657900000,47.3977509,8.5456065,488.176,0.0,0.0,-0.01,0.04,-0.61,0.0,0.0,0.0,0.0,0,0,0,0
658000000,47.3977509,8.5456066,488.252,0.0,0.0,-0.01,0.06,-0.96,0.0,0.0,0.0,0.0,0,0,0,0
658100000,47.3977509,8.5456067,488.367,0.0,0.0,-0.01,0.06,-1.35,0.0,0.0,0.0,0.0,0,0,0,0
658200000,47.3977509,8.5456068,488.519,0.0,0.0,0.0,0.06,-1.5,0.0,0.0,0.0,0.0,0,0,0,0
658300000,47.3977509,8.5456069,488.677,0.0,0.0,0.0,0.06,-1.81,0.0,0.0,0.0,0.0,0,0,0,0
658400000,47.3977509,8.545607,488.871,0.0,0.0,0.0,0.06,-1.92,0.0,0.0,0.0,0.0,0,0,0,0
658500000,47.3977509,8.5456071,489.054,0.0,0.0,0.0,0.06,-1.77,0.0,0.0,0.0,0.0,0,0,0,0
658600000,47.3977509,8.5456071,489.232,0.0,0.0,0.0,0.049999997,-1.78,0.0,0.0,0.0,0.0,0,0,0,0
658700000,47.3977509,8.5456072,489.402,0.0,0.0,0.0,0.049999997,-1.75,0.0,0.0,0.0,0.0,0,0,0,0
658800000,47.3977509,8.5456073,489.577,0.0,0.0,-0.01,0.04,-1.73,0.0,0.0,0.0,0.0,0,0,0,0
658900000,47.3977509,8.5456073,489.756,0.0,0.0,-0.01,0.04,-1.7099999,0.0,0.0,0.0,0.0,0,0,0,0
659000000,47.3977508,8.5456074,489.927,0.0,0.0,-0.01,0.03,-1.6999999,0.0,0.0,0.0,0.0,0,0,0,0
659100000,47.3977508,8.5456074,490.097,0.0,0.0,-0.01,0.03,-1.6899999,0.0,0.0,0.0,0.0,0,0,0,0
659200000,47.3977508,8.5456075,490.265,0.0,0.0,-0.01,0.02,-1.67,0.0,0.0,0.0,0.0,0,0,0,0
659300000,47.3977508,8.5456075,490.432,0.0,0.0,-0.01,0.02,-1.66,0.0,0.0,0.0,0.0,0,0,0,0
659400000,47.3977508,8.5456075,490.597,0.0,0.0,-0.01,0.01,-1.64,0.0,0.0,0.0,0.0,0,0,0,0
659500000,47.3977508,8.5456075,490.761,0.0,0.0,-0.01,0.01,-1.63,0.0,0.0,0.0,0.0,0,0,0,0
659600000,47.3977508,8.5456076,490.924,0.0,0.0,-0.02,0.01,-1.62,0.0,0.0,0.0,0.0,0,0,0,0
659700000,47.397750699999996,8.5456076,491.086,0.0,0.0,-0.02,0.0,-1.61,0.0,0.0,0.0,0.0,0,0,0,0
659800000,47.397750699999996,8.5456076,491.247,0.0,0.0,-0.02,0.0,-1.5999999,0.0,0.0,0.0,0.0,0,0,0,0
659900000,47.397750699999996,8.5456076,491.407,0.0,0.0,-0.02,0.0,-1.5899999,0.0,0.0,0.0,0.0,0,0,0,0
660000000,47.397750699999996,8.5456076,491.566,0.0,0.0,-0.02,0.0,-1.5899999,0.0,0.0,0.0,0.0,0,0,0,0
660100000,47.397750599999995,8.5456076,491.725,0.0,0.0,-0.02,0.0,-1.5799999,0.0,0.0,0.0,0.0,0,0,0,0
660196000,47.397750599999995,8.5456076,491.877,0.0,0.0,-0.02,0.0,-1.5799999,0.0,0.0,0.0,0.0,0,0,0,0
660300000,47.397750599999995,8.5456076,492.034,0.0,0.0,-0.03,0.0,-1.56,0.0,0.0,0.0,0.0,0,0,0,0
660400000,47.397750599999995,8.5456076,492.197,0.0,0.0,-0.03,0.0,-1.56,0.0,0.0,0.0,0.0,0,0,0,0
660500000,47.3977505,8.5456076,492.353,0.0,0.0,-0.03,0.0,-1.56,0.0,0.0,0.0,0.0,0,0,0,0
660600000,47.3977505,8.5456076,492.509,0.0,0.0,-0.03,0.0,-1.55,0.0,0.0,0.0,0.0,0,0,0,0
660700000,47.3977505,8.5456075,492.665,0.0,0.0,-0.03,-0.01,-1.55,0.0,0.0,0.0,0.0,0,0,0,0
660800000,47.3977504,8.5456075,492.82,0.0,0.0,-0.03,-0.01,-1.55,0.0,0.0,0.0,0.0,0,0,0,0
660900000,47.3977504,8.5456075,492.975,0.0,0.0,-0.03,-0.02,-1.55,0.0,0.0,0.0,0.0,0,0,0,0
661000000,47.3977504,8.5456075,493.13,0.0,0.0,-0.03,-0.02,-1.54,0.0,0.0,0.0,0.0,0,0,0,0
661100000,47.3977503,8.5456074,493.284,0.0,0.0,-0.03,-0.02,-1.53,0.0,0.0,0.0,0.0,0,0,0,0
661200000,47.3977503,8.5456074,493.435,0.0,0.0,-0.03,-0.03,-1.48,0.0,0.0,0.0,0.0,0,0,0,0
661300000,47.3977503,8.5456073,493.58,0.0,0.0,-0.03,-0.03,-1.43,0.0,0.0,0.0,0.0,0,0,0,0
661400000,47.3977502,8.5456073,493.721,0.0,0.0,-0.03,-0.03,-1.39,0.0,0.0,0.0,0.0,0,0,0,0
661500000,47.3977502,8.5456072,493.858,0.0,0.0,-0.03,-0.04,-1.3399999,0.0,0.0,0.0,0.0,0,0,0,0
661600000,47.3977502,8.5456072,493.99,0.0,0.0,-0.03,-0.04,-1.3,0.0,0.0,0.0,0.0,0,0,0,0
661696000,47.397750099999996,8.5456071,494.113,0.0,0.0,-0.03,-0.04,-1.25,0.0,0.0,0.0,0.0,0,0,0,0
661800000,47.397750099999996,8.5456071,494.242,0.0,0.0,-0.03,-0.04,-1.22,0.0,0.0,0.0,0.0,0,0,0,0
661900000,47.397750099999996,8.545607,494.363,0.0,0.0,-0.03,-0.049999997,-1.18,0.0,0.0,0.0,0.0,0,0,0,0
662000000,47.397749999999995,8.5456069,494.48,0.0,0.0,-0.03,-0.049999997,-1.15,0.0,0.0,0.0,0.0,0,0,0,0
662100000,47.397749999999995,8.5456069,494.589,0.0,0.0,-0.03,-0.049999997,-1.12,0.0,0.0,0.0,0.0,0,0,0,0
662196000,47.397749999999995,8.5456068,494.7,0.0,0.0,-0.03,-0.049999997,-1.0799999,0.0,0.0,0.0,0.0,0,0,0,0
662300000,47.3977499,8.5456067,494.811,0.0,0.0,-0.03,-0.049999997,-1.04,0.0,0.0,0.0,0.0,0,0,0,0
662400000,47.3977499,8.5456066,494.913,0.0,0.0,-0.03,-0.049999997,-1.0,0.0,0.0,0.0,0.0,0,0,0,0
662500000,47.3977499,8.5456066,495.012,0.0,0.0,-0.03,-0.049999997,-0.96,0.0,0.0,0.0,0.0,0,0,0,0
662600000,47.3977498,8.5456065,495.107,0.0,0.0,-0.02,-0.049999997,-0.93,0.0,0.0,0.0,0.0,0,0,0,0
662700000,47.3977498,8.5456064,495.199,0.0,0.0,-0.02,-0.06,-0.9,0.0,0.0,0.0,0.0,0,0,0,0
662800000,47.3977498,8.5456063,495.284,0.0,0.0,-0.02,-0.06,-0.87,0.0,0.0,0.0,0.0,0,0,0,0
662900000,47.3977498,8.5456062,495.374,0.0,0.0,-0.02,-0.06,-0.84,0.0,0.0,0.0,0.0,0,0,0,0
663000000,47.3977498,8.5456062,495.454,0.0,0.0,-0.01,-0.06,-0.81,0.0,0.0,0.0,0.0,0,0,0,0
663100000,47.3977497,8.545606099999999,495.537,0.0,0.0,-0.01,-0.06,-0.78999996,0.0,0.0,0.0,0.0,0,0,0,0
663200000,47.3977497,8.545606,495.615,0.0,0.0,-0.01,-0.06,-0.76,0.0,0.0,0.0,0.0,0,0,0,0
663300000,47.3977497,8.5456059,495.691,0.0,0.0,0.0,-0.049999997,-0.74,0.0,0.0,0.0,0.0,0,0,0,0
663400000,47.3977497,8.545605799999999,495.762,0.0,0.0,0.0,-0.049999997,-0.71999997,0.0,0.0,0.0,0.0,0,0,0,0
663500000,47.3977497,8.545605799999999,495.836,0.0,0.0,0.0,-0.049999997,-0.7,0.0,0.0,0.0,0.0,0,0,0,0
663600000,47.3977497,8.5456057,495.905,0.0,0.0,0.0,-0.049999997,-0.66999996,0.0,0.0,0.0,0.0,0,0,0,0
663700000,47.3977497,8.5456056,495.972,0.0,0.0,0.0,-0.049999997,-0.65,0.0,0.0,0.0,0.0,0,0,0,0
663800000,47.3977497,8.545605499999999,496.036,0.0,0.0,0.0,-0.04,-0.63,0.0,0.0,0.0,0.0,0,0,0,0
663900000,47.3977497,8.545605499999999,496.099,0.0,0.0,0.0,-0.04,-0.61,0.0,0.0,0.0,0.0,0,0,0,0
664000000,47.3977497,8.5456054,496.16,0.0,0.0,0.0,-0.04,-0.59999996,0.0,0.0,0.0,0.0,0,0,0,0
664100000,47.3977497,8.5456054,496.219,0.0,0.0,0.0,-0.04,-0.58,0.0,0.0,0.0,0.0,0,0,0,0
664200000,47.3977497,8.5456053,496.277,0.0,0.0,0.01,-0.04,-0.56,0.0,0.0,0.0,0.0,0,0,0,0
664300000,47.3977498,8.5456053,496.333,0.0,0.0,0.01,-0.03,-0.55,0.0,0.0,0.0,0.0,0,0,0,0
664400000,47.3977498,8.545605199999999,496.387,0.0,0.0,0.01,-0.03,-0.53,0.0,0.0,0.0,0.0,0,0,0,0
664500000,47.3977498,8.545605199999999,496.44,0.0,0.0,0.01,-0.03,-0.51,0.0,0.0,0.0,0.0,0,0,0,0
664600000,47.3977498,8.5456051,496.491,0.0,0.0,0.02,-0.03,-0.5,0.0,0.0,0.0,0.0,0,0,0,0
664696000,47.3977498,8.5456051,496.538,0.0,0.0,0.02,-0.02,-0.48,0.0,0.0,0.0,0.0,0,0,0,0
664800000,47.3977498,8.545605,496.588,0.0,0.0,0.02,-0.02,-0.47,0.0,0.0,0.0,0.0,0,0,0,0
664900000,47.3977499,8.545605,496.635,0.0,0.0,0.02,-0.02,-0.45,0.0,0.0,0.0,0.0,0,0,0,0
665000000,47.3977499,8.545605,496.678,0.0,0.0,0.03,-0.01,-0.44,0.0,0.0,0.0,0.0,0,0,0,0
665100000,47.3977499,8.545605,496.723,0.0,0.0,0.03,-0.01,-0.42,0.0,0.0,0.0,0.0,0,0,0,0
665200000,47.397749999999995,8.545604899999999,496.763,0.0,0.0,0.03,-0.01,-0.41,0.0,0.0,0.0,0.0,0,0,0,0
665300000,47.397749999999995,8.545604899999999,496.806,0.0,0.0,0.03,0.0,-0.39999998,0.0,0.0,0.0,0.0,0,0,0,0
665400000,47.397749999999995,8.545604899999999,496.845,0.0,0.0,0.04,0.0,-0.39,0.0,0.0,0.0,0.0,0,0,0,0
665500000,47.397750099999996,8.545604899999999,496.884,0.0,0.0,0.04,0.0,-0.37,0.0,0.0,0.0,0.0,0,0,0,0
665600000,47.397750099999996,8.545604899999999,496.921,0.0,0.0,0.04,0.0,-0.35999998,0.0,0.0,0.0,0.0,0,0,0,0
665696000,47.397750099999996,8.545604899999999,496.955,0.0,0.0,0.04,0.0,-0.35,0.0,0.0,0.0,0.0,0,0,0,0
665800000,47.3977502,8.545604899999999,496.991,0.0,0.0,0.04,0.0,-0.34,0.0,0.0,0.0,0.0,0,0,0,0
665900000,47.3977502,8.545604899999999,497.024,0.0,0.0,0.04,0.0,-0.32,0.0,0.0,0.0,0.0,0,0,0,0
666000000,47.3977503,8.545604899999999,497.056,0.0,0.0,0.04,0.0,-0.31,0.0,0.0,0.0,0.0,0,0,0,0
666100000,47.3977503,8.545604899999999,497.088,0.0,0.0,0.04,0.0,-0.29999998,0.0,0.0,0.0,0.0,0,0,0,0
666200000,47.3977503,8.545604899999999,497.118,0.0,0.0,0.04,0.01,-0.29,0.0,0.0,0.0,0.0,0,0,0,0
666300000,47.3977504,8.545605,497.148,0.0,0.0,0.04,0.01,-0.29,0.0,0.0,0.0,0.0,0,0,0,0
666400000,47.3977504,8.545605,497.176,0.0,0.0,0.04,0.01,-0.26999998,0.0,0.0,0.0,0.0,0,0,0,0
666500000,47.3977504,8.545605,497.203,0.0,0.0,0.04,0.01,-0.26,0.0,0.0,0.0,0.0,0,0,0,0
666600000,47.3977505,8.545605,497.229,0.0,0.0,0.04,0.01,-0.26,0.0,0.0,0.0,0.0,0,0,0,0
666700000,47.3977505,8.545605,497.256,0.0,0.0,0.04,0.01,-0.25,0.0,0.0,0.0,0.0,0,0,0,0
666800000,47.397750599999995,8.5456051,497.28,0.0,0.0,0.03,0.02,-0.24,0.0,0.0,0.0,0.0,0,0,0,0
666900000,47.397750599999995,8.5456051,497.305,0.0,0.0,0.03,0.02,-0.22999999,0.0,0.0,0.0,0.0,0,0,0,0
667000000,47.397750599999995,8.5456051,497.328,0.0,0.0,0.03,0.02,-0.22,0.0,0.0,0.0,0.0,0,0,0,0
667100000,47.397750699999996,8.545605199999999,497.351,0.0,0.0,0.03,0.02,-0.22,0.0,0.0,0.0,0.0,0,0,0,0
667200000,47.397750699999996,8.545605199999999,497.374,0.0,0.0,0.03,0.02,-0.25,0.0,0.0,0.0,0.0,0,0,0,0
667300000,47.397750699999996,8.545605199999999,497.399,0.0,0.0,0.01,0.0,-0.24,0.0,0.0,0.0,0.0,0,0,0,0
667400000,47.397750699999996,8.545605199999999,497.425,0.0,0.0,-0.03,-0.06,-0.25,0.0,0.0,0.0,0.0,0,0,0,0
667500000,47.397750599999995,8.545605,497.451,0.0,0.0,-0.14,-0.19999999,-0.25,0.0,0.0,0.0,0.0,0,0,0,0
667600000,47.3977505,8.545604599999999,497.475,0.0,0.0,-0.29,-0.39,-0.24,0.0,0.0,0.0,0.0,0,0,0,0
667700000,47.397750099999996,8.5456039,497.499,0.0,0.0,-0.47,-0.62,-0.21,0.0,0.0,0.0,0.0,0,0,0,0
667800000,47.3977496,8.5456029,497.519,0.0,0.0,-0.65999997,-0.85999995,-0.19,0.0,0.0,0.0,0.0,0,0,0,0
667900000,47.397748899999996,8.5456016,497.537,0.0,0.0,-0.84,-1.09,-0.17,0.0,0.0,0.0,0.0,0,0,0,0
667996000,47.3977481,8.5456001,497.554,0.0,0.0,-0.98999995,-1.3,-0.16,0.0,0.0,0.0,0.0,0,0,0,0
668100000,47.3977471,8.5455981,497.571,0.0,0.0,-1.15,-1.51,-0.16,0.0,0.0,0.0,0.0,0,0,0,0
668200000,47.397746,8.545596,497.587,0.0,0.0,-1.29,-1.7099999,-0.14999999,0.0,0.0,0.0,0.0,0,0,0,0
668300000,47.3977447,8.545593499999999,497.602,0.0,0.0,-1.43,-1.89,-0.14999999,0.0,0.0,0.0,0.0,0,0,0,0
668400000,47.397743399999996,8.545591,497.616,0.0,0.0,-1.5699999,-2.07,-0.14,0.0,0.0,0.0,0.0,0,0,0,0
668500000,47.3977419,8.545588,497.631,0.0,0.0,-1.6999999,-2.23,-0.13,0.0,0.0,0.0,0.0,0,0,0,0
668600000,47.397740299999995,8.5455849,497.644,0.0,0.0,-1.8299999,-2.3899999,-0.13,0.0,0.0,0.0,0.0,0,0,0,0
668700000,47.3977387,8.545581799999999,497.656,0.0,0.0,-1.9499999,-2.54,-0.12,0.0,0.0,0.0,0.0,0,0,0,0
668800000,47.3977368,8.5455781,497.67,0.0,0.0,-2.07,-2.69,-0.12,0.0,0.0,0.0,0.0,0,0,0,0
668900000,47.397734799999995,8.5455744,497.682,0.0,0.0,-2.18,-2.82,-0.11,0.0,0.0,0.0,0.0,0,0,0,0
669000000,47.3977328,8.5455706,497.693,0.0,0.0,-2.29,-2.9299998,-0.099999994,0.0,0.0,0.0,0.0,0,0,0,0
669100000,47.3977307,8.545566599999999,497.703,0.0,0.0,-2.3899999,-3.02,-0.089999996,0.0,0.0,0.0,0.0,0,0,0,0
669200000,47.3977285,8.545562499999999,497.712,0.0,0.0,-2.47,-3.09,-0.08,0.0,0.0,0.0,0.0,0,0,0,0
669300000,47.3977262,8.545558399999999,497.72,0.0,0.0,-2.53,-3.1399999,-0.07,0.0,0.0,0.0,0.0,0,0,0,0
669400000,47.397723899999995,8.5455542,497.727,0.0,0.0,-2.55,-3.1499999,-0.06,0.0,0.0,0.0,0.0,0,0,0,0
669496000,47.3977217,8.5455502,497.733,0.0,0.0,-2.54,-3.1299999,-0.06,0.0,0.0,0.0,0.0,0,0,0,0
669600000,47.3977194,8.5455458,497.741,0.0,0.0,-2.51,-3.08,-0.08,0.0,0.0,0.0,0.0,0,0,0,0
669700000,47.3977171,8.545541799999999,497.752,0.0,0.0,-2.48,-3.02,-0.11,0.0,0.0,0.0,0.0,0,0,0,0
669800000,47.3977149,8.5455378,497.764,0.0,0.0,-2.45,-2.97,-0.12,0.0,0.0,0.0,0.0,0,0,0,0
669900000,47.3977127,8.5455338,497.777,0.0,0.0,-2.44,-2.9399998,-0.12,0.0,0.0,0.0,0.0,0,0,0,0
670000000,47.397710499999995,8.545530099999999,497.788,0.0,0.0,-2.44,-2.9399998,-0.11,0.0,0.0,0.0,0.0,0,0,0,0
670100000,47.3977083,8.545525999999999,497.8,0.0,0.0,-2.44,-2.95,-0.11,0.0,0.0,0.0,0.0,0,0,0,0
670200000,47.3977061,8.545522,497.812,0.0,0.0,-2.4299998,-2.95,-0.11,0.0,0.0,0.0,0.0,0,0,0,0
670300000,47.397703899999996,8.545518099999999,497.824,0.0,0.0,-2.4199998,-2.9399998,-0.13,0.0,0.0,0.0,0.0,0,0,0,0
670400000,47.3977017,8.5455142,497.838,0.0,0.0,-2.3999999,-2.9299998,-0.14,0.0,0.0,0.0,0.0,0,0,0,0
670500000,47.397699499999995,8.5455103,497.852,0.0,0.0,-2.3899999,-2.9199998,-0.14,0.0,0.0,0.0,0.0,0,0,0,0
670600000,47.3976975,8.5455066,497.867,0.0,0.0,-2.3799999,-2.9199998,-0.14999999,0.0,0.0,0.0,0.0,0,0,0,0
670700000,47.3976952,8.5455025,497.883,0.0,0.0,-2.37,-2.9299998,-0.14999999,0.0,0.0,0.0,0.0,0,0,0,0
670800000,47.3976931,8.5454986,497.898,0.0,0.0,-2.35,-2.9399998,-0.14999999,0.0,0.0,0.0,0.0,0,0,0,0
670900000,47.397690999999995,8.545494699999999,497.913,0.0,0.0,-2.35,-2.95,-0.14999999,0.0,0.0,0.0,0.0,0,0,0,0
671000000,47.3976889,8.5454907,497.929,0.0,0.0,-2.34,-2.95,-0.16,0.0,0.0,0.0,0.0,0,0,0,0
671100000,47.3976867,8.545486799999999,497.946,0.0,0.0,-2.33,-2.95,-0.16,0.0,0.0,0.0,0.0,0,0,0,0
671200000,47.3976846,8.5454828,497.963,0.0,0.0,-2.33,-2.95,-0.17,0.0,0.0,0.0,0.0,0,0,0,0
671300000,47.397682499999995,8.545478899999999,497.98,0.0,0.0,-2.33,-2.96,-0.17,0.0,0.0,0.0,0.0,0,0,0,0
671400000,47.3976804,8.545475,497.997,0.0,0.0,-2.32,-2.97,-0.17,0.0,0.0,0.0,0.0,0,0,0,0
671500000,47.397678299999995,8.545471,498.014,0.0,0.0,-2.32,-2.98,-0.17,0.0,0.0,0.0,0.0,0,0,0,0
671600000,47.3976763,8.5454672,498.031,0.0,0.0,-2.32,-2.98,-0.16,0.0,0.0,0.0,0.0,0,0,0,0
671700000,47.397674099999996,8.545463,498.048,0.0,0.0,-2.31,-2.99,-0.16,0.0,0.0,0.0,0.0,0,0,0,0
671800000,47.3976721,8.5454592,498.064,0.0,0.0,-2.31,-3.0,-0.16,0.0,0.0,0.0,0.0,0,0,0,0
671900000,47.3976701,8.5454552,498.081,0.0,0.0,-2.31,-3.01,-0.16,0.0,0.0,0.0,0.0,0,0,0,0
672000000,47.397667999999996,8.5454511,498.097,0.0,0.0,-2.31,-3.02,-0.16,0.0,0.0,0.0,0.0,0,0,0,0
672100000,47.3976658,8.5454469,498.114,0.0,0.0,-2.31,-3.02,-0.16,0.0,0.0,0.0,0.0,0,0,0,0
672200000,47.397663699999995,8.5454429,498.13,0.0,0.0,-2.31,-3.03,-0.16,0.0,0.0,0.0,0.0,0,0,0,0
672300000,47.3976616,8.545438899999999,498.146,0.0,0.0,-2.31,-3.04,-0.14999999,0.0,0.0,0.0,0.0,0,0,0,0
672396000,47.3976597,8.545435099999999,498.16,0.0,0.0,-2.32,-3.06,-0.14999999,0.0,0.0,0.0,0.0,0,0,0,0
672500000,47.3976574,8.545430699999999,498.176,0.0,0.0,-2.34,-3.08,-0.14,0.0,0.0,0.0,0.0,0,0,0,0
672600000,47.3976554,8.5454267,498.19,0.0,0.0,-2.35,-3.09,-0.13,0.0,0.0,0.0,0.0,0,0,0,0
672700000,47.3976532,8.5454224,498.204,0.0,0.0,-2.36,-3.11,-0.13,0.0,0.0,0.0,0.0,0,0,0,0
672800000,47.397650999999996,8.5454183,498.216,0.0,0.0,-2.37,-3.12,-0.12,0.0,0.0,0.0,0.0,0,0,0,0
672900000,47.3976489,8.5454141,498.228,0.0,0.0,-2.3799999,-3.1299999,-0.11,0.0,0.0,0.0,0.0,0,0,0,0
673000000,47.397646699999996,8.5454099,498.239,0.0,0.0,-2.3899999,-3.1399999,-0.099999994,0.0,0.0,0.0,0.0,0,0,0,0
673100000,47.3976446,8.5454057,498.249,0.0,0.0,-2.3999999,-3.1499999,-0.089999996,0.0,0.0,0.0,0.0,0,0,0,0
673200000,47.397642399999995,8.545401499999999,498.259,0.0,0.0,-2.4099998,-3.1599998,-0.08,0.0,0.0,0.0,0.0,0,0,0,0
673300000,47.3976402,8.5453973,498.267,0.0,0.0,-2.4199998,-3.1699998,-0.08,0.0,0.0,0.0,0.0,0,0,0,0
673400000,47.397638099999995,8.5453932,498.274,0.0,0.0,-2.4299998,-3.1799998,-0.07,0.0,0.0,0.0,0.0,0,0,0,0
673500000,47.397635799999996,8.5453888,498.282,0.0,0.0,-2.44,-3.1899998,-0.07,0.0,0.0,0.0,0.0,0,0,0,0
673600000,47.3976336,8.545384499999999,498.29,0.0,0.0,-2.45,-3.1899998,-0.07,0.0,0.0,0.0,0.0,0,0,0,0
673700000,47.397631499999996,8.545380399999999,498.297,0.0,0.0,-2.46,-3.1999998,-0.07,0.0,0.0,0.0,0.0,0,0,0,0
673796000,47.3976292,8.5453762,498.304,0.0,0.0,-2.47,-3.21,-0.06,0.0,0.0,0.0,0.0,0,0,0,0
673900000,47.3976269,8.5453717,498.31,0.0,0.0,-2.48,-3.21,-0.049999997,0.0,0.0,0.0,0.0,0,0,0,0
674000000,47.397624699999994,8.5453674,498.315,0.0,0.0,-2.48,-3.21,-0.04,0.0,0.0,0.0,0.0,0,0,0,0
674100000,47.3976225,8.5453633,498.319,0.0,0.0,-2.48,-3.1999998,-0.02,0.0,0.0,0.0,0.0,0,0,0,0
674200000,47.3976203,8.545359099999999,498.321,0.0,0.0,-2.46,-3.1599998,-0.02,0.0,0.0,0.0,0.0,0,0,0,0
674300000,47.397618,8.545354699999999,498.324,0.0,0.0,-2.4199998,-3.09,-0.02,0.0,0.0,0.0,0.0,0,0,0,0
674400000,47.3976158,8.5453507,498.327,0.0,0.0,-2.37,-3.02,-0.03,0.0,0.0,0.0,0.0,0,0,0,0
674500000,47.3976137,8.5453467,498.33,0.0,0.0,-2.32,-2.9399998,-0.02,0.0,0.0,0.0,0.0,0,0,0,0
674600000,47.3976116,8.5453428,498.333,0.0,0.0,-2.27,-2.87,-0.02,0.0,0.0,0.0,0.0,0,0,0,0
674700000,47.397609599999996,8.545339,498.334,0.0,0.0,-2.21,-2.81,-0.01,0.0,0.0,0.0,0.0,0,0,0,0
674800000,47.3976076,8.5453353,498.335,0.0,0.0,-2.1599998,-2.75,-0.01,0.0,0.0,0.0,0.0,0,0,0,0
674900000,47.3976057,8.5453317,498.337,0.0,0.0,-2.11,-2.69,-0.01,0.0,0.0,0.0,0.0,0,0,0,0
675000000,47.3976038,8.545328099999999,498.339,0.0,0.0,-2.07,-2.62,-0.01,0.0,0.0,0.0,0.0,0,0,0,0
675100000,47.3976019,8.5453247,498.34,0.0,0.0,-2.03,-2.56,-0.01,0.0,0.0,0.0,0.0,0,0,0,0
675200000,47.3976002,8.545321399999999,498.341,0.0,0.0,-2.0,-2.51,0.0,0.0,0.0,0.0,0.0,0,0,0,0
675300000,47.3975983,8.545318,498.341,0.0,0.0,-1.9599999,-2.45,0.0,0.0,0.0,0.0,0.0,0,0,0,0
675400000,47.3975966,8.5453148,498.341,0.0,0.0,-1.92,-2.3899999,0.0,0.0,0.0,0.0,0.0,0,0,0,0
675500000,47.397594899999994,8.5453116,498.34,0.0,0.0,-1.87,-2.34,0.0,0.0,0.0,0.0,0.0,0,0,0,0
675596000,47.3975933,8.5453086,498.341,0.0,0.0,-1.8199999,-2.29,0.0,0.0,0.0,0.0,0.0,0,0,0,0
675700000,47.3975916,8.5453055,498.341,0.0,0.0,-1.78,-2.23,0.0,0.0,0.0,0.0,0.0,0,0,0,0
675800000,47.39759,8.545302699999999,498.341,0.0,0.0,-1.74,-2.18,0.0,0.0,0.0,0.0,0.0,0,0,0,0
675900000,47.3975884,8.5452997,498.34,0.0,0.0,-1.7099999,-2.1399999,0.0,0.0,0.0,0.0,0.0,0,0,0,0
676000000,47.3975869,8.5452968,498.34,0.0,0.0,-1.68,-2.09,0.0,0.0,0.0,0.0,0.0,0,0,0,0
676100000,47.3975854,8.5452941,498.339,0.0,0.0,-1.63,-2.04,0.0,0.0,0.0,0.0,0.0,0,0,0,0
676200000,47.3975839,8.5452914,498.339,0.0,0.0,-1.5899999,-1.99,0.0,0.0,0.0,0.0,0.0,0,0,0,0
676300000,47.3975825,8.5452888,498.338,0.0,0.0,-1.55,-1.9399999,0.01,0.0,0.0,0.0,0.0,0,0,0,0
676400000,47.3975812,8.545286299999999,498.337,0.0,0.0,-1.52,-1.9,0.01,0.0,0.0,0.0,0.0,0,0,0,0
676500000,47.397579799999995,8.545283699999999,498.334,0.0,0.0,-1.49,-1.86,0.01,0.0,0.0,0.0,0.0,0,0,0,0
676600000,47.397578499999995,8.5452813,498.333,0.0,0.0,-1.4599999,-1.8199999,0.01,0.0,0.0,0.0,0.0,0,0,0,0
676700000,47.3975771,8.5452789,498.331,0.0,0.0,-1.42,-1.77,0.01,0.0,0.0,0.0,0.0,0,0,0,0
676800000,47.3975759,8.5452765,498.329,0.0,0.0,-1.39,-1.73,0.01,0.0,0.0,0.0,0.0,0,0,0,0
676900000,47.3975746,8.5452742,498.327,0.0,0.0,-1.36,-1.6899999,0.02,0.0,0.0,0.0,0.0,0,0,0,0
677000000,47.3975734,8.545271999999999,498.325,0.0,0.0,-1.3299999,-1.65,0.02,0.0,0.0,0.0,0.0,0,0,0,0
677100000,47.3975722,8.5452698,498.321,0.0,0.0,-1.3,-1.61,0.03,0.0,0.0,0.0,0.0,0,0,0,0
677200000,47.397571,8.5452677,498.318,0.0,0.0,-1.27,-1.5699999,0.03,0.0,0.0,0.0,0.0,0,0,0,0
677300000,47.3975699,8.5452656,498.314,0.0,0.0,-1.24,-1.53,0.03,0.0,0.0,0.0,0.0,0,0,0,0
677400000,47.397568799999995,8.5452636,498.311,0.0,0.0,-1.1999999,-1.49,0.03,0.0,0.0,0.0,0.0,0,0,0,0
677500000,47.397567699999996,8.5452616,498.307,0.0,0.0,-1.17,-1.4599999,0.03,0.0,0.0,0.0,0.0,0,0,0,0
677600000,47.3975667,8.5452598,498.303,0.0,0.0,-1.15,-1.42,0.04,0.0,0.0,0.0,0.0,0,0,0,0
677700000,47.3975657,8.5452578,498.298,0.0,0.0,-1.12,-1.38,0.04,0.0,0.0,0.0,0.0,0,0,0,0
677800000,47.3975647,8.5452561,498.293,0.0,0.0,-1.1,-1.35,0.049999997,0.0,0.0,0.0,0.0,0,0,0,0
677900000,47.3975637,8.5452542,498.288,0.0,0.0,-1.0699999,-1.3199999,0.049999997,0.0,0.0,0.0,0.0,0,0,0,0
678000000,47.397562699999995,8.5452526,498.283,0.0,0.0,-1.05,-1.29,0.049999997,0.0,0.0,0.0,0.0,0,0,0,0
678100000,47.3975618,8.5452508,498.277,0.0,0.0,-1.02,-1.26,0.049999997,0.0,0.0,0.0,0.0,0,0,0,0
678200000,47.3975608,8.5452491,498.271,0.0,0.0,-1.0,-1.23,0.06,0.0,0.0,0.0,0.0,0,0,0,0
678300000,47.39756,8.5452475,498.265,0.0,0.0,-0.97999996,-1.1899999,0.06,0.0,0.0,0.0,0.0,0,0,0,0
678400000,47.397559099999995,8.5452459,498.258,0.0,0.0,-0.96,-1.16,0.06,0.0,0.0,0.0,0.0,0,0,0,0
678500000,47.3975582,8.5452444,498.252,0.0,0.0,-0.93,-1.14,0.06,0.0,0.0,0.0,0.0,0,0,0,0
678600000,47.3975574,8.5452429,498.245,0.0,0.0,-0.90999997,-1.11,0.06,0.0,0.0,0.0,0.0,0,0,0,0
678700000,47.397556599999994,8.5452414,498.239,0.0,0.0,-0.89,-1.0799999,0.06,0.0,0.0,0.0,0.0,0,0,0,0
678800000,47.3975558,8.54524,498.233,0.0,0.0,-0.87,-1.05,0.06,0.0,0.0,0.0,0.0,0,0,0,0
678900000,47.397555,8.5452386,498.226,0.0,0.0,-0.84999996,-1.02,0.06,0.0,0.0,0.0,0.0,0,0,0,0
679000000,47.397554199999995,8.5452373,498.22,0.0,0.0,-0.83,-0.98999995,0.049999997,0.0,0.0,0.0,0.0,0,0,0,0
679100000,47.3975535,8.545236,498.215,0.0,0.0,-0.81,-0.96999997,0.049999997,0.0,0.0,0.0,0.0,0,0,0,0
679200000,47.3975528,8.5452347,498.209,0.0,0.0,-0.78999996,-0.94,0.049999997,0.0,0.0,0.0,0.0,0,0,0,0
679300000,47.3975521,8.545233399999999,498.203,0.0,0.0,-0.77,-0.91999996,0.049999997,0.0,0.0,0.0,0.0,0,0,0,0
679400000,47.3975514,8.5452323,498.198,0.0,0.0,-0.75,-0.89,0.049999997,0.0,0.0,0.0,0.0,0,0,0,0
679500000,47.3975507,8.545231,498.193,0.0,0.0,-0.72999996,-0.85999995,0.049999997,0.0,0.0,0.0,0.0,0,0,0,0
679600000,47.3975501,8.545229899999999,498.187,0.0,0.0,-0.71,-0.84,0.049999997,0.0,0.0,0.0,0.0,0,0,0,0
679700000,47.397549399999996,8.5452288,498.181,0.0,0.0,-0.69,-0.81,0.06,0.0,0.0,0.0,0.0,0,0,0,0
679800000,47.397548799999996,8.5452277,498.176,0.0,0.0,-0.66999996,-0.78999996,0.049999997,0.0,0.0,0.0,0.0,0,0,0,0
679900000,47.397548199999996,8.545226699999999,498.17,0.0,0.0,-0.65,-0.77,0.049999997,0.0,0.0,0.0,0.0,0,0,0,0
679996000,47.397547599999996,8.5452257,498.164,0.0,0.0,-0.63,-0.75,0.049999997,0.0,0.0,0.0,0.0,0,0,0,0
680100000,47.3975471,8.5452247,498.158,0.0,0.0,-0.61,-0.71999997,0.049999997,0.0,0.0,0.0,0.0,0,0,0,0
680200000,47.3975465,8.5452237,498.152,0.0,0.0,-0.59,-0.7,0.049999997,0.0,0.0,0.0,0.0,0,0,0,0
680300000,47.397546,8.5452228,498.146,0.0,0.0,-0.58,-0.68,0.049999997,0.0,0.0,0.0,0.0,0,0,0,0
680400000,47.3975455,8.5452219,498.141,0.0,0.0,-0.56,-0.65999997,0.049999997,0.0,0.0,0.0,0.0,0,0,0,0
680500000,47.397545,8.545221,498.135,0.0,0.0,-0.55,-0.64,0.049999997,0.0,0.0,0.0,0.0,0,0,0,0
680600000,47.397544499999995,8.5452202,498.13,0.0,0.0,-0.53,-0.62,0.049999997,0.0,0.0,0.0,0.0,0,0,0,0
680700000,47.397543999999996,8.545219399999999,498.124,0.0,0.0,-0.52,-0.59999996,0.049999997,0.0,0.0,0.0,0.0,0,0,0,0
680800000,47.3975435,8.5452186,498.119,0.0,0.0,-0.5,-0.59,0.04,0.0,0.0,0.0,0.0,0,0,0,0
680900000,47.3975431,8.5452178,498.114,0.0,0.0,-0.45,-0.59,0.04,0.0,0.0,0.0,0.0,0,0,0,0
681000000,47.397542699999995,8.545217,498.111,0.0,0.0,-0.35,-0.62,0.03,0.0,0.0,0.0,0.0,0,0,0,0
681100000,47.3975425,8.5452161,498.107,0.0,0.0,-0.19999999,-0.65,0.02,0.0,0.0,0.0,0.0,0,0,0,0
681200000,47.3975424,8.5452152,498.105,0.0,0.0,0.0,-0.66999996,0.03,0.0,0.0,0.0,0.0,0,0,0,0
681300000,47.3975425,8.5452143,498.101,0.0,0.0,0.22,-0.69,0.04,0.0,0.0,0.0,0.0,0,0,0,0
681400000,47.3975428,8.5452134,498.097,0.0,0.0,0.44,-0.7,0.04,0.0,0.0,0.0,0.0,0,0,0,0
681500000,47.397543299999995,8.5452125,498.092,0.0,0.0,0.64,-0.71,0.04,0.0,0.0,0.0,0.0,0,0,0,0
681600000,47.397543999999996,8.545211499999999,498.087,0.0,0.0,0.81,-0.71999997,0.04,0.0,0.0,0.0,0.0,0,0,0,0
681700000,47.3975448,8.5452105,498.083,0.0,0.0,0.97999996,-0.71999997,0.04,0.0,0.0,0.0,0.0,0,0,0,0
681800000,47.397545699999995,8.5452096,498.078,0.0,0.0,1.14,-0.71,0.04,0.0,0.0,0.0,0.0,0,0,0,0
681900000,47.3975468,8.5452086,498.073,0.0,0.0,1.29,-0.69,0.04,0.0,0.0,0.0,0.0,0,0,0,0
682000000,47.397548099999995,8.545207699999999,498.068,0.0,0.0,1.4399999,-0.66999996,0.049999997,0.0,0.0,0.0,0.0,0,0,0,0
682096000,47.397549299999994,8.5452069,498.063,0.0,0.0,1.56,-0.64,0.049999997,0.0,0.0,0.0,0.0,0,0,0,0
682200000,47.3975508,8.545206,498.057,0.0,0.0,1.68,-0.61,0.06,0.0,0.0,0.0,0.0,0,0,0,0
682300000,47.397552499999996,8.5452052,498.051,0.0,0.0,1.76,-0.57,0.06,0.0,0.0,0.0,0.0,0,0,0,0
682400000,47.397554,8.545204499999999,498.044,0.0,0.0,1.8199999,-0.52,0.06,0.0,0.0,0.0,0.0,0,0,0,0
682500000,47.3975558,8.5452038,498.038,0.0,0.0,1.86,-0.47,0.049999997,0.0,0.0,0.0,0.0,0,0,0,0
682600000,47.3975574,8.5452032,498.032,0.0,0.0,1.86,-0.41,0.06,0.0,0.0,0.0,0.0,0,0,0,0
682700000,47.397559099999995,8.545202699999999,498.026,0.0,0.0,1.8499999,-0.35999998,0.049999997,0.0,0.0,0.0,0.0,0,0,0,0
682800000,47.3975608,8.5452022,498.021,0.0,0.0,1.81,-0.32999998,0.04,0.0,0.0,0.0,0.0,0,0,0,0
682900000,47.3975624,8.5452018,498.017,0.0,0.0,1.75,-0.31,0.04,0.0,0.0,0.0,0.0,0,0,0,0
683000000,47.397563899999994,8.5452014,498.013,0.0,0.0,1.67,-0.29,0.03,0.0,0.0,0.0,0.0,0,0,0,0
683100000,47.3975654,8.545201,498.011,0.0,0.0,1.5899999,-0.28,0.02,0.0,0.0,0.0,0.0,0,0,0,0
683200000,47.3975667,8.5452006,498.008,0.0,0.0,1.51,-0.26999998,0.02,0.0,0.0,0.0,0.0,0,0,0,0
683300000,47.3975681,8.5452002,498.006,0.0,0.0,1.4499999,-0.26,0.01,0.0,0.0,0.0,0.0,0,0,0,0
683400000,47.397569399999995,8.5451999,498.004,0.0,0.0,1.39,-0.24,0.01,0.0,0.0,0.0,0.0,0,0,0,0
683500000,47.397570699999996,8.5451996,498.003,0.0,0.0,1.3399999,-0.22,0.01,0.0,0.0,0.0,0.0,0,0,0,0
683600000,47.397571799999994,8.5451993,498.002,0.0,0.0,1.3,-0.21,0.01,0.0,0.0,0.0,0.0,0,0,0,0
683700000,47.397573,8.545199,498.001,0.0,0.0,1.26,-0.19999999,0.0,0.0,0.0,0.0,0.0,0,0,0,0
683800000,47.3975741,8.5451988,498.0,0.0,0.0,1.22,-0.19999999,0.0,0.0,0.0,0.0,0.0,0,0,0,0
683900000,47.3975752,8.5451985,497.999,0.0,0.0,1.18,-0.19999999,0.0,0.0,0.0,0.0,0.0,0,0,0,0
684000000,47.397576199999996,8.5451982,497.999,0.0,0.0,1.15,-0.19,0.0,0.0,0.0,0.0,0.0,0,0,0,0
684100000,47.397577299999995,8.545198,497.999,0.0,0.0,1.11,-0.17999999,0.0,0.0,0.0,0.0,0.0,0,0,0,0
684200000,47.3975783,8.5451977,497.998,0.0,0.0,1.0799999,-0.17,0.0,0.0,0.0,0.0,0.0,0,0,0,0
684300000,47.3975793,8.5451975,497.998,0.0,0.0,1.05,-0.16,0.0,0.0,0.0,0.0,0.0,0,0,0,0
684400000,47.3975802,8.5451973,497.998,0.0,0.0,1.02,-0.14999999,0.0,0.0,0.0,0.0,0.0,0,0,0,0
684500000,47.3975811,8.5451971,497.999,0.0,0.0,1.0,-0.14999999,0.0,0.0,0.0,0.0,0.0,0,0,0,0
684596000,47.397582,8.545196899999999,498.0,0.0,0.0,0.96999997,-0.14999999,-0.01,0.0,0.0,0.0,0.0,0,0,0,0
684700000,47.397582899999996,8.5451967,498.001,0.0,0.0,0.95,-0.14,-0.01,0.0,0.0,0.0,0.0,0,0,0,0
684800000,47.3975837,8.5451965,498.003,0.0,0.0,0.93,-0.14,-0.02,0.0,0.0,0.0,0.0,0,0,0,0
684900000,47.397584599999995,8.545196299999999,498.005,0.0,0.0,0.90999997,-0.13,-0.02,0.0,0.0,0.0,0.0,0,0,0,0
685000000,47.3975854,8.5451961,498.008,0.0,0.0,0.89,-0.13,-0.02,0.0,0.0,0.0,0.0,0,0,0,0
685100000,47.3975862,8.545195999999999,498.01,0.0,0.0,0.87,-0.12,-0.02,0.0,0.0,0.0,0.0,0,0,0,0
685200000,47.3975869,8.5451958,498.013,0.0,0.0,0.84999996,-0.12,-0.02,0.0,0.0,0.0,0.0,0,0,0,0
685300000,47.397587699999995,8.5451956,498.015,0.0,0.0,0.83,-0.12,-0.02,0.0,0.0,0.0,0.0,0,0,0,0
685400000,47.3975884,8.5451955,498.018,0.0,0.0,0.81,-0.11,-0.02,0.0,0.0,0.0,0.0,0,0,0,0
685500000,47.3975892,8.5451953,498.02,0.0,0.0,0.79999995,-0.11,-0.02,0.0,0.0,0.0,0.0,0,0,0,0
685600000,47.3975899,8.5451952,498.022,0.0,0.0,0.78,-0.11,-0.02,0.0,0.0,0.0,0.0,0,0,0,0
685700000,47.3975906,8.545195,498.024,0.0,0.0,0.76,-0.11,-0.01,0.0,0.0,0.0,0.0,0,0,0,0
685800000,47.3975912,8.5451949,498.026,0.0,0.0,0.75,-0.099999994,-0.01,0.0,0.0,0.0,0.0,0,0,0,0
685900000,47.397591899999995,8.5451947,498.028,0.0,0.0,0.72999996,-0.099999994,-0.01,0.0,0.0,0.0,0.0,0,0,0,0
686000000,47.397592599999996,8.5451946,498.029,0.0,0.0,0.71999997,-0.099999994,-0.01,0.0,0.0,0.0,0.0,0,0,0,0
686100000,47.3975933,8.5451944,498.03,0.0,0.0,0.71,-0.089999996,-0.01,0.0,0.0,0.0,0.0,0,0,0,0
686200000,47.3975939,8.5451943,498.032,0.0,0.0,0.7,-0.089999996,-0.01,0.0,0.0,0.0,0.0,0,0,0,0
686300000,47.3975945,8.5451942,498.033,0.0,0.0,0.68,-0.08,-0.01,0.0,0.0,0.0,0.0,0,0,0,0
686400000,47.3975951,8.5451941,498.035,0.0,0.0,0.66999996,-0.08,-0.01,0.0,0.0,0.0,0.0,0,0,0,0
686500000,47.3975957,8.545194,498.036,0.0,0.0,0.65999997,-0.07,-0.01,0.0,0.0,0.0,0.0,0,0,0,0
686600000,47.3975963,8.5451939,498.038,0.0,0.0,0.64,-0.07,-0.01,0.0,0.0,0.0,0.0,0,0,0,0
686700000,47.397596899999996,8.5451938,498.039,0.0,0.0,0.63,-0.06,-0.01,0.0,0.0,0.0,0.0,0,0,0,0
686800000,47.397597499999996,8.5451937,498.041,0.0,0.0,0.62,-0.06,-0.01,0.0,0.0,0.0,0.0,0,0,0,0
686900000,47.397597999999995,8.5451936,498.042,0.0,0.0,0.61,-0.06,-0.01,0.0,0.0,0.0,0.0,0,0,0,0
687000000,47.397598599999995,8.5451935,498.044,0.0,0.0,0.59999996,-0.049999997,0.0,0.0,0.0,0.0,0.0,0,0,0,0
687100000,47.3975991,8.5451934,498.044,0.0,0.0,0.59,-0.049999997,0.0,0.0,0.0,0.0,0.0,0,0,0,0
687200000,47.3975996,8.5451934,498.045,0.0,0.0,0.58,-0.049999997,0.0,0.0,0.0,0.0,0.0,0,0,0,0
687300000,47.3976002,8.5451933,498.044,0.0,0.0,0.58,-0.04,0.0,0.0,0.0,0.0,0.0,0,0,0,0
687400000,47.3976007,8.5451932,498.044,0.0,0.0,0.57,-0.04,0.0,0.0,0.0,0.0,0.0,0,0,0,0
687500000,47.3976012,8.5451932,498.045,0.0,0.0,0.56,-0.04,0.0,0.0,0.0,0.0,0.0,0,0,0,0
687600000,47.397601699999996,8.545193099999999,498.045,0.0,0.0,0.55,-0.04,0.0,0.0,0.0,0.0,0.0,0,0,0,0
687696000,47.397602199999994,8.545193099999999,498.045,0.0,0.0,0.53999996,-0.04,0.0,0.0,0.0,0.0,0.0,0,0,0,0
687800000,47.3976027,8.545193,498.046,0.0,0.0,0.53,-0.04,0.0,0.0,0.0,0.0,0.0,0,0,0,0
687900000,47.3976032,8.5451929,498.046,0.0,0.0,0.53,-0.04,0.0,0.0,0.0,0.0,0.0,0,0,0,0
688000000,47.3976037,8.5451929,498.047,0.0,0.0,0.52,-0.03,0.0,0.0,0.0,0.0,0.0,0,0,0,0
688100000,47.397604099999995,8.545192799999999,498.047,0.0,0.0,0.51,-0.03,0.0,0.0,0.0,0.0,0.0,0,0,0,0
688200000,47.3976046,8.545192799999999,498.048,0.0,0.0,0.5,-0.03,0.0,0.0,0.0,0.0,0.0,0,0,0,0
688300000,47.397605,8.545192799999999,498.049,0.0,0.0,0.48999998,-0.02,-0.01,0.0,0.0,0.0,0.0,0,0,0,0
688400000,47.3976055,8.5451927,498.05,0.0,0.0,0.48999998,-0.02,-0.01,0.0,0.0,0.0,0.0,0,0,0,0
688500000,47.397605899999995,8.5451927,498.051,0.0,0.0,0.48,-0.02,0.0,0.0,0.0,0.0,0.0,0,0,0,0
688600000,47.3976064,8.5451927,498.052,0.0,0.0,0.47,-0.01,-0.01,0.0,0.0,0.0,0.0,0,0,0,0
688700000,47.3976068,8.5451927,498.053,0.0,0.0,0.45999998,-0.01,-0.01,0.0,0.0,0.0,0.0,0,0,0,0
688800000,47.397607199999996,8.5451926,498.055,0.0,0.0,0.45,0.0,-0.01,0.0,0.0,0.0,0.0,0,0,0,0
688900000,47.3976076,8.5451926,498.057,0.0,0.0,0.44,0.0,-0.02,0.0,0.0,0.0,0.0,0,0,0,0
689000000,47.397608,8.5451926,498.059,0.0,0.0,0.42999998,0.0,-0.02,0.0,0.0,0.0,0.0,0,0,0,0
689100000,47.397608399999996,8.5451926,498.061,0.0,0.0,0.42999998,0.0,-0.02,0.0,0.0,0.0,0.0,0,0,0,0
689200000,47.3976088,8.5451926,498.065,0.0,0.0,0.42,0.0,-0.03,0.0,0.0,0.0,0.0,0,0,0,0
689300000,47.3976092,8.5451926,498.069,0.0,0.0,0.42,-0.01,-0.04,0.0,0.0,0.0,0.0,0,0,0,0
689400000,47.397609599999996,8.5451926,498.073,0.0,0.0,0.45,-0.01,-0.04,0.0,0.0,0.0,0.0,0,0,0,0
689500000,47.39761,8.5451926,498.078,0.0,0.0,0.51,-0.01,-0.049999997,0.0,0.0,0.0,0.0,0,0,0,0
689600000,47.3976105,8.545192499999999,498.084,0.0,0.0,0.61,-0.01,-0.049999997,0.0,0.0,0.0,0.0,0,0,0,0
689700000,47.3976111,8.545192499999999,498.089,0.0,0.0,0.75,0.0,-0.049999997,0.0,0.0,0.0,0.0,0,0,0,0
689800000,47.3976119,8.545192499999999,498.094,0.0,0.0,0.93,0.0,-0.04,0.0,0.0,0.0,0.0,0,0,0,0
689900000,47.3976128,8.545192499999999,498.098,0.0,0.0,1.12,0.0,-0.03,0.0,0.0,0.0,0.0,0,0,0,0
690000000,47.397613899999996,8.545192499999999,498.101,0.0,0.0,1.31,0.0,-0.03,0.0,0.0,0.0,0.0,0,0,0,0
690100000,47.397615099999996,8.545192499999999,498.105,0.0,0.0,1.5,0.0,-0.03,0.0,0.0,0.0,0.0,0,0,0,0
690200000,47.3976166,8.545192499999999,498.108,0.0,0.0,1.6899999,0.0,-0.03,0.0,0.0,0.0,0.0,0,0,0,0
690300000,47.3976183,8.545192499999999,498.112,0.0,0.0,1.87,0.0,-0.03,0.0,0.0,0.0,0.0,0,0,0,0
690400000,47.397619999999996,8.545192499999999,498.115,0.0,0.0,2.05,0.0,-0.03,0.0,0.0,0.0,0.0,0,0,0,0
690500000,47.397622,8.545192499999999,498.118,0.0,0.0,2.22,0.0,-0.01,0.0,0.0,0.0,0.0,0,0,0,0
690600000,47.397624099999994,8.545192499999999,498.119,0.0,0.0,2.3799999,0.0,0.0,0.0,0.0,0.0,0.0,0,0,0,0
690700000,47.3976263,8.545192499999999,498.119,0.0,0.0,2.51,0.01,0.0,0.0,0.0,0.0,0.0,0,0,0,0
690800000,47.397628499999996,8.5451926,498.118,0.0,0.0,2.59,0.01,0.0,0.0,0.0,0.0,0.0,0,0,0,0
690900000,47.397630899999996,8.5451926,498.117,0.0,0.0,2.6299999,0.01,0.0,0.0,0.0,0.0,0.0,0,0,0,0
691000000,47.3976332,8.5451926,498.116,0.0,0.0,2.62,0.02,0.01,0.0,0.0,0.0,0.0,0,0,0,0
691100000,47.397635699999995,8.5451927,498.115,0.0,0.0,2.58,0.02,0.01,0.0,0.0,0.0,0.0,0,0,0,0
691200000,47.397638,8.5451927,498.114,0.0,0.0,2.51,0.02,0.0,0.0,0.0,0.0,0.0,0,0,0,0
691300000,47.3976402,8.5451927,498.114,0.0,0.0,2.4099998,0.03,0.0,0.0,0.0,0.0,0.0,0,0,0,0
691400000,47.3976423,8.545192799999999,498.115,0.0,0.0,2.3,0.03,-0.01,0.0,0.0,0.0,0.0,0,0,0,0
691500000,47.397644299999996,8.545192799999999,498.116,0.0,0.0,2.19,0.03,-0.01,0.0,0.0,0.0,0.0,0,0,0,0
691600000,47.3976462,8.5451929,498.118,0.0,0.0,2.11,0.03,-0.01,0.0,0.0,0.0,0.0,0,0,0,0
691700000,47.3976481,8.5451929,498.12,0.0,0.0,2.04,0.04,-0.01,0.0,0.0,0.0,0.0,0,0,0,0
691800000,47.39765,8.545193,498.122,0.0,0.0,1.9799999,0.04,-0.01,0.0,0.0,0.0,0.0,0,0,0,0
691900000,47.3976517,8.545193,498.123,0.0,0.0,1.93,0.04,-0.01,0.0,0.0,0.0,0.0,0,0,0,0
692000000,47.397653399999996,8.545193099999999,498.125,0.0,0.0,1.87,0.04,-0.01,0.0,0.0,0.0,0.0,0,0,0,0
692100000,47.397655099999994,8.545193099999999,498.127,0.0,0.0,1.8199999,0.04,-0.02,0.0,0.0,0.0,0.0,0,0,0,0
692200000,47.3976567,8.5451932,498.129,0.0,0.0,1.77,0.04,-0.01,0.0,0.0,0.0,0.0,0,0,0,0
692300000,47.397658299999996,8.5451933,498.131,0.0,0.0,1.73,0.04,-0.02,0.0,0.0,0.0,0.0,0,0,0,0
692400000,47.3976599,8.5451933,498.133,0.0,0.0,1.6899999,0.04,-0.01,0.0,0.0,0.0,0.0,0,0,0,0
692500000,47.3976614,8.5451934,498.135,0.0,0.0,1.65,0.04,-0.01,0.0,0.0,0.0,0.0,0,0,0,0
692600000,47.3976629,8.5451934,498.136,0.0,0.0,1.62,0.049999997,-0.01,0.0,0.0,0.0,0.0,0,0,0,0
692700000,47.397664299999995,8.5451935,498.138,0.0,0.0,1.5799999,0.049999997,-0.01,0.0,0.0,0.0,0.0,0,0,0,0
692800000,47.3976657,8.5451936,498.139,0.0,0.0,1.55,0.049999997,-0.01,0.0,0.0,0.0,0.0,0,0,0,0
692900000,47.3976671,8.5451937,498.141,0.0,0.0,1.52,0.049999997,-0.01,0.0,0.0,0.0,0.0,0,0,0,0
693000000,47.397668499999995,8.5451937,498.142,0.0,0.0,1.48,0.049999997,-0.01,0.0,0.0,0.0,0.0,0,0,0,0
693100000,47.397669799999996,8.5451938,498.144,0.0,0.0,1.4499999,0.049999997,-0.01,0.0,0.0,0.0,0.0,0,0,0,0
693200000,47.3976711,8.5451939,498.145,0.0,0.0,1.42,0.049999997,-0.01,0.0,0.0,0.0,0.0,0,0,0,0
693300000,47.3976724,8.5451939,498.147,0.0,0.0,1.39,0.049999997,-0.01,0.0,0.0,0.0,0.0,0,0,0,0
693400000,47.3976736,8.545194,498.149,0.0,0.0,1.36,0.049999997,-0.02,0.0,0.0,0.0,0.0,0,0,0,0
693500000,47.3976748,8.5451941,498.151,0.0,0.0,1.3299999,0.049999997,-0.02,0.0,0.0,0.0,0.0,0,0,0,0
693600000,47.397676,8.5451941,498.154,0.0,0.0,1.31,0.049999997,-0.02,0.0,0.0,0.0,0.0,0,0,0,0
693700000,47.3976772,8.5451942,498.156,0.0,0.0,1.28,0.049999997,-0.02,0.0,0.0,0.0,0.0,0,0,0,0
693800000,47.397678299999995,8.5451943,498.158,0.0,0.0,1.25,0.04,-0.02,0.0,0.0,0.0,0.0,0,0,0,0
693900000,47.397679499999995,8.5451943,498.16,0.0,0.0,1.23,0.04,-0.01,0.0,0.0,0.0,0.0,0,0,0,0
693996000,47.3976805,8.5451944,498.162,0.0,0.0,1.1999999,0.04,-0.02,0.0,0.0,0.0,0.0,0,0,0,0
694100000,47.3976816,8.5451945,498.164,0.0,0.0,1.17,0.049999997,-0.02,0.0,0.0,0.0,0.0,0,0,0,0
694200000,47.3976827,8.5451946,498.166,0.0,0.0,1.15,0.049999997,-0.01,0.0,0.0,0.0,0.0,0,0,0,0
694300000,47.397683699999995,8.5451946,498.168,0.0,0.0,1.12,0.049999997,-0.01,0.0,0.0,0.0,0.0,0,0,0,0
694400000,47.3976847,8.5451947,498.17,0.0,0.0,1.09,0.049999997,-0.01,0.0,0.0,0.0,0.0,0,0,0,0
694500000,47.3976857,8.545194799999999,498.171,0.0,0.0,1.0699999,0.049999997,-0.01,0.0,0.0,0.0,0.0,0,0,0,0
694600000,47.3976866,8.545194799999999,498.173,0.0,0.0,1.04,0.049999997,-0.01,0.0,0.0,0.0,0.0,0,0,0,0
694696000,47.397687499999996,8.5451949,498.175,0.0,0.0,1.02,0.049999997,-0.02,0.0,0.0,0.0,0.0,0,0,0,0
694800000,47.3976885,8.545195,498.177,0.0,0.0,0.98999995,0.049999997,-0.01,0.0,0.0,0.0,0.0,0,0,0,0
694900000,47.3976894,8.545195,498.179,0.0,0.0,0.96999997,0.049999997,-0.01,0.0,0.0,0.0,0.0,0,0,0,0
695000000,47.3976902,8.545195099999999,498.18,0.0,0.0,0.94,0.049999997,-0.01,0.0,0.0,0.0,0.0,0,0,0,0
695100000,47.397691099999996,8.5451952,498.181,0.0,0.0,0.91999996,0.04,0.0,0.0,0.0,0.0,0.0,0,0,0,0
695200000,47.3976919,8.5451952,498.182,0.0,0.0,0.9,0.04,-0.01,0.0,0.0,0.0,0.0,0,0,0,0
695296000,47.3976927,8.5451953,498.183,0.0,0.0,0.88,0.04,0.0,0.0,0.0,0.0,0.0,0,0,0,0
695396000,47.397693499999995,8.545195399999999,498.183,0.0,0.0,0.85999995,0.04,0.0,0.0,0.0,0.0,0.0,0,0,0,0
695500000,47.3976943,8.545195399999999,498.184,0.0,0.0,0.83,0.04,0.0,0.0,0.0,0.0,0.0,0,0,0,0
695600000,47.397695,8.5451955,498.184,0.0,0.0,0.81,0.04,0.0,0.0,0.0,0.0,0.0,0,0,0,0
695700000,47.3976957,8.5451956,498.183,0.0,0.0,0.78999996,0.04,0.0,0.0,0.0,0.0,0.0,0,0,0,0
695800000,47.3976964,8.5451956,498.183,0.0,0.0,0.77,0.04,0.0,0.0,0.0,0.0,0.0,0,0,0,0
695900000,47.397697099999995,8.545195699999999,498.182,0.0,0.0,0.75,0.04,0.0,0.0,0.0,0.0,0.0,0,0,0,0
696000000,47.397697799999996,8.545195699999999,498.182,0.0,0.0,0.72999996,0.03,0.0,0.0,0.0,0.0,0.0,0,0,0,0
696100000,47.397698399999996,8.5451958,498.181,0.0,0.0,0.71,0.03,0.0,0.0,0.0,0.0,0.0,0,0,0,0
696196000,47.397698999999996,8.5451958,498.181,0.0,0.0,0.69,0.03,0.0,0.0,0.0,0.0,0.0,0,0,0,0
696300000,47.3976997,8.5451959,498.181,0.0,0.0,0.66999996,0.03,0.0,0.0,0.0,0.0,0.0,0,0,0,0
696400000,47.3977003,8.5451959,498.181,0.0,0.0,0.65,0.03,0.0,0.0,0.0,0.0,0.0,0,0,0,0
696500000,47.397700799999996,8.545195999999999,498.181,0.0,0.0,0.63,0.03,0.0,0.0,0.0,0.0,0.0,0,0,0,0
696600000,47.397701399999995,8.545195999999999,498.181,0.0,0.0,0.62,0.04,0.0,0.0,0.0,0.0,0.0,0,0,0,0
696700000,47.397701999999995,8.5451961,498.182,0.0,0.0,0.64,0.06,-0.01,0.0,0.0,0.0,0.0,0,0,0,0
696800000,47.397702599999995,8.5451962,498.184,0.0,0.0,0.71,0.08,-0.02,0.0,0.0,0.0,0.0,0,0,0,0
696900000,47.397703299999996,8.545196299999999,498.187,0.0,0.0,0.84999996,0.11,-0.02,0.0,0.0,0.0,0.0,0,0,0,0
697000000,47.3977042,8.5451965,498.189,0.0,0.0,1.05,0.14999999,-0.01,0.0,0.0,0.0,0.0,0,0,0,0
697100000,47.3977052,8.5451967,498.19,0.0,0.0,1.28,0.19,0.0,0.0,0.0,0.0,0.0,0,0,0,0
697200000,47.3977065,8.545197,498.191,0.0,0.0,1.52,0.22,0.0,0.0,0.0,0.0,0.0,0,0,0,0
697300000,47.3977079,8.5451973,498.191,0.0,0.0,1.74,0.26,0.0,0.0,0.0,0.0,0.0,0,0,0,0
697400000,47.3977096,8.5451977,498.191,0.0,0.0,1.9599999,0.29,0.0,0.0,0.0,0.0,0.0,0,0,0,0
697500000,47.3977115,8.5451981,498.191,0.0,0.0,2.1699998,0.32,0.0,0.0,0.0,0.0,0.0,0,0,0,0
697600000,47.397713599999996,8.545198599999999,498.191,0.0,0.0,2.3799999,0.35999998,0.0,0.0,0.0,0.0,0.0,0,0,0,0
697700000,47.3977158,8.5451991,498.191,0.0,0.0,2.58,0.39,0.0,0.0,0.0,0.0,0.0,0,0,0,0
697800000,47.3977183,8.5451997,498.19,0.0,0.0,2.79,0.42999998,0.0,0.0,0.0,0.0,0.0,0,0,0,0
697900000,47.397720899999996,8.5452002,498.19,0.0,0.0,3.0,0.45999998,0.0,0.0,0.0,0.0,0.0,0,0,0,0
697996000,47.3977236,8.5452009,498.189,0.0,0.0,3.1899998,0.48999998,0.01,0.0,0.0,0.0,0.0,0,0,0,0
698100000,47.3977267,8.5452016,498.187,0.0,0.0,3.3999999,0.53,0.01,0.0,0.0,0.0,0.0,0,0,0,0
698200000,47.397729899999995,8.5452023,498.186,0.0,0.0,3.6,0.57,0.01,0.0,0.0,0.0,0.0,0,0,0,0
698300000,47.3977332,8.5452031,498.184,0.0,0.0,3.79,0.59999996,0.01,0.0,0.0,0.0,0.0,0,0,0,0
698400000,47.397736599999995,8.545203899999999,498.182,0.0,0.0,3.9599998,0.64,0.02,0.0,0.0,0.0,0.0,0,0,0,0
698500000,47.3977402,8.5452048,498.178,0.0,0.0,4.0899997,0.68,0.03,0.0,0.0,0.0,0.0,0,0,0,0
698600000,47.3977441,8.5452058,498.174,0.0,0.0,4.19,0.71999997,0.03,0.0,0.0,0.0,0.0,0,0,0,0
698700000,47.3977479,8.545206799999999,498.17,0.0,0.0,4.24,0.76,0.03,0.0,0.0,0.0,0.0,0,0,0,0
698796000,47.3977516,8.5452078,498.167,0.0,0.0,4.24,0.78999996,0.02,0.0,0.0,0.0,0.0,0,0,0,0
698900000,47.3977554,8.5452088,498.165,0.0,0.0,4.22,0.79999995,0.0,0.0,0.0,0.0,0.0,0,0,0,0
699000000,47.397759199999996,8.5452099,498.165,0.0,0.0,4.19,0.81,0.0,0.0,0.0,0.0,0.0,0,0,0,0
699096000,47.397763,8.545211,498.166,0.0,0.0,4.18,0.81,0.0,0.0,0.0,0.0,0.0,0,0,0,0
699200000,47.3977669,8.545212099999999,498.166,0.0,0.0,4.18,0.81,0.0,0.0,0.0,0.0,0.0,0,0,0,0
699300000,47.397770699999995,8.5452132,498.166,0.0,0.0,4.2,0.82,0.0,0.0,0.0,0.0,0.0,0,0,0,0
699400000,47.3977745,8.5452143,498.165,0.0,0.0,4.2,0.83,0.0,0.0,0.0,0.0,0.0,0,0,0,0
699500000,47.3977783,8.5452154,498.165,0.0,0.0,4.19,0.83,0.0,0.0,0.0,0.0,0.0,0,0,0,0
699600000,47.3977819,8.5452165,498.166,0.0,0.0,4.17,0.83,-0.01,0.0,0.0,0.0,0.0,0,0,0,0
699700000,47.3977858,8.545217599999999,498.168,0.0,0.0,4.16,0.83,-0.01,0.0,0.0,0.0,0.0,0,0,0,0
699796000,47.3977894,8.5452187,498.169,0.0,0.0,4.15,0.84,-0.01,0.0,0.0,0.0,0.0,0,0,0,0
699900000,47.3977933,8.5452199,498.17,0.0,0.0,4.15,0.84,0.0,0.0,0.0,0.0,0.0,0,0,0,0
700000000,47.397797,8.545221,498.171,0.0,0.0,4.16,0.84,0.0,0.0,0.0,0.0,0.0,0,0,0,0
700100000,47.3978008,8.5452222,498.172,0.0,0.0,4.16,0.84999996,0.0,0.0,0.0,0.0,0.0,0,0,0,0
700200000,47.3978044,8.545223199999999,498.173,0.0,0.0,4.15,0.84999996,-0.01,0.0,0.0,0.0,0.0,0,0,0,0
700300000,47.3978083,8.5452244,498.174,0.0,0.0,4.15,0.84999996,-0.01,0.0,0.0,0.0,0.0,0,0,0,0
700400000,47.397811999999995,8.5452256,498.175,0.0,0.0,4.14,0.84999996,-0.01,0.0,0.0,0.0,0.0,0,0,0,0
700500000,47.3978158,8.545226699999999,498.176,0.0,0.0,4.14,0.84999996,0.0,0.0,0.0,0.0,0.0,0,0,0,0
700600000,47.3978195,8.5452278,498.177,0.0,0.0,4.15,0.84999996,0.0,0.0,0.0,0.0,0.0,0,0,0,0
700700000,47.3978233,8.545228999999999,498.177,0.0,0.0,4.15,0.84999996,0.0,0.0,0.0,0.0,0.0,0,0,0,0
700800000,47.397827,8.5452301,498.178,0.0,0.0,4.15,0.84999996,0.0,0.0,0.0,0.0,0.0,0,0,0,0
700900000,47.3978308,8.5452313,498.178,0.0,0.0,4.15,0.85999995,0.0,0.0,0.0,0.0,0.0,0,0,0,0
701000000,47.397834499999995,8.5452324,498.177,0.0,0.0,4.15,0.85999995,0.0,0.0,0.0,0.0,0.0,0,0,0,0
701100000,47.397838199999995,8.5452336,498.177,0.0,0.0,4.15,0.85999995,0.0,0.0,0.0,0.0,0.0,0,0,0,0
701200000,47.397841799999995,8.5452347,498.176,0.0,0.0,4.15,0.85999995,0.01,0.0,0.0,0.0,0.0,0,0,0,0
701300000,47.3978456,8.5452358,498.175,0.0,0.0,4.15,0.85999995,0.01,0.0,0.0,0.0,0.0,0,0,0,0
701400000,47.3978495,8.545237,498.172,0.0,0.0,4.14,0.85999995,0.03,0.0,0.0,0.0,0.0,0,0,0,0
701500000,47.3978532,8.5452382,498.168,0.0,0.0,4.11,0.85999995,0.04,0.0,0.0,0.0,0.0,0,0,0,0
701600000,47.3978568,8.5452393,498.164,0.0,0.0,4.0499997,0.85999995,0.03,0.0,0.0,0.0,0.0,0,0,0,0
701700000,47.3978605,8.5452405,498.161,0.0,0.0,3.9599998,0.84999996,0.02,0.0,0.0,0.0,0.0,0,0,0,0
701800000,47.3978641,8.545241599999999,498.159,0.0,0.0,3.86,0.84,0.01,0.0,0.0,0.0,0.0,0,0,0,0
701900000,47.3978675,8.5452427,498.157,0.0,0.0,3.77,0.82,0.01,0.0,0.0,0.0,0.0,0,0,0,0
702000000,47.3978709,8.5452438,498.155,0.0,0.0,3.6799998,0.81,0.02,0.0,0.0,0.0,0.0,0,0,0,0
702100000,47.397874099999996,8.5452449,498.153,0.0,0.0,3.59,0.79999995,0.02,0.0,0.0,0.0,0.0,0,0,0,0
702200000,47.3978773,8.5452459,498.151,0.0,0.0,3.51,0.78,0.02,0.0,0.0,0.0,0.0,0,0,0,0
702300000,47.3978805,8.545247,498.149,0.0,0.0,3.4199998,0.76,0.01,0.0,0.0,0.0,0.0,0,0,0,0
702400000,47.3978835,8.545247999999999,498.148,0.0,0.0,3.32,0.74,0.01,0.0,0.0,0.0,0.0,0,0,0,0
702500000,47.3978865,8.545249,498.146,0.0,0.0,3.23,0.71999997,0.01,0.0,0.0,0.0,0.0,0,0,0,0
702600000,47.397889199999995,8.5452499,498.145,0.0,0.0,3.1499999,0.7,0.0,0.0,0.0,0.0,0.0,0,0,0,0
702696000,47.3978919,8.5452508,498.144,0.0,0.0,3.08,0.69,0.0,0.0,0.0,0.0,0.0,0,0,0,0
702796000,47.397894799999996,8.5452517,498.144,0.0,0.0,3.0,0.66999996,0.0,0.0,0.0,0.0,0.0,0,0,0,0
702900000,47.3978976,8.545252699999999,498.144,0.0,0.0,2.9199998,0.65999997,0.0,0.0,0.0,0.0,0.0,0,0,0,0
703000000,47.397900199999995,8.5452535,498.144,0.0,0.0,2.85,0.65,0.0,0.0,0.0,0.0,0.0,0,0,0,0
703100000,47.397902599999995,8.5452544,498.144,0.0,0.0,2.78,0.64,0.0,0.0,0.0,0.0,0.0,0,0,0,0
703200000,47.397905099999996,8.5452552,498.144,0.0,0.0,2.71,0.62,0.0,0.0,0.0,0.0,0.0,0,0,0,0
703300000,47.397907599999996,8.5452561,498.144,0.0,0.0,2.6499999,0.61,0.0,0.0,0.0,0.0,0.0,0,0,0,0
703400000,47.397909999999996,8.5452569,498.144,0.0,0.0,2.58,0.59,0.0,0.0,0.0,0.0,0.0,0,0,0,0
703500000,47.397912299999994,8.545257699999999,498.144,0.0,0.0,2.51,0.58,0.0,0.0,0.0,0.0,0.0,0,0,0,0
703600000,47.3979145,8.5452584,498.144,0.0,0.0,2.45,0.56,0.0,0.0,0.0,0.0,0.0,0,0,0,0
703700000,47.397916699999996,8.5452592,498.144,0.0,0.0,2.3899999,0.55,0.0,0.0,0.0,0.0,0.0,0,0,0,0
703796000,47.3979188,8.5452599,498.144,0.0,0.0,2.33,0.53,0.0,0.0,0.0,0.0,0.0,0,0,0,0
703900000,47.397920899999995,8.545260599999999,498.144,0.0,0.0,2.27,0.52,0.0,0.0,0.0,0.0,0.0,0,0,0,0
704000000,47.3979229,8.545261199999999,498.144,0.0,0.0,2.21,0.5,0.0,0.0,0.0,0.0,0.0,0,0,0,0
704100000,47.3979249,8.5452619,498.143,0.0,0.0,2.1499999,0.48999998,0.0,0.0,0.0,0.0,0.0,0,0,0,0
704200000,47.3979268,8.5452626,498.143,0.0,0.0,2.09,0.48,0.0,0.0,0.0,0.0,0.0,0,0,0,0
704300000,47.3979287,8.545263199999999,498.142,0.0,0.0,2.04,0.47,0.0,0.0,0.0,0.0,0.0,0,0,0,0
704400000,47.3979305,8.5452639,498.141,0.0,0.0,1.9799999,0.45,0.0,0.0,0.0,0.0,0.0,0,0,0,0
704500000,47.3979323,8.5452645,498.14,0.0,0.0,1.93,0.44,0.01,0.0,0.0,0.0,0.0,0,0,0,0
704600000,47.3979339,8.545264999999999,498.14,0.0,0.0,1.87,0.42,0.0,0.0,0.0,0.0,0.0,0,0,0,0
704700000,47.3979357,8.5452656,498.139,0.0,0.0,1.8199999,0.41,0.0,0.0,0.0,0.0,0.0,0,0,0,0
704800000,47.397937299999995,8.5452661,498.138,0.0,0.0,1.77,0.39999998,0.0,0.0,0.0,0.0,0.0,0,0,0,0
704900000,47.3979389,8.545266699999999,498.138,0.0,0.0,1.7199999,0.39,0.0,0.0,0.0,0.0,0.0,0,0,0,0
705000000,47.397940299999995,8.5452672,498.138,0.0,0.0,1.67,0.38,0.0,0.0,0.0,0.0,0.0,0,0,0,0
705100000,47.3979419,8.5452677,498.138,0.0,0.0,1.62,0.37,0.0,0.0,0.0,0.0,0.0,0,0,0,0
705200000,47.397943299999994,8.545268199999999,498.137,0.0,0.0,1.5699999,0.35,0.0,0.0,0.0,0.0,0.0,0,0,0,0
705300000,47.3979447,8.5452687,498.136,0.0,0.0,1.53,0.34,0.0,0.0,0.0,0.0,0.0,0,0,0,0
705400000,47.3979461,8.545269099999999,498.136,0.0,0.0,1.48,0.32999998,0.0,0.0,0.0,0.0,0.0,0,0,0,0
705500000,47.3979474,8.5452696,498.135,0.0,0.0,1.4399999,0.32,0.0,0.0,0.0,0.0,0.0,0,0,0,0
705600000,47.3979486,8.54527,498.134,0.0,0.0,1.4,0.31,0.0,0.0,0.0,0.0,0.0,0,0,0,0
705700000,47.3979499,8.5452704,498.134,0.0,0.0,1.36,0.29999998,0.0,0.0,0.0,0.0,0.0,0,0,0,0
705800000,47.3979511,8.545270799999999,498.133,0.0,0.0,1.31,0.29,0.01,0.0,0.0,0.0,0.0,0,0,0,0
705900000,47.3979523,8.5452712,498.132,0.0,0.0,1.27,0.29,0.0,0.0,0.0,0.0,0.0,0,0,0,0
706000000,47.3979534,8.5452716,498.131,0.0,0.0,1.22,0.28,0.0,0.0,0.0,0.0,0.0,0,0,0,0
706100000,47.3979545,8.5452719,498.132,0.0,0.0,1.18,0.26999998,0.0,0.0,0.0,0.0,0.0,0,0,0,0
706200000,47.397955599999996,8.545272299999999,498.131,0.0,0.0,1.14,0.26,0.0,0.0,0.0,0.0,0.0,0,0,0,0
706300000,47.3979566,8.5452727,498.131,0.0,0.0,1.11,0.26,0.0,0.0,0.0,0.0,0.0,0,0,0,0
706400000,47.3979576,8.545273,498.13,0.0,0.0,1.0699999,0.25,0.0,0.0,0.0,0.0,0.0,0,0,0,0
706500000,47.397958499999994,8.5452733,498.13,0.0,0.0,1.04,0.24,0.0,0.0,0.0,0.0,0.0,0,0,0,0
706600000,47.3979594,8.5452736,498.13,0.0,0.0,1.0,0.22999999,0.0,0.0,0.0,0.0,0.0,0,0,0,0
706696000,47.3979603,8.545274,498.13,0.0,0.0,0.96999997,0.22999999,0.0,0.0,0.0,0.0,0.0,0,0,0,0
706800000,47.3979612,8.545274299999999,498.13,0.0,0.0,0.94,0.22,0.0,0.0,0.0,0.0,0.0,0,0,0,0
706900000,47.397962,8.545274599999999,498.131,0.0,0.0,0.90999997,0.21,0.0,0.0,0.0,0.0,0.0,0,0,0,0
707000000,47.397962899999996,8.545274899999999,498.132,0.0,0.0,0.88,0.21,0.0,0.0,0.0,0.0,0.0,0,0,0,0
707100000,47.3979636,8.5452751,498.132,0.0,0.0,0.84999996,0.19999999,0.0,0.0,0.0,0.0,0.0,0,0,0,0
707200000,47.3979644,8.5452754,498.133,0.0,0.0,0.82,0.19999999,0.0,0.0,0.0,0.0,0.0,0,0,0,0
707300000,47.3979651,8.5452757,498.133,0.0,0.0,0.79999995,0.19,0.0,0.0,0.0,0.0,0.0,0,0,0,0
707400000,47.397965799999994,8.5452759,498.134,0.0,0.0,0.77,0.17999999,0.0,0.0,0.0,0.0,0.0,0,0,0,0
707500000,47.397966499999995,8.5452762,498.135,0.0,0.0,0.74,0.17999999,0.0,0.0,0.0,0.0,0.0,0,0,0,0
707600000,47.3979672,8.545276399999999,498.136,0.0,0.0,0.71999997,0.17,0.0,0.0,0.0,0.0,0.0,0,0,0,0
707700000,47.397967799999996,8.545276699999999,498.137,0.0,0.0,0.69,0.17,-0.01,0.0,0.0,0.0,0.0,0,0,0,0
707800000,47.397968399999996,8.5452769,498.138,0.0,0.0,0.65,0.17999999,-0.01,0.0,0.0,0.0,0.0,0,0,0,0
707900000,47.397968999999996,8.5452771,498.141,0.0,0.0,0.56,0.17999999,-0.02,0.0,0.0,0.0,0.0,0,0,0,0
708000000,47.3979694,8.5452774,498.144,0.0,0.0,0.41,0.19999999,-0.03,0.0,0.0,0.0,0.0,0,0,0,0
708100000,47.3979697,8.5452777,498.147,0.0,0.0,0.21,0.19999999,-0.03,0.0,0.0,0.0,0.0,0,0,0,0
708200000,47.3979698,8.545278,498.15,0.0,0.0,0.01,0.21,-0.02,0.0,0.0,0.0,0.0,0,0,0,0
708300000,47.3979697,8.5452782,498.152,0.0,0.0,-0.17999999,0.21,-0.01,0.0,0.0,0.0,0.0,0,0,0,0
708400000,47.397969499999995,8.5452785,498.154,0.0,0.0,-0.35,0.21,-0.01,0.0,0.0,0.0,0.0,0,0,0,0
708500000,47.3979691,8.5452788,498.156,0.0,0.0,-0.51,0.21,-0.01,0.0,0.0,0.0,0.0,0,0,0,0
708600000,47.3979686,8.5452791,498.157,0.0,0.0,-0.65999997,0.21,0.0,0.0,0.0,0.0,0.0,0,0,0,0
708700000,47.3979679,8.5452794,498.157,0.0,0.0,-0.81,0.21,0.0,0.0,0.0,0.0,0.0,0,0,0,0
708800000,47.397967099999995,8.5452797,498.157,0.0,0.0,-0.96,0.21,0.0,0.0,0.0,0.0,0.0,0,0,0,0
708900000,47.3979662,8.545279899999999,498.156,0.0,0.0,-1.1,0.19999999,0.0,0.0,0.0,0.0,0.0,0,0,0,0
709000000,47.3979651,8.545280199999999,498.156,0.0,0.0,-1.23,0.19999999,0.0,0.0,0.0,0.0,0.0,0,0,0,0
709100000,47.397963999999995,8.5452805,498.155,0.0,0.0,-1.36,0.19999999,0.0,0.0,0.0,0.0,0.0,0,0,0,0
709200000,47.3979626,8.5452808,498.154,0.0,0.0,-1.48,0.19,0.0,0.0,0.0,0.0,0.0,0,0,0,0
709300000,47.3979612,8.545281,498.153,0.0,0.0,-1.5799999,0.17999999,0.01,0.0,0.0,0.0,0.0,0,0,0,0
709400000,47.397959799999995,8.5452813,498.152,0.0,0.0,-1.66,0.17999999,0.01,0.0,0.0,0.0,0.0,0,0,0,0
709500000,47.3979582,8.5452815,498.15,0.0,0.0,-1.7199999,0.17,0.01,0.0,0.0,0.0,0.0,0,0,0,0
709600000,47.3979566,8.5452817,498.149,0.0,0.0,-1.76,0.16,0.01,0.0,0.0,0.0,0.0,0,0,0,0
709696000,47.3979552,8.545281899999999,498.148,0.0,0.0,-1.77,0.14999999,0.01,0.0,0.0,0.0,0.0,0,0,0,0
709800000,47.3979535,8.5452821,498.146,0.0,0.0,-1.75,0.13,0.01,0.0,0.0,0.0,0.0,0,0,0,0
709900000,47.397951899999995,8.5452823,498.145,0.0,0.0,-1.7099999,0.12,0.01,0.0,0.0,0.0,0.0,0,0,0,0
710000000,47.3979504,8.545282499999999,498.144,0.0,0.0,-1.65,0.11,0.0,0.0,0.0,0.0,0.0,0,0,0,0
710100000,47.397948899999996,8.5452826,498.143,0.0,0.0,-1.5799999,0.089999996,0.0,0.0,0.0,0.0,0.0,0,0,0,0
710200000,47.3979475,8.5452827,498.142,0.0,0.0,-1.51,0.08,0.0,0.0,0.0,0.0,0.0,0,0,0,0
710300000,47.3979462,8.545282799999999,498.142,0.0,0.0,-1.4499999,0.08,0.0,0.0,0.0,0.0,0.0,0,0,0,0
710400000,47.3979449,8.5452829,498.141,0.0,0.0,-1.39,0.07,0.0,0.0,0.0,0.0,0.0,0,0,0,0
710500000,47.3979437,8.545283,498.141,0.0,0.0,-1.35,0.07,0.0,0.0,0.0,0.0,0.0,0,0,0,0
710600000,47.3979425,8.545283099999999,498.14,0.0,0.0,-1.31,0.06,0.01,0.0,0.0,0.0,0.0,0,0,0,0
710700000,47.3979413,8.5452832,498.139,0.0,0.0,-1.27,0.049999997,0.0,0.0,0.0,0.0,0.0,0,0,0,0
710800000,47.3979402,8.5452833,498.138,0.0,0.0,-1.23,0.049999997,0.0,0.0,0.0,0.0,0.0,0,0,0,0
710900000,47.397939099999995,8.5452833,498.137,0.0,0.0,-1.1999999,0.04,0.0,0.0,0.0,0.0,0.0,0,0,0,0
711000000,47.397937999999996,8.545283399999999,498.136,0.0,0.0,-1.17,0.03,0.01,0.0,0.0,0.0,0.0,0,0,0,0
711100000,47.3979369,8.545283399999999,498.135,0.0,0.0,-1.13,0.03,0.01,0.0,0.0,0.0,0.0,0,0,0,0
711200000,47.3979359,8.5452835,498.134,0.0,0.0,-1.1,0.03,0.01,0.0,0.0,0.0,0.0,0,0,0,0
711300000,47.397934899999996,8.5452835,498.133,0.0,0.0,-1.0699999,0.02,0.01,0.0,0.0,0.0,0.0,0,0,0,0
711400000,47.397934,8.5452836,498.131,0.0,0.0,-1.05,0.02,0.01,0.0,0.0,0.0,0.0,0,0,0,0
711500000,47.397933099999996,8.5452836,498.13,0.0,0.0,-1.02,0.02,0.01,0.0,0.0,0.0,0.0,0,0,0,0
711600000,47.3979322,8.5452836,498.129,0.0,0.0,-0.98999995,0.02,0.01,0.0,0.0,0.0,0.0,0,0,0,0
711700000,47.397931299999996,8.545283699999999,498.127,0.0,0.0,-0.96999997,0.02,0.01,0.0,0.0,0.0,0.0,0,0,0,0
711800000,47.3979304,8.545283699999999,498.126,0.0,0.0,-0.94,0.02,0.01,0.0,0.0,0.0,0.0,0,0,0,0
711900000,47.3979295,8.545283699999999,498.125,0.0,0.0,-0.91999996,0.02,0.01,0.0,0.0,0.0,0.0,0,0,0,0
712000000,47.3979287,8.5452838,498.123,0.0,0.0,-0.9,0.02,0.01,0.0,0.0,0.0,0.0,0,0,0,0
712100000,47.3979279,8.5452838,498.122,0.0,0.0,-0.88,0.01,0.0,0.0,0.0,0.0,0.0,0,0,0,0
712200000,47.3979271,8.5452838,498.121,0.0,0.0,-0.85999995,0.01,0.0,0.0,0.0,0.0,0.0,0,0,0,0
712300000,47.397926299999995,8.5452838,498.121,0.0,0.0,-0.84,0.01,0.0,0.0,0.0,0.0,0.0,0,0,0,0
712400000,47.3979256,8.5452839,498.12,0.0,0.0,-0.83,0.0,0.0,0.0,0.0,0.0,0.0,0,0,0,0
712500000,47.3979248,8.5452839,498.12,0.0,0.0,-0.81,0.0,0.0,0.0,0.0,0.0,0.0,0,0,0,0
712600000,47.3979241,8.5452839,498.12,0.0,0.0,-0.78999996,0.0,0.0,0.0,0.0,0.0,0.0,0,0,0,0
712700000,47.397923399999996,8.5452839,498.121,0.0,0.0,-0.78,0.0,0.0,0.0,0.0,0.0,0.0,0,0,0,0
712800000,47.397922699999995,8.5452839,498.121,0.0,0.0,-0.76,0.0,0.0,0.0,0.0,0.0,0.0,0,0,0,0
712900000,47.397922,8.5452839,498.122,0.0,0.0,-0.74,0.0,0.0,0.0,0.0,0.0,0.0,0,0,0,0
713000000,47.3979214,8.5452839,498.122,0.0,0.0,-0.72999996,0.0,0.0,0.0,0.0,0.0,0.0,0,0,0,0
713100000,47.3979207,8.5452838,498.123,0.0,0.0,-0.71,0.0,0.0,0.0,0.0,0.0,0.0,0,0,0,0
713200000,47.3979201,8.5452838,498.123,0.0,0.0,-0.7,0.0,0.0,0.0,0.0,0.0,0.0,0,0,0,0
713296000,47.3979195,8.5452838,498.123,0.0,0.0,-0.68,0.0,0.0,0.0,0.0,0.0,0.0,0,0,0,0
713400000,47.3979188,8.5452838,498.124,0.0,0.0,-0.66999996,0.0,0.0,0.0,0.0,0.0,0.0,0,0,0,0
713500000,47.3979182,8.5452838,498.124,0.0,0.0,-0.65999997,0.0,0.0,0.0,0.0,0.0,0.0,0,0,0,0
713600000,47.3979176,8.5452838,498.125,0.0,0.0,-0.64,0.0,0.0,0.0,0.0,0.0,0.0,0,0,0,0
713700000,47.3979171,8.5452838,498.125,0.0,0.0,-0.63,-0.01,0.0,0.0,0.0,0.0,0.0,0,0,0,0
713800000,47.3979165,8.5452838,498.126,0.0,0.0,-0.62,-0.01,0.0,0.0,0.0,0.0,0.0,0,0,0,0
713900000,47.3979159,8.5452838,498.126,0.0,0.0,-0.61,-0.01,0.0,0.0,0.0,0.0,0.0,0,0,0,0
714000000,47.397915399999995,8.545283699999999,498.126,0.0,0.0,-0.59,-0.01,0.0,0.0,0.0,0.0,0.0,0,0,0,0
714100000,47.397914899999996,8.545283699999999,498.127,0.0,0.0,-0.58,-0.01,0.0,0.0,0.0,0.0,0.0,0,0,0,0
714200000,47.3979144,8.545283699999999,498.127,0.0,0.0,-0.57,-0.01,0.0,0.0,0.0,0.0,0.0,0,0,0,0
714300000,47.3979138,8.545283699999999,498.128,0.0,0.0,-0.56,-0.01,0.0,0.0,0.0,0.0,0.0,0,0,0,0
714400000,47.3979133,8.545283699999999,498.128,0.0,0.0,-0.55,-0.01,0.0,0.0,0.0,0.0,0.0,0,0,0,0
714500000,47.3979128,8.5452836,498.128,0.0,0.0,-0.53999996,-0.01,0.0,0.0,0.0,0.0,0.0,0,0,0,0
714596000,47.397912399999996,8.5452836,498.128,0.0,0.0,-0.53,-0.01,0.0,0.0,0.0,0.0,0.0,0,0,0,0
714700000,47.3979119,8.5452836,498.127,0.0,0.0,-0.52,-0.01,0.0,0.0,0.0,0.0,0.0,0,0,0,0
714800000,47.3979114,8.5452836,498.127,0.0,0.0,-0.5,-0.01,0.0,0.0,0.0,0.0,0.0,0,0,0,0
714900000,47.397911,8.5452836,498.127,0.0,0.0,-0.48999998,-0.01,0.0,0.0,0.0,0.0,0.0,0,0,0,0
715000000,47.397910499999995,8.5452835,498.127,0.0,0.0,-0.48,-0.01,0.0,0.0,0.0,0.0,0.0,0,0,0,0
715100000,47.3979101,8.5452835,498.127,0.0,0.0,-0.47,-0.01,0.0,0.0,0.0,0.0,0.0,0,0,0,0
715200000,47.3979096,8.5452835,498.127,0.0,0.0,-0.45999998,-0.01,0.0,0.0,0.0,0.0,0.0,0,0,0,0
715300000,47.3979092,8.5452835,498.127,0.0,0.0,-0.45,-0.01,0.0,0.0,0.0,0.0,0.0,0,0,0,0
715400000,47.397908799999996,8.5452835,498.128,0.0,0.0,-0.44,-0.01,0.0,0.0,0.0,0.0,0.0,0,0,0,0
715500000,47.3979084,8.5452835,498.129,0.0,0.0,-0.42999998,-0.01,-0.01,0.0,0.0,0.0,0.0,0,0,0,0
715600000,47.397908,8.545283399999999,498.13,0.0,0.0,-0.44,-0.01,-0.01,0.0,0.0,0.0,0.0,0,0,0,0
715700000,47.397907599999996,8.545283399999999,498.133,0.0,0.0,-0.48999998,-0.01,-0.02,0.0,0.0,0.0,0.0,0,0,0,0
715800000,47.3979071,8.545283399999999,498.136,0.0,0.0,-0.59,-0.01,-0.03,0.0,0.0,0.0,0.0,0,0,0,0
715900000,47.3979065,8.545283399999999,498.139,0.0,0.0,-0.75,-0.01,-0.03,0.0,0.0,0.0,0.0,0,0,0,0
716000000,47.397905699999995,8.545283399999999,498.142,0.0,0.0,-0.93,-0.01,-0.02,0.0,0.0,0.0,0.0,0,0,0,0
716100000,47.3979048,8.5452833,498.144,0.0,0.0,-1.14,-0.01,-0.02,0.0,0.0,0.0,0.0,0,0,0,0
716200000,47.3979037,8.5452833,498.146,0.0,0.0,-1.3399999,-0.02,-0.01,0.0,0.0,0.0,0.0,0,0,0,0
716296000,47.3979024,8.5452833,498.148,0.0,0.0,-1.53,-0.02,-0.02,0.0,0.0,0.0,0.0,0,0,0,0
716400000,47.397900899999996,8.5452832,498.15,0.0,0.0,-1.73,-0.02,-0.02,0.0,0.0,0.0,0.0,0,0,0,0
716500000,47.3978993,8.5452832,498.153,0.0,0.0,-1.91,-0.02,-0.02,0.0,0.0,0.0,0.0,0,0,0,0
716600000,47.3978974,8.5452832,498.155,0.0,0.0,-2.1,-0.02,-0.02,0.0,0.0,0.0,0.0,0,0,0,0
716700000,47.397895399999996,8.5452832,498.157,0.0,0.0,-2.28,-0.02,-0.01,0.0,0.0,0.0,0.0,0,0,0,0
716800000,47.3978934,8.545283099999999,498.159,0.0,0.0,-2.45,-0.02,-0.01,0.0,0.0,0.0,0.0,0,0,0,0
716900000,47.397891099999995,8.545283099999999,498.16,0.0,0.0,-2.6299999,-0.02,-0.01,0.0,0.0,0.0,0.0,0,0,0,0
717000000,47.3978885,8.545283099999999,498.162,0.0,0.0,-2.8,-0.02,-0.01,0.0,0.0,0.0,0.0,0,0,0,0
717100000,47.3978859,8.545283,498.164,0.0,0.0,-2.96,-0.02,-0.01,0.0,0.0,0.0,0.0,0,0,0,0
717196000,47.3978833,8.545283,498.166,0.0,0.0,-3.12,-0.02,-0.02,0.0,0.0,0.0,0.0,0,0,0,0
717300000,47.3978803,8.545283,498.168,0.0,0.0,-3.29,-0.02,-0.02,0.0,0.0,0.0,0.0,0,0,0,0
717400000,47.397877199999996,8.5452829,498.17,0.0,0.0,-3.46,-0.02,-0.02,0.0,0.0,0.0,0.0,0,0,0,0
717500000,47.397873999999995,8.5452829,498.172,0.0,0.0,-3.6299999,-0.03,-0.01,0.0,0.0,0.0,0.0,0,0,0,0
717600000,47.3978708,8.545282799999999,498.172,0.0,0.0,-3.79,-0.03,0.0,0.0,0.0,0.0,0.0,0,0,0,0
717700000,47.3978672,8.545282799999999,498.171,0.0,0.0,-3.9199998,-0.03,0.01,0.0,0.0,0.0,0.0,0,0,0,0
717800000,47.3978636,8.545282799999999,498.169,0.0,0.0,-4.0099998,-0.03,0.02,0.0,0.0,0.0,0.0,0,0,0,0
717900000,47.397859999999994,8.5452827,498.166,0.0,0.0,-4.0499997,-0.03,0.02,0.0,0.0,0.0,0.0,0,0,0,0
717996000,47.397856399999995,8.5452827,498.165,0.0,0.0,-4.0499997,-0.02,0.0,0.0,0.0,0.0,0.0,0,0,0,0
718100000,47.3978527,8.5452826,498.165,0.0,0.0,-4.0299997,-0.02,0.0,0.0,0.0,0.0,0.0,0,0,0,0
718200000,47.397849,8.5452826,498.166,0.0,0.0,-4.02,-0.02,-0.01,0.0,0.0,0.0,0.0,0,0,0,0
718300000,47.3978454,8.5452826,498.167,0.0,0.0,-4.0299997,-0.02,0.0,0.0,0.0,0.0,0.0,0,0,0,0
718400000,47.3978417,8.545282499999999,498.167,0.0,0.0,-4.0499997,-0.02,0.0,0.0,0.0,0.0,0.0,0,0,0,0
718500000,47.3978381,8.545282499999999,498.167,0.0,0.0,-4.08,-0.02,0.0,0.0,0.0,0.0,0.0,0,0,0,0
718600000,47.397834499999995,8.545282499999999,498.167,0.0,0.0,-4.1,-0.02,0.0,0.0,0.0,0.0,0.0,0,0,0,0
718700000,47.3978307,8.545282499999999,498.167,0.0,0.0,-4.11,-0.01,0.0,0.0,0.0,0.0,0.0,0,0,0,0
718800000,47.3978271,8.5452824,498.167,0.0,0.0,-4.11,-0.01,0.0,0.0,0.0,0.0,0.0,0,0,0,0
718900000,47.3978233,8.5452824,498.167,0.0,0.0,-4.11,-0.01,0.0,0.0,0.0,0.0,0.0,0,0,0,0
719000000,47.3978195,8.5452824,498.167,0.0,0.0,-4.12,-0.01,0.0,0.0,0.0,0.0,0.0,0,0,0,0
719100000,47.3978158,8.5452824,498.167,0.0,0.0,-4.14,-0.01,0.0,0.0,0.0,0.0,0.0,0,0,0,0
719200000,47.397812099999996,8.5452824,498.167,0.0,0.0,-4.15,-0.01,0.0,0.0,0.0,0.0,0.0,0,0,0,0
719300000,47.3978085,8.5452824,498.166,0.0,0.0,-4.16,-0.01,0.0,0.0,0.0,0.0,0.0,0,0,0,0
719400000,47.3978045,8.5452823,498.166,0.0,0.0,-4.16,-0.01,0.0,0.0,0.0,0.0,0.0,0,0,0,0
719500000,47.3978009,8.5452823,498.166,0.0,0.0,-4.17,0.0,0.0,0.0,0.0,0.0,0.0,0,0,0,0
719600000,47.3977972,8.5452823,498.167,0.0,0.0,-4.17,0.0,0.0,0.0,0.0,0.0,0.0,0,0,0,0
719700000,47.3977933,8.5452823,498.166,0.0,0.0,-4.18,0.0,0.0,0.0,0.0,0.0,0.0,0,0,0,0
719800000,47.397789499999995,8.5452823,498.166,0.0,0.0,-4.19,0.0,0.0,0.0,0.0,0.0,0.0,0,0,0,0
719900000,47.3977857,8.5452823,498.166,0.0,0.0,-4.2,0.0,0.0,0.0,0.0,0.0,0.0,0,0,0,0
720000000,47.3977819,8.5452823,498.166,0.0,0.0,-4.2,0.0,0.0,0.0,0.0,0.0,0.0,0,0,0,0
720100000,47.3977781,8.5452823,498.166,0.0,0.0,-4.21,0.0,0.0,0.0,0.0,0.0,0.0,0,0,0,0
720200000,47.397774299999995,8.5452823,498.166,0.0,0.0,-4.21,0.0,0.0,0.0,0.0,0.0,0.0,0,0,0,0
720300000,47.3977705,8.5452823,498.165,0.0,0.0,-4.21,0.0,0.0,0.0,0.0,0.0,0.0,0,0,0,0
720400000,47.3977668,8.5452823,498.165,0.0,0.0,-4.22,0.0,0.01,0.0,0.0,0.0,0.0,0,0,0,0
720500000,47.3977629,8.5452823,498.163,0.0,0.0,-4.23,0.0,0.01,0.0,0.0,0.0,0.0,0,0,0,0
720600000,47.397759,8.5452823,498.162,0.0,0.0,-4.24,0.0,0.01,0.0,0.0,0.0,0.0,0,0,0,0
