timestamp,rollspeed,pitchspeed,yawspeed,rollspeed_integ,pitchspeed_integ,yawspeed_integ,additional_integ1
657300000,-0.0024274515,0.0056263357,-0.0012931572,0.0,0.0,0.0,0.0
657332000,0.0010421601,-0.0032053837,-0.003951492,0.0,0.0,0.0,0.0
657360000,-0.01052623,-0.0035771583,0.0055980245,0.00013834839,1.5153078e-06,-4.5932984e-06,0.0
657392000,0.0015060424,-0.002405163,0.00041984278,0.00039521648,-2.7968097e-05,-2.1536716e-06,0.0
657428000,0.01886879,0.006001277,0.003550557,0.0007017533,-8.753218e-05,-1.9189072e-06,0.0
657456000,-0.0029363683,0.0014111022,-0.010241949,0.0009937633,-0.00011889695,4.1573894e-06,0.0
657488000,0.0021030263,-0.005119369,-0.0031441464,0.0013700032,-0.00014614557,1.176975e-06,0.0
657520000,-0.002230744,0.00086121494,-0.011056485,0.0017537425,-0.0001740073,1.0692227e-05,0.0
657556000,0.00017707545,-0.0031648618,-0.0031060255,0.0021442843,-0.00021100309,2.159439e-05,0.0
657584000,-0.0037827808,0.003930806,-0.010156289,0.0024153881,-0.0002438172,1.4145107e-05,0.0
657616000,0.029002026,0.00060330983,0.0060064383,0.0026858998,-0.0002873336,1.0795011e-05,0.0
657648000,0.11296465,-0.011202933,-0.004914283,0.0028337324,-0.00032036105,1.3756232e-05,0.0
657680000,0.14288373,-0.02310534,0.0028349804,0.0028223423,-0.0003445842,7.796969e-06,0.0
657712000,0.13832161,-0.020551112,-0.004337386,0.0027473408,-0.0003596477,1.1172801e-07,0.0
657744000,0.10563041,-0.025865935,-0.0022418946,0.0026347283,-0.00035941193,-2.3302782e-06,0.0
657776000,0.07389769,-0.031247178,-0.0016698826,0.0025263543,-0.00034831834,-9.336131e-07,0.0
657812000,0.029319469,-0.028019268,-0.0011999751,0.0024173085,-0.00033162336,3.5066234e-06,0.0
657840000,0.004570287,-0.014106283,0.0053126123,0.0023411943,-0.00032206817,6.9143052e-06,0.0
657876000,-0.028744964,-0.017843131,-0.0023641433,0.0022513915,-0.00029888115,7.397355e-06,0.0
657904000,-0.059426006,-0.003457182,-0.0032931753,0.0022060757,-0.00028889463,8.337085e-06,0.0
657940000,-0.06436653,-0.0067823185,0.008500719,0.0021731057,-0.0002699986,3.5358482e-06,0.0
657972000,-0.06108256,0.0031838594,0.0035137662,0.002158922,-0.00026331402,-1.278062e-05,0.0
658000000,-0.060560867,-0.014256295,-0.00783454,0.0021622414,-0.00025824818,-7.78819e-06,0.0
658032000,-0.054687634,-0.0048660245,-0.007985869,0.0021693292,-0.00025068328,-8.0531945e-06,0.0
658064000,-0.037529744,0.0039977403,0.0032947352,0.0021685031,-0.00025313508,-2.124702e-06,0.0
658096000,-0.04261651,0.00406594,0.002347426,0.0021733153,-0.0002592919,-1.1154236e-05,0.0
658128000,-0.04202767,-0.008679631,0.0063361465,0.0021830583,-0.00026198776,-1.6009179e-05,0.0
658160000,-0.029063923,0.009467779,-0.002121943,0.00218971,-0.00024309299,-1.4856344e-05,0.0
658192000,-0.02487415,0.0025057509,-0.0061676097,0.0021987793,-0.00020443264,-1.1407984e-05,0.0
658224000,-0.010592416,0.008466916,0.004681806,0.0022023274,-0.0001667532,-1.4286004e-05,0.0
658260000,-0.018596882,0.011783663,-0.0045447685,0.0021878602,-0.00020502946,-1.968254e-05,0.0
658288000,-0.0066811885,0.010713199,0.0034421238,0.0021819975,-0.0002290594,-1.8262515e-05,0.0
658320000,-0.0035581284,0.0068581286,0.007887527,0.00218064,-0.00023241174,-1.3108469e-05,0.0
658352000,-0.0007652041,0.0011769622,0.0025305867,0.0021930996,-0.00019867168,-9.449566e-06,0.0
658384000,0.010648763,0.007214358,0.00075199595,0.0021984915,-0.00015296321,-1.7540182e-06,0.0
658420000,0.015879095,0.020836297,0.010419137,0.0021831265,-0.00010702116,-6.9624375e-06,0.0
658448000,0.0090532005,0.0299937,-0.0016165015,0.0021694857,-8.6738124e-05,-4.2508536e-06,0.0
658480000,0.010466165,0.04035264,0.00071213883,0.0021412263,-7.83866e-05,-9.615537e-06,0.0
658516000,0.009452951,0.020195797,-0.006769641,0.0021095688,-8.4513e-05,-7.4484797e-06,0.0
658544000,-0.0036187363,0.030540358,0.0036658645,0.002079143,-0.00010013991,-9.5242385e-06,0.0
658576000,-0.015888922,0.020122442,-0.012692466,0.0020494137,-0.00013095452,-3.8656185e-06,0.0
658612000,-0.009375177,0.017076902,0.012720766,0.002038725,-0.00016557174,-4.8267584e-06,0.0
658640000,-0.01251519,0.012276251,-0.0013591533,0.0020353044,-0.00018854004,-1.602517e-05,0.0
658672000,-0.014056204,0.008382185,0.01062422,0.0020174515,-0.00020505472,-2.2353428e-05,0.0
658704000,-0.016772412,-0.0050963154,0.004229775,0.0020016176,-0.0002162136,-2.1556343e-05,0.0
658740000,-0.017060125,-0.0035471404,0.005397417,0.0019748325,-0.00022482117,-2.957126e-05,0.0
658768000,-0.020116828,-0.0028439043,-0.00014812168,0.0019641998,-0.00023124128,-4.1144183e-05,0.0
658800000,-0.025063843,-0.0011171158,-0.0016200296,0.0019624035,-0.00022572292,-4.3264685e-05,0.0
658832000,-0.009598169,0.0020588548,-0.0059458944,0.0019655998,-0.00020394723,-4.9130198e-05,0.0
658868000,-0.015896061,0.0018277518,-0.005634007,0.001967035,-0.00019167499,-5.326302e-05,0.0
658896000,-0.004480031,0.013429718,0.0038116234,0.0019591749,-0.00020159842,-5.196513e-05,0.0
658928000,-0.009063108,-0.0068417643,-0.010059796,0.0019323323,-0.00020510529,-5.2057247e-05,0.0
658964000,-0.00986164,-0.009481837,0.00072769565,0.0019092362,-0.00020545466,-4.698306e-05,0.0
658992000,-0.014011174,-0.013698114,-0.013079704,0.0018985292,-0.00018601025,-3.2122276e-05,0.0
659024000,-0.016436616,-0.0010567405,-0.0016591002,0.0019011142,-0.00015661941,-3.7059202e-05,0.0
659060000,-0.0035210454,0.012280581,0.0050982516,0.0019009416,-0.00015365232,-6.02371e-05,0.0
659088000,-0.008351518,0.010756448,-0.0031603803,0.0018902741,-0.00015924989,-7.555946e-05,0.0
659120000,-0.002797468,0.014664095,-0.00065008923,0.0018798813,-0.00015918905,-9.7296994e-05,0.0
659152000,-0.005983251,0.006170099,-0.00788278,0.0018776476,-0.00015719255,-0.00011251052,0.0
659188000,0.013849267,-0.006405126,0.0050220247,0.001871565,-0.00015103765,-0.0001279428,0.0
659216000,0.0139579335,0.0054194103,-0.0041548843,0.0018700184,-0.00015850144,-0.00012629238,0.0
659252000,0.012307348,0.013245905,-0.007799147,0.0018526744,-0.00016939544,-0.00012408113,0.0
659280000,0.002002302,0.007513931,0.0033175875,0.001848734,-0.00016416701,-0.0001283842,0.0
659316000,0.0004749619,0.007939575,0.0001467372,0.001824338,-0.00016203233,-0.00012835728,0.0
659344000,-0.0007566283,-0.0013329773,-0.007391988,0.0018029221,-0.00015629617,-0.00011818322,0.0
659380000,0.0020753872,0.0013398435,-0.002032774,0.0017762522,-0.00015699468,-9.873273e-05,0.0
659408000,0.0033780583,-0.010561401,-0.009607086,0.001762786,-0.0001517005,-8.266109e-05,0.0
659440000,-0.013299807,0.0013473728,-0.00213867,0.001758224,-0.00015970846,-5.9376656e-05,0.0
659472000,0.00054001244,0.0013065939,-0.0034926236,0.0017396727,-0.0001540172,-3.96302e-05,0.0
659508000,-0.011398295,0.0034909227,0.004393315,0.0017296813,-0.00013848765,-2.3639968e-05,0.0
659536000,0.0042998507,0.014320141,0.002304554,0.0017180372,-0.0001385617,-7.932314e-06,0.0
659568000,-0.0005747896,0.012181933,0.012417462,0.0017069787,-0.0001352946,-2.1002985e-05,0.0
659600000,-0.012574563,-0.0042161252,8.293113e-05,0.0016942733,-0.00012857174,-2.7631474e-06,0.0
659632000,0.0009949851,0.003920339,0.0020976365,0.0016931692,-0.00012632746,1.2531197e-05,0.0
659664000,0.0009780655,-0.0012561204,0.0024402258,0.0016843984,-0.00012989547,2.588492e-05,0.0
659700000,0.014685066,0.00016269507,-0.002254664,0.0016560757,-0.00012972936,3.676033e-05,0.0
659732000,-0.0037705111,0.0070518465,-0.0007015891,0.0016320142,-0.00012886598,4.966387e-05,0.0
659760000,-0.0077371774,-0.0045853537,0.015338892,0.0016234642,-0.00012015811,4.5678462e-05,0.0
659796000,0.0010599704,0.00063722953,0.002250336,0.0016249645,-0.00010949627,5.971524e-05,0.0
659824000,-0.0016872523,0.010707053,-0.0020346858,0.001623526,-0.00010468979,6.486509e-05,0.0
659856000,0.009229144,0.002685302,-0.005060764,0.0016155863,-0.00011202272,5.947404e-05,0.0
659888000,-0.00011404889,0.008446276,0.004073753,0.0016001688,-0.00011251384,5.6086938e-05,0.0
659920000,0.006113912,-0.0012006657,-0.0028438484,0.0015954557,-0.00010534176,6.0736707e-05,0.0
659952000,0.014451702,-0.005372627,-0.0012673922,0.0015833963,-8.525536e-05,6.1651896e-05,0.0
659984000,0.0018978717,0.0026188272,-0.005851659,0.0015664762,-8.273305e-05,4.9033457e-05,0.0
660020000,-0.0014470868,0.00059609953,-0.003214895,0.0015608313,-8.658328e-05,3.8301143e-05,0.0
660048000,0.005133317,-0.00565733,0.008013329,0.0015564401,-8.2031656e-05,2.967573e-05,0.0
660080000,-0.0018420524,0.014510229,-0.002448922,0.001543782,-7.486732e-05,2.9224375e-05,0.0
660112000,0.0047107562,0.0043346295,0.00878291,0.0015242647,-7.777758e-05,2.3991892e-05,0.0
660148000,0.014853395,0.0036603059,-0.0002626729,0.0014975214,-8.376351e-05,2.011098e-05,0.0
660176000,-0.00021470274,0.0022723135,-0.0043650623,0.0014803514,-8.763757e-05,7.9359825e-06,0.0
660208000,-0.0056423983,-0.00017673383,-0.011526953,0.0014618366,-8.284832e-05,9.495681e-06,0.0
660240000,-0.0025796355,0.0037919478,0.0028624954,0.0014511491,-7.418388e-05,-4.172999e-06,0.0
660276000,-0.0005979775,0.016101357,0.00024471397,0.0014390534,-6.609451e-05,-6.763262e-06,0.0
660308000,-0.009596482,0.0043992326,-0.007003746,0.0014245269,-6.7354704e-05,-1.02085205e-05,0.0
660340000,-0.015153543,-0.0013553388,0.002171902,0.0014047809,-6.2024024e-05,-1.2833958e-05,0.0
660372000,-0.01574635,0.009045502,-0.0004932884,0.0013870507,-6.061761e-05,-2.2726792e-05,0.0
660400000,-0.009403657,-0.0077036633,-0.0053555113,0.0013772105,-4.0954554e-05,-2.3447525e-05,0.0
660432000,-0.016021073,0.0074855797,0.003884315,0.0013719305,-2.973446e-05,-2.2945218e-05,0.0
660464000,-0.013952903,0.0047087236,-0.0020920886,0.0013597728,-1.5564323e-05,-2.1240507e-05,0.0
660496000,-0.0057925964,0.0038162738,0.0017523424,0.0013478281,-1.0090125e-05,-2.1555208e-05,0.0
660532000,-0.0066265655,0.014057909,0.001947989,0.0013387689,-9.5267405e-06,-9.74184e-06,0.0
660560000,-0.002382678,0.015804641,0.006590835,0.0013299588,-1.4574847e-05,-1.1292038e-05,0.0
660596000,-0.003958782,0.002466834,0.00018956768,0.0013175879,-2.3885432e-05,-2.154404e-05,0.0
660628000,-0.0111941565,-0.0017628302,0.008560045,0.0013083584,-2.0771538e-05,-2.0122001e-05,0.0
660656000,-0.016117236,-0.004534694,-0.0060677268,0.0013053071,-2.0631069e-05,-1.4526663e-05,0.0
660688000,-0.005245612,0.002244176,-0.005489536,0.0012978548,-3.22498e-05,-1.3803781e-05,0.0
660720000,-0.0096521415,-0.004345077,-0.0082400115,0.0012925309,-3.2578653e-05,-2.2160653e-05,0.0
660752000,0.00027135893,0.0030719857,0.0018808781,0.0012729435,-3.0159945e-05,-2.6444462e-05,0.0
660784000,-0.012731749,-0.00067423563,-0.0054874225,0.0012545658,-2.1370657e-05,-2.3601082e-05,0.0
660816000,-0.014073332,0.0021074908,0.0021527074,0.0012547342,-2.0053354e-05,-2.7611753e-05,0.0
660852000,-0.008062659,0.00022252277,-0.0058994456,0.0012395986,-1.6104548e-05,-2.802469e-05,0.0
660880000,-0.009467911,-0.0053464724,-0.00089882687,0.0012286365,-1.817858e-05,-2.95465e-05,0.0
660916000,-0.0111737205,-0.013906201,-0.0037853932,0.0012160054,-1.5176369e-05,-3.8383285e-05,0.0
660944000,-0.012018952,-0.0056350324,0.0021055243,0.0012167082,-1.5855523e-05,-4.7821366e-05,0.0
660980000,0.0015135023,-0.0028884048,-0.003663826,0.0012162627,-1.7440927e-05,-5.5639266e-05,0.0
661008000,0.0004928219,-0.004027157,-0.0035217102,0.001202197,-1.1510315e-05,-5.8947193e-05,0.0
661044000,-0.010133288,-0.0125778355,-0.006461062,0.0011973779,7.378475e-06,-6.215309e-05,0.0
661072000,0.0018190364,-0.005831635,0.0008553066,0.0011845183,2.6275766e-05,-5.951335e-05,0.0
661104000,-0.0041798977,0.0018280242,-0.0036691907,0.0011682075,4.886152e-05,-6.543394e-05,0.0
661136000,-0.0023635442,0.0055538164,-0.003116543,0.0011534271,6.4280364e-05,-7.41453e-05,0.0
661168000,-0.00044177996,0.0025953657,-0.0040755207,0.0011443399,7.312276e-05,-7.227048e-05,0.0
661204000,-0.00072471966,0.011440789,-0.0033159612,0.0011485962,7.7715275e-05,-7.374219e-05,0.0
661232000,-0.0048451,0.0032653038,0.0031303028,0.0011461459,9.19026e-05,-8.159051e-05,0.0
661264000,0.00033638158,0.0141704045,-0.0031160475,0.001136378,9.3959476e-05,-7.5987235e-05,0.0
661296000,0.005519023,0.017346961,-0.0041757775,0.0011202967,8.45489e-05,-6.384185e-05,0.0
661332000,-0.0029027094,0.0038977508,-0.0059907385,0.0010962142,7.416584e-05,-5.377417e-05,0.0
661364000,-0.008556167,0.0036059925,-0.0059222514,0.001084142,6.993945e-05,-4.143862e-05,0.0
661396000,-0.0057241386,0.00568583,0.011526849,0.001080141,5.800336e-05,-5.0061946e-05,0.0
661424000,-0.0019764989,-0.004456741,-0.0068970583,0.0010689755,5.7495516e-05,-3.9129132e-05,0.0
661456000,-0.0036342838,-0.006437167,0.0011627937,0.0010560335,5.8946294e-05,-4.219573e-05,0.0
661488000,0.0029287487,0.00012758002,-0.0009863662,0.0010416339,5.2960873e-05,-5.0818628e-05,0.0
661520000,0.0002254431,0.0024558536,-0.0032889214,0.0010105857,4.9952658e-05,-5.0595285e-05,0.0
661556000,-0.008989819,-0.012737593,0.0018558016,0.0010059896,5.876746e-05,-5.203902e-05,0.0
661584000,-0.012820729,0.0009332895,-0.006075738,0.0009953374,7.0718466e-05,-4.5424677e-05,0.0
661616000,-0.0077305012,-0.00545263,-0.0011149677,0.0009938929,8.358483e-05,-4.6450205e-05,0.0
661652000,-0.010055496,0.0063800826,-0.0024141036,0.0009977596,9.951415e-05,-4.6431975e-05,0.0
661680000,-0.005006414,-0.0010418748,-0.0028966109,0.0009905545,0.00010376022,-4.489646e-05,0.0
661712000,-0.004382,-0.010397005,0.005088645,0.0009771145,9.535709e-05,-5.176763e-05,0.0
661744000,0.007260584,-0.015734835,0.0030208672,0.0009654196,8.496754e-05,-4.782867e-05,0.0
661780000,-0.006829921,-0.009773556,-0.00638214,0.00095799664,8.655569e-05,-4.2788437e-05,0.0
661808000,-0.002803672,-0.0024028681,-0.0027746912,0.00095092336,9.540363e-05,-4.4162498e-05,0.0
661840000,0.0047678347,-0.006948481,-0.009689232,0.0009436101,0.00011285484,-3.3986904e-05,0.0
661876000,0.0060461108,-0.0012591011,-0.0012284114,0.00094541704,0.00014257272,-3.5303063e-05,0.0
661908000,0.0028411434,0.002102558,0.0028268844,0.00093818887,0.00017258163,-3.6390156e-05,0.0
661936000,0.012439588,0.01803275,0.0015438962,0.00092013745,0.00018146662,-3.1879717e-05,0.0
661972000,0.00013535249,0.012193225,-0.009894906,0.0009009276,0.00017640128,-2.1802125e-05,0.0
662000000,0.001743156,0.007570801,-0.008639863,0.0008845975,0.00016256078,-7.619411e-06,0.0
662036000,-0.0025859978,0.004364148,-0.0019505583,0.0008493686,0.00016258375,-1.2064487e-06,0.0
662064000,-0.010897051,-0.007979199,0.0017265017,0.0008415408,0.0001612652,-2.4883075e-06,0.0
662100000,-0.01404739,-0.0049667703,-0.0040448057,0.0008352671,0.00015445177,-7.066489e-06,0.0
662128000,0.00046718662,-0.0014633457,-0.0023076585,0.0008434182,0.00016076225,-3.7486648e-06,0.0
662164000,0.0066708033,-0.00069250586,-0.0024868462,0.0008421154,0.00017300424,4.177275e-06,0.0
662192000,-0.00035498757,-0.0006997995,0.009236998,0.0008263759,0.00017157535,2.4454544e-06,0.0
662224000,0.0001997361,-0.009021314,0.005881697,0.0007999477,0.00016967834,5.928021e-06,0.0
662260000,-0.0037071912,-0.0063136965,0.005746354,0.000782896,0.00017005885,9.942196e-06,0.0
662292000,-0.010522411,-0.0015800265,0.0040112827,0.000769108,0.00016479836,2.316242e-07,0.0
662320000,-0.010609951,-0.007499118,-0.0105167115,0.0007510669,0.00017580535,2.7555734e-07,0.0
662356000,-0.008562363,-0.0061466787,0.003287443,0.00074482796,0.00018732366,1.1436076e-05,0.0
662384000,-0.0052424516,-0.0012017451,-0.0023182034,0.0007345238,0.00018768298,1.8256464e-05,0.0
662416000,-0.0002573633,-0.007334846,-0.0010986082,0.0007118264,0.00017260789,2.3476918e-05,0.0
662448000,-0.011495622,-0.009911267,0.0064928257,0.00068727304,0.00016425694,2.654614e-05,0.0
662484000,-0.012979265,-0.021412812,-0.0008339478,0.00067800976,0.000160652,1.8332978e-05,0.0
662512000,-0.015797244,-0.016366148,0.0054053515,0.0006750042,0.00016921817,2.9448544e-05,0.0
662544000,-0.014109434,-0.017461935,0.0013109285,0.00068017334,0.00020078362,3.300616e-05,0.0
662576000,-0.0101193385,-0.0044881348,0.008820885,0.0006820997,0.00022245875,2.44318e-05,0.0
662608000,-0.0056723836,0.010406612,0.0017844926,0.00067434786,0.00022869038,2.307072e-05,0.0
662640000,-0.0069898237,3.533531e-05,0.006052777,0.00067581114,0.00022102693,1.1392745e-05,0.0
662672000,0.0036292027,0.0012167781,0.0021085783,0.0006660982,0.00021814942,1.1641443e-05,0.0
662704000,0.0034513855,-0.0012605302,0.0034092,0.0006626877,0.00021954697,1.6149765e-05,0.0
662736000,0.014266131,-0.00044196378,-0.0023723356,0.0006574086,0.00021697614,1.5505213e-05,0.0
662768000,0.008044294,-0.006616922,-0.004017641,0.00064501615,0.00021022874,1.4972057e-05,0.0
662800000,0.00053985347,-0.00888203,0.015415603,0.00063560397,0.00019342969,1.1597175e-05,0.0
662832000,-0.0064872694,-0.005345565,-0.005833691,0.000632305,0.00018143632,2.2717762e-05,0.0
662864000,-0.004120638,-0.0050966777,0.0061311107,0.0006250141,0.0001755126,2.0324138e-05,0.0
662896000,0.016193647,-0.0067427997,0.0053505944,0.0006225195,0.00018213979,9.801884e-06,0.0
662928000,0.01057728,-0.009939342,-0.005401847,0.00062255346,0.00020335594,-9.73193e-07,0.0
662960000,0.006739746,-0.009906648,-0.004160132,0.0006102435,0.00021290913,-6.8770455e-06,0.0
662996000,0.012020887,-0.015985047,-0.01055084,0.0005800837,0.00020819843,-1.5527221e-06,0.0
663024000,-0.002325736,-0.016338754,-0.002394734,0.00056161964,0.0002125933,-1.9583756e-06,0.0
663056000,-0.0010885482,-0.00464659,0.0022997304,0.00055389304,0.00022729681,-4.6856267e-06,0.0
663092000,0.002635988,-0.002918005,-0.013830258,0.0005518825,0.00024199155,-7.170408e-06,0.0
663120000,0.0010879613,-0.0102458205,-0.00585577,0.0005515554,0.0002532986,-1.06959e-05,0.0
663156000,0.004099247,0.0029400538,-0.004040824,0.00054850796,0.00023751584,-7.3518922e-06,0.0
663188000,0.0027063484,-0.0064818226,-0.00026704482,0.00053251476,0.00022365125,-1.0794283e-05,0.0
663216000,0.005784015,-0.009671816,-0.00392446,0.0005214766,0.00021463545,-1.6704145e-05,0.0
663248000,0.002457493,-0.016622545,-0.005312323,0.0005051487,0.0002178007,-1.2776832e-05,0.0
663284000,-0.0013415945,-0.022524696,0.0015500387,0.0004910199,0.00022536544,-2.3181548e-05,0.0
663312000,-0.007590404,-0.0043977154,-0.0026269509,0.00048266974,0.00024092154,-1.8578003e-05,0.0
663348000,-0.005890689,0.0032010253,0.0015969343,0.00047318317,0.00024503094,-2.3741386e-05,0.0
663376000,0.003267007,-0.0059080017,-0.0018532849,0.00046137426,0.0002436803,-2.2314007e-05,0.0
663408000,-0.0087937405,-0.0029413286,0.008934144,0.0004671904,0.00024221894,-2.4174493e-05,0.0
663444000,0.0065971157,-0.0031169867,-0.005155514,0.00046872976,0.00024602184,-1.169181e-05,0.0
663472000,-0.0011196772,-0.0061674663,0.008966074,0.0004729902,0.0002510846,-1.07054e-05,0.0
663504000,0.01795633,0.0046596453,-0.007949524,0.00046731153,0.0002684741,-7.715974e-06,0.0
663536000,0.0032459479,0.0055419,-0.004371941,0.00046184647,0.00028129804,-1.0569854e-05,0.0
663572000,0.013721436,0.011688128,0.0061095534,0.00045624995,0.00028348365,-1.1513505e-05,0.0
663600000,0.027639486,0.004642922,0.0013667998,0.00044958974,0.00027468632,-1.7253778e-05,0.0
663632000,0.014012612,-0.009381833,-0.0004225336,0.00043696706,0.0002693844,-1.4582235e-05,0.0
663664000,0.0051386794,-0.010652108,0.005872003,0.00041413898,0.00028350696,-8.895218e-06,0.0
663700000,-0.0016383476,0.0006463374,-0.008494845,0.00040420226,0.00028178515,2.3428722e-06,0.0
663728000,-0.0018852822,-0.0059702895,0.004160921,0.0003983948,0.0002847821,-1.5486884e-06,0.0
663764000,0.008629124,0.011146806,-0.0032388023,0.00038477927,0.00028266964,-1.0162208e-05,0.0
663792000,-0.0020844624,-0.00049666036,-0.008737747,0.00038144735,0.00026985098,-5.295564e-06,0.0
663824000,-0.0037361232,0.0078305835,-0.0037754658,0.00037892297,0.0002620612,2.5578393e-06,0.0
663856000,-0.0028017098,-0.006764656,0.0026744166,0.00037436126,0.0002657497,4.0563086e-06,0.0
663888000,-0.0027157832,-0.005090847,-0.009236305,0.0003802273,0.00026329322,6.1365517e-06,0.0
663920000,-0.0012992858,-0.009079788,0.0024681934,0.0003774848,0.00026199702,1.768374e-06,0.0
663952000,0.0068866913,0.004798021,-0.0023103855,0.00037348637,0.00025032,1.5854598e-06,0.0
663984000,0.008306742,-0.0033888696,-0.0034604196,0.00036732474,0.00022401422,2.6919374e-06,0.0
664016000,-0.0042232466,-0.010057896,-0.0071210773,0.00034926162,0.00020483587,2.4334295e-06,0.0
664048000,0.0009654912,-0.01969354,0.0014794092,0.0003211505,0.00019628975,2.7396036e-06,0.0
664084000,0.010660356,-0.019894775,-0.0062477933,0.00031882394,0.00020588322,-6.45036e-06,0.0
664116000,-0.003995103,-0.006780227,0.0005419573,0.0003202109,0.00022140233,-4.5914135e-06,0.0
664144000,0.00013133883,-0.004694971,-0.0055381265,0.0003245355,0.00022885569,5.4875045e-06,0.0
664176000,-0.002567115,0.00028880872,-0.008215315,0.00032147614,0.00022875596,1.917245e-05,0.0
664212000,0.0057567446,-0.003628368,0.0024095937,0.000309287,0.00022238068,1.722342e-05,0.0
664240000,0.008149691,-0.0103858635,0.0009869301,0.00029661728,0.00022088441,2.1551066e-05,0.0
664272000,-0.00564804,-0.0076924674,0.0006219944,0.00028956233,0.00020904903,2.6619518e-05,0.0
664304000,0.0022876002,-0.0014980682,0.008969408,0.00029236914,0.00020431801,3.1120853e-05,0.0
664336000,0.00863542,-0.009753777,0.016501065,0.0002882131,0.00020680278,1.8160574e-05,0.0
664372000,0.005125918,-0.011778407,0.0025111558,0.00028397253,0.00021542727,1.2979697e-05,0.0
664404000,0.0056055365,-0.005427609,0.0024748761,0.00027784292,0.00021469557,-2.6619214e-06,0.0
664432000,0.00025351346,-0.004850656,0.005619051,0.00027405182,0.00021975994,-1.6764147e-07,0.0
664468000,0.00766033,0.003941958,0.004367383,0.00025992715,0.00021224127,-4.343594e-06,0.0
664500000,0.004877893,-0.0033738925,-0.0010415226,0.00024727953,0.00021019024,2.8198274e-06,0.0
664528000,-0.005448966,-0.0044359383,0.0056890724,0.0002455357,0.00021890618,-3.1899276e-06,0.0
664564000,0.0006297389,0.009372341,0.0028291186,0.00025080514,0.00021435403,-8.778968e-06,0.0
664592000,-0.0024362325,-0.002131668,0.001173933,0.0002563012,0.0002110435,-3.930849e-06,0.0
664624000,0.008478212,0.005063739,0.008648028,0.00025868107,0.00019420024,-1.1830278e-05,0.0
664656000,0.00010526407,-0.005295189,-0.003948309,0.00026087588,0.00018982905,-1.2008347e-05,0.0
664688000,0.016249323,-0.01034395,-0.002237828,0.00024433306,0.0001896734,-1.1613515e-05,0.0
664724000,0.00095471425,-0.0029430366,-0.0060320892,0.00023117918,0.00019718673,1.3788215e-06,0.0
664752000,0.011661765,-0.005996411,-0.0063603744,0.00023385386,0.00019119296,5.65137e-06,0.0
664784000,0.009740525,-0.013239441,0.0067203953,0.00022847352,0.0001706708,3.636723e-06,0.0
664816000,0.0033732997,-0.009323709,-0.0023644143,0.00021318259,0.00016016017,1.5375763e-05,0.0
664852000,0.012190239,-0.0150706945,0.0031684707,0.0002086923,0.00016001845,1.926475e-05,0.0
664880000,-0.007796056,-0.0065002404,-0.0076098125,0.00020927054,0.00016641141,2.3772565e-05,0.0
664916000,0.0029259052,0.0018232767,-0.002577152,0.00020304135,0.00017699649,1.956949e-05,0.0
664948000,0.0068434626,0.0013472158,0.0062836506,0.00019670288,0.0001722738,8.380007e-06,0.0
664980000,0.0041069007,-0.019085892,-0.006344545,0.00019647357,0.0001625481,1.1868177e-05,0.0
665008000,0.0058232807,-0.009337824,0.0006714496,0.00019330256,0.00015733387,1.5510022e-05,0.0
665040000,0.0036867773,-0.0028169886,-0.00039768266,0.00019042652,0.00015116807,1.7978475e-05,0.0
665072000,0.002928659,-0.0037056794,-0.00662431,0.0001850991,0.00015907925,2.7710012e-05,0.0
665108000,-0.0022620796,-0.0071952874,-0.004230984,0.00018300733,0.00017336856,2.7377879e-05,0.0
665136000,0.008714767,-0.0010490809,0.0057952735,0.00017927322,0.00017286307,2.556828e-05,0.0
665168000,-0.0008200137,-0.001755863,-0.003168948,0.0001789589,0.00016291681,1.9831059e-05,0.0
665200000,0.0006492881,-0.0034520626,0.010592936,0.00018065843,0.00014567337,2.082804e-05,0.0
665232000,0.0011656834,0.0017574998,0.0011220373,0.00018365069,0.0001371134,2.8329832e-05,0.0
665264000,0.014292323,-0.0018009697,0.003892595,0.00016815274,0.00013611274,2.7803744e-05,0.0
665296000,0.003514125,-0.010425701,-0.0038638252,0.00014671628,0.00013846773,2.7939226e-05,0.0
665328000,-0.008956609,-0.010393273,0.00044883264,0.00014128043,0.00013820273,1.44744035e-05,0.0
665360000,-0.0055698813,-0.0072042686,-0.004022155,0.00014837479,0.00013354365,1.869312e-05,0.0
665392000,0.0056863176,0.0061765704,0.0050967056,0.00015193064,0.00013113683,2.412588e-05,0.0
665424000,0.002334097,0.012065353,0.0046506096,0.0001549465,0.00013292699,2.0979654e-05,0.0
665460000,0.015109739,0.007216844,-0.0036634498,0.0001470441,0.00013902271,2.1447695e-05,0.0
665488000,0.00089550845,0.0052175685,0.014612115,0.00014112699,0.00013724847,1.7553819e-05,0.0
665520000,-0.0005983551,0.00079006376,0.002581485,0.00013019604,0.00012962312,1.7725999e-05,0.0
665552000,-0.0013487926,0.0055543426,0.0063135196,0.00012290633,0.000135681,9.104326e-06,0.0
665584000,-0.0074673933,0.006929181,0.005879368,0.000118238924,0.00012900776,5.4929587e-06,0.0
665616000,-0.0035102551,0.010523091,0.0017308928,0.000114101065,9.9088815e-05,1.2766192e-05,0.0
665648000,-0.010984872,-0.00022589415,-0.00619944,0.00012061194,8.9680114e-05,1.853671e-05,0.0
665680000,-0.002304047,0.00043405034,0.004220657,0.00012232273,8.7318105e-05,2.0399388e-05,0.0
665716000,-0.004731069,-0.0040932507,-0.0050846925,0.00012541059,8.5111904e-05,1.6351463e-05,0.0
665744000,0.0041333754,-0.001285499,0.0074064094,0.0001275751,8.897892e-05,1.3369991e-05,0.0
665776000,0.002216522,0.007251029,0.00025002763,0.00013096901,9.639032e-05,1.6248287e-05,0.0
665808000,-0.0012515846,0.0046704584,0.0010607091,0.00014092932,9.434938e-05,1.51084105e-05,0.0
665840000,0.017576411,0.00880291,-0.0020366693,0.00015347297,7.324259e-05,1.35130485e-05,0.0
665872000,0.012492805,-0.00090405904,0.00076999655,0.00016820981,4.746776e-05,1.7055544e-06,0.0
665904000,0.011006244,-0.007715268,-0.00025045086,0.0001716874,3.507629e-05,-4.2668607e-06,0.0
665940000,0.022820847,-0.005637205,-0.0028235887,0.00014276928,1.80938e-05,-4.105778e-06,0.0
665968000,0.007512298,-0.012699548,0.004879637,0.000120043,2.028581e-05,-8.548688e-06,0.0
666000000,-0.0019273306,-0.0062563894,-0.0051617655,9.969554e-05,2.7825612e-05,8.010519e-07,0.0
666036000,-0.012775495,0.0025542872,-0.0014993818,9.790621e-05,3.824399e-05,4.9429727e-06,0.0
666064000,-0.0005101605,0.0038100658,-0.004271882,9.887458e-05,4.3406268e-05,9.04418e-06,0.0
666096000,-0.01264484,0.0074460106,0.007367353,0.00011092607,4.270786e-05,-1.4626364e-06,0.0
666132000,0.00039713425,0.0016119434,-0.0015429362,0.0001159472,5.031911e-05,-6.1552814e-06,0.0
666164000,0.006492279,0.00918683,-0.0010492991,0.00012410205,5.794543e-05,-5.8609116e-06,0.0
666196000,0.0124916,0.010791274,-0.00083777844,0.00011752468,5.855849e-05,-3.8927383e-06,0.0
666224000,0.0033687656,0.011652732,0.008439145,0.00011833528,4.4893903e-05,-1.1399187e-05,0.0
666256000,0.00043401882,0.008651118,0.0049463394,0.0001124009,1.6044974e-05,-1.5293772e-05,0.0
666288000,0.0026236335,0.0046565034,-0.007118729,0.00011857115,-5.450096e-06,-5.7085144e-06,0.0
666324000,-0.007284554,0.0035170307,0.004644907,0.00012153133,-6.4974574e-06,-1.1255104e-05,0.0
666356000,0.012053314,-0.006236345,-0.0064990493,0.00011142123,-1.0453086e-06,-4.085123e-06,0.0
666384000,0.002547388,0.0009085168,-0.0034374308,9.442095e-05,8.2197885e-06,1.3526574e-08,0.0
666416000,0.0071470374,0.00458754,-0.0016074809,8.2151375e-05,6.0081416e-06,-1.790522e-06,0.0
666448000,-0.009516575,-0.0024816594,0.0064881863,7.9876394e-05,-5.3239564e-06,-5.9344848e-06,0.0
666480000,-0.0103726005,-0.00011373917,0.0045655076,8.606912e-05,-1.4744328e-05,-1.849659e-05,0.0
666512000,0.0014619043,0.0023591162,-0.0034239343,9.454354e-05,-1.8920524e-05,-1.53989e-05,0.0
666544000,0.005704891,-0.0018936046,0.00093875837,8.3989915e-05,-2.5080408e-05,-9.028045e-06,0.0
666576000,-0.0052100867,-0.009707248,-0.0054237526,7.744067e-05,-2.9174847e-05,-8.683653e-06,0.0
666608000,-0.0077842423,0.0015969411,-0.001132177,9.360264e-05,-3.6032856e-05,-1.1389625e-05,0.0
666640000,0.0032484166,0.00089971256,0.0020105224,0.000113004855,-4.452189e-05,-1.0867432e-05,0.0
666672000,0.01266614,-0.0016207672,0.007352063,0.0001265804,-5.6270772e-05,-1.4635605e-05,0.0
666708000,0.022687271,-0.009547854,-0.002204895,0.000129804,-5.788431e-05,-1.5560963e-05,0.0
666736000,0.021500621,-0.004070663,-0.015487918,0.000117764976,-4.5651188e-05,-4.6757445e-06,0.0
666772000,0.0059396178,0.0031344527,-0.0037912014,0.00010144354,-2.8973483e-05,2.2597408e-07,0.0
666800000,0.0068739224,0.009418176,0.0023513495,8.953755e-05,-3.432241e-05,2.4776825e-06,0.0
666832000,0.004059218,0.019139225,-0.0026461044,8.7671724e-05,-4.749774e-05,-2.8715535e-06,0.0
666864000,-0.0019995414,-0.00016502058,0.0032046163,8.7912515e-05,-5.9852733e-05,-1.2356239e-05,0.0
666896000,0.0016342632,0.00860784,0.003962116,6.5652144e-05,-5.8323687e-05,-1.5526146e-05,0.0
666928000,-0.011711635,-0.009296608,-0.005177185,8.296489e-05,-5.8809026e-05,-1.0326761e-05,0.0
666964000,0.0010058718,6.547617e-05,-0.00081533275,8.767486e-05,-5.8642792e-05,-3.9282254e-06,0.0
666992000,-0.0058172587,0.0070411162,0.0030450937,9.288325e-05,-6.978836e-05,4.517415e-06,0.0
667028000,0.0063136313,0.015432732,0.0066261925,0.00010558523,-9.519871e-05,-1.2985943e-06,0.0
667056000,0.002743565,-0.0036928626,0.0041485797,9.877894e-05,-7.836509e-05,-0.00019992105,0.0
667092000,-0.0038371528,0.010832697,-0.015290662,5.4049928e-05,6.0237235e-06,-0.000686815,0.0
667120000,-0.03660677,0.02836143,-0.03864754,1.8940445e-05,0.00013686248,-0.0011972722,0.0
667156000,-0.057666514,0.089275196,-0.059521183,-6.485454e-05,0.00040474694,-0.0020242508,0.0
667188000,-0.09402729,0.15348959,-0.098179996,-0.00017033235,0.0007454397,-0.0028530736,0.0
667216000,-0.14801468,0.24200429,-0.12915325,-0.00027167445,0.0011099635,-0.0036344493,0.0
667248000,-0.19155285,0.3639349,-0.16482447,-0.0004140567,0.0016099538,-0.004603172,0.0
667280000,-0.24984977,0.49225315,-0.2121795,-0.0005630955,0.0020747536,-0.005569332,0.0
667312000,-0.31692693,0.6295926,-0.24450628,-0.00074243447,0.002508071,-0.0065412573,0.0
667344000,-0.4032999,0.74816114,-0.2963964,-0.0009374377,0.0028856955,-0.007516302,0.0
667376000,-0.48065498,0.8377753,-0.3366264,-0.0010753507,0.0031236848,-0.008450377,0.0
667408000,-0.53048664,0.891478,-0.36700413,-0.0011535408,0.003220273,-0.009355882,0.0
667444000,-0.57905036,0.93985564,-0.3976402,-0.0011772481,0.0032155481,-0.010334914,0.0
667476000,-0.5950413,0.9084341,-0.43882063,-0.0011201113,0.0030782486,-0.011169383,0.0
667504000,-0.59015065,0.88209736,-0.4605443,-0.0010199301,0.0028699383,-0.011860534,0.0
667540000,-0.5630002,0.82371354,-0.49216124,-0.0008456648,0.0025505677,-0.012732621,0.0
667568000,-0.5322192,0.7254624,-0.51553565,-0.0006858633,0.002262408,-0.013394506,0.0
667604000,-0.46730855,0.6243453,-0.5519259,-0.0004196011,0.0018621731,-0.014181091,0.0
667632000,-0.43753776,0.54257166,-0.57182187,-0.00023115084,0.0015907831,-0.014800215,0.0
667664000,-0.3624147,0.44668013,-0.6018799,2.4269957e-06,0.0012688324,-0.015466836,0.0
667700000,-0.30543038,0.3389995,-0.61797565,0.00024891028,0.00095451943,-0.016187865,0.0
667728000,-0.2645217,0.26534086,-0.64612037,0.0004004475,0.0007815019,-0.016738277,0.0
667760000,-0.21113656,0.20229834,-0.66544235,0.00054208224,0.0006356577,-0.017361574,0.0
667796000,-0.17678772,0.14781684,-0.6782823,0.0006776439,0.00055020704,-0.018023439,0.0
667824000,-0.15805577,0.111685984,-0.70236427,0.0007463782,0.0005336392,-0.018530304,0.0
667860000,-0.1375911,0.088219464,-0.73020184,0.00083260454,0.0005433071,-0.019142676,0.0
667892000,-0.119199015,0.06096941,-0.72747344,0.0008981739,0.00060464797,-0.019617382,0.0
667920000,-0.101305015,0.06836683,-0.74591756,0.00090635166,0.00070139114,-0.020030335,0.0
667956000,-0.10565454,0.059662517,-0.7674237,0.00089595513,0.000836034,-0.020539807,0.0
667988000,-0.10261343,0.06916572,-0.77339363,0.0008522849,0.0009650539,-0.020981971,0.0
668020000,-0.11885042,0.08165804,-0.7692909,0.00078474154,0.0011058741,-0.021411858,0.0
668048000,-0.13095085,0.09149232,-0.7825736,0.0007400694,0.0012098929,-0.02175447,0.0
668080000,-0.1324159,0.09586185,-0.7920018,0.0006521587,0.001340027,-0.022153923,0.0
668112000,-0.15340626,0.091690145,-0.81172395,0.0005504588,0.0014776201,-0.022545472,0.0
668144000,-0.16252221,0.115010045,-0.8021503,0.00046621577,0.0015969311,-0.022939833,0.0
668176000,-0.16640805,0.12390926,-0.8167458,0.00040833963,0.0017048307,-0.023327466,0.0
668212000,-0.16150711,0.12543847,-0.8297069,0.00032942966,0.0018130601,-0.023774719,0.0
668244000,-0.15411924,0.11520381,-0.83622676,0.00027215574,0.001886745,-0.024145627,0.0
668272000,-0.14866404,0.11354952,-0.83334035,0.00020551222,0.0019387293,-0.024473611,0.0
668304000,-0.1481712,0.116338484,-0.8373978,0.00011109072,0.0020053275,-0.024847025,0.0
668340000,-0.13494809,0.10262568,-0.8620908,2.4659144e-05,0.0020498403,-0.025246974,0.0
668368000,-0.1383987,0.08112731,-0.8569897,-5.3752643e-05,0.0020750344,-0.025556583,0.0
668400000,-0.13368787,0.071903214,-0.86465025,-0.00016151991,0.002115499,-0.02591842,0.0
668436000,-0.12962602,0.053837582,-0.8797096,-0.0002832238,0.0021649217,-0.02632096,0.0
668464000,-0.11782389,0.048115656,-0.8835467,-0.0003901972,0.0022058282,-0.026638607,0.0
668496000,-0.12177164,0.039787214,-0.88923246,-0.00052702596,0.002249386,-0.026992273,0.0
668528000,-0.12475969,0.028199354,-0.8871827,-0.0006756482,0.0022960163,-0.027365537,0.0
668560000,-0.11904323,0.035472568,-0.894469,-0.0008188822,0.0023478596,-0.027683897,0.0
668596000,-0.1183495,0.035945605,-0.9061702,-0.0010239801,0.002399912,-0.028081728,0.0
668628000,-0.13390115,0.037611052,-0.9150379,-0.0011828454,0.0024365785,-0.028404947,0.0
668656000,-0.12751402,0.024310222,-0.90550745,-0.0013567593,0.0024666265,-0.028691404,0.0
668688000,-0.13245016,0.024658863,-0.9226218,-0.0015499434,0.0024965242,-0.029029008,0.0
668720000,-0.14361107,0.02189353,-0.9313777,-0.0017369594,0.002521195,-0.029356403,0.0
668752000,-0.15748908,0.023734318,-0.9332891,-0.0018982859,0.00255256,-0.029661203,0.0
668788000,-0.13564047,0.029544663,-0.94758147,-0.0020803434,0.002606543,-0.0299865,0.0
668816000,-0.11373939,0.04045007,-0.94057906,-0.0022104518,0.0026517513,-0.030187953,0.0
668848000,-0.0922269,0.06264194,-0.9356028,-0.002368536,0.0026820253,-0.030431446,0.0
668880000,-0.085489616,0.06116259,-0.9370485,-0.0025410051,0.0026832314,-0.030676492,0.0
668916000,-0.07851002,0.07340872,-0.93996155,-0.0027153543,0.002662965,-0.03091501,0.0
668948000,-0.043240055,0.06414272,-0.94069266,-0.0028655664,0.002624447,-0.031100765,0.0
668976000,-0.04057578,0.066153705,-0.9443311,-0.0030098313,0.0025757311,-0.031251673,0.0
669012000,-0.013253598,0.06300289,-0.9469435,-0.0031861393,0.0024952653,-0.031411126,0.0
669040000,0.0033265944,0.060700245,-0.92917454,-0.0033243783,0.002407928,-0.03155753,0.0
669072000,0.036422983,0.062431905,-0.93098927,-0.0034726597,0.002297068,-0.031719677,0.0
669108000,0.051006947,0.03452495,-0.9394541,-0.0036188622,0.0021733397,-0.03182832,0.0
669136000,0.08316607,0.03162837,-0.93111104,-0.003728503,0.0020746146,-0.031899285,0.0
669168000,0.10396059,0.03077548,-0.93139154,-0.0038400732,0.001968303,-0.031962775,0.0
669200000,0.14831345,0.03401767,-0.9259304,-0.003949812,0.0018776947,-0.03198415,0.0
669232000,0.17789349,0.03355077,-0.9099735,-0.004061477,0.0018103127,-0.03197965,0.0
669264000,0.22573276,0.05275649,-0.8987554,-0.004188259,0.001749518,-0.031968355,0.0
669300000,0.26162758,0.059609577,-0.88818777,-0.0043467707,0.0016966426,-0.031912185,0.0
669328000,0.27596575,0.08011946,-0.87470746,-0.0044973404,0.001667619,-0.03185374,0.0
669364000,0.29106116,0.11318095,-0.87402934,-0.0047343825,0.0016407621,-0.03174332,0.0
669392000,0.29252338,0.13942891,-0.84683836,-0.0049455645,0.0016209184,-0.0316395,0.0
669424000,0.28615645,0.17199269,-0.838275,-0.005209533,0.0015894495,-0.031526905,0.0
669456000,0.28450885,0.20524989,-0.8249526,-0.005507915,0.0015142768,-0.031462092,0.0
669488000,0.24612777,0.22273846,-0.81062996,-0.0058229393,0.0013666854,-0.031406052,0.0
669520000,0.22839862,0.23811592,-0.79845333,-0.006152133,0.0011278776,-0.031339925,0.0
669552000,0.18648736,0.23140158,-0.7755376,-0.0065010106,0.00081236305,-0.031366147,0.0
669584000,0.12535912,0.18601376,-0.77239054,-0.0068473937,0.00043708956,-0.031396415,0.0
669616000,0.076758385,0.15403187,-0.767568,-0.0071878424,-6.852242e-06,-0.031431995,0.0
669652000,0.018260932,0.09852796,-0.77072793,-0.007561244,-0.0005817417,-0.03154755,0.0
669680000,-0.036274463,0.03537118,-0.7809898,-0.007816346,-0.001035748,-0.031602275,0.0
669712000,-0.06884641,-0.032365877,-0.774619,-0.0080661215,-0.0015507671,-0.031691954,0.0
669748000,-0.10124056,-0.093903385,-0.7774473,-0.008265518,-0.0020960781,-0.03181556,0.0
669776000,-0.109234296,-0.13545334,-0.781253,-0.008362956,-0.0024671296,-0.031880673,0.0
669808000,-0.09797203,-0.17176972,-0.78523463,-0.00844562,-0.0028229787,-0.03190715,0.0
669840000,-0.08933353,-0.18234229,-0.77916914,-0.008509755,-0.0030965798,-0.031948928,0.0
669872000,-0.06530366,-0.18967658,-0.7833134,-0.008551277,-0.0032918663,-0.031935222,0.0
669904000,-0.026563564,-0.17226012,-0.7747498,-0.008589745,-0.0034494025,-0.031905446,0.0
669936000,-0.01414248,-0.14398079,-0.7775466,-0.00864434,-0.0035815167,-0.031885814,0.0
669968000,0.007913235,-0.107306026,-0.7720144,-0.008701675,-0.0036953816,-0.03186163,0.0
670000000,0.033338618,-0.072492376,-0.76240224,-0.008771581,-0.0038006469,-0.031800274,0.0
670032000,0.045604095,-0.026878923,-0.75921434,-0.008858274,-0.0039050682,-0.03174405,0.0
670064000,0.041617822,-8.670706e-05,-0.756553,-0.008945189,-0.0040282113,-0.031685174,0.0
670096000,0.045535732,0.041994598,-0.74296945,-0.009052119,-0.004200873,-0.03163322,0.0
670128000,0.028947454,0.07482449,-0.7407111,-0.009153731,-0.0044140634,-0.031592157,0.0
670160000,0.028232992,0.06900857,-0.73116106,-0.009249765,-0.004661116,-0.031553037,0.0
670196000,0.027590845,0.09314362,-0.7211271,-0.009345684,-0.004981885,-0.031521432,0.0
670224000,0.010052508,0.09788052,-0.70729387,-0.009413134,-0.005254718,-0.031498432,0.0
670256000,0.01242425,0.08957501,-0.71034443,-0.00946683,-0.0055943844,-0.031487826,0.0
670288000,-0.0068111797,0.07008844,-0.7122912,-0.009498989,-0.0059649576,-0.03147984,0.0
670320000,0.005754077,0.04833359,-0.707408,-0.009513297,-0.0063509448,-0.031477008,0.0
670352000,0.007988149,0.033810157,-0.7047188,-0.009513227,-0.0067431526,-0.031463668,0.0
670384000,0.01238507,0.009210423,-0.711449,-0.009507242,-0.007120129,-0.031365152,0.0
670420000,0.017747417,-0.027375996,-0.6903982,-0.009503209,-0.007528948,-0.031063164,0.0
670452000,0.030655768,-0.033231396,-0.6725937,-0.009513179,-0.007877368,-0.030624758,0.0
670484000,0.043284122,-0.049765754,-0.66287535,-0.009533616,-0.008205895,-0.030049162,0.0
670512000,0.04832703,-0.052962743,-0.6390711,-0.009570401,-0.008482511,-0.029450359,0.0
670544000,0.042059094,-0.066247486,-0.6018045,-0.00961055,-0.008763193,-0.028706659,0.0
670580000,0.050126806,-0.0542188,-0.54060733,-0.009676915,-0.009052091,-0.02782075,0.0
670608000,0.04043998,-0.059959058,-0.5166581,-0.00972786,-0.009266951,-0.02709478,0.0
670640000,0.035705186,-0.047457807,-0.4684123,-0.009785223,-0.009487009,-0.026268624,0.0
670672000,0.019412521,-0.029698996,-0.4282472,-0.009838397,-0.00971473,-0.025455244,0.0
670704000,0.01632962,-0.019692944,-0.3726545,-0.00988241,-0.009969304,-0.024648633,0.0
670736000,0.010124057,-0.012256169,-0.3524711,-0.009922219,-0.01022448,-0.023844238,0.0
670772000,-0.004847804,-0.00070665125,-0.2949258,-0.00995278,-0.010497038,-0.022987269,0.0
670804000,-0.005935602,0.011679005,-0.26356292,-0.009965732,-0.010727558,-0.022262735,0.0
670832000,-0.016825404,0.006225157,-0.23420757,-0.009968964,-0.010925495,-0.02165113,0.0
670864000,-0.022702118,0.02059616,-0.20093095,-0.009953068,-0.011173593,-0.02098728,0.0
670896000,-0.018149016,0.029130206,-0.1781607,-0.009913517,-0.011457172,-0.020352969,0.0
670928000,-0.022679348,0.019266061,-0.15705729,-0.009861835,-0.011742629,-0.019751921,0.0
670964000,-0.013999498,0.015805364,-0.12125922,-0.009792645,-0.012067187,-0.019120188,0.0
670992000,0.0008665607,0.010852389,-0.11013898,-0.009738544,-0.012322259,-0.018656237,0.0
671024000,-0.00663219,0.010401823,-0.08655731,-0.009674058,-0.012611615,-0.018162368,0.0
671056000,-0.010950634,-0.0010698512,-0.07424779,-0.009609493,-0.012904019,-0.017686851,0.0
671088000,-0.009786546,0.008093852,-0.06506016,-0.00953084,-0.013202983,-0.017246734,0.0
671120000,-0.002213315,-0.013196586,-0.05062004,-0.009441065,-0.013494973,-0.016818007,0.0
671152000,0.0020630856,-0.03349784,-0.029299036,-0.009343659,-0.013767529,-0.01642031,0.0
671184000,0.011586523,-0.02678259,-0.021073885,-0.0092545375,-0.01402653,-0.016037574,0.0
671216000,0.00761833,-0.031866856,-0.013968357,-0.009174504,-0.0142632285,-0.015685651,0.0
671252000,0.020210816,-0.024641545,-0.011185367,-0.0090842545,-0.014503431,-0.0153028285,0.0
671280000,0.018630443,-0.021566462,-0.0011284976,-0.009009228,-0.014711195,-0.015028278,0.0
671312000,0.012260894,-0.017779922,-0.0033820914,-0.008918707,-0.014955086,-0.01472563,0.0
671344000,0.015532387,-0.027382975,0.001214544,-0.008828965,-0.015188238,-0.014436014,0.0
671376000,0.023303024,-0.020330172,0.0049622264,-0.008745279,-0.015415784,-0.014156478,0.0
671408000,0.031419862,-0.010453921,0.019630035,-0.008672946,-0.015624999,-0.013895841,0.0
671440000,0.0023064157,-0.010312117,0.01655635,-0.008590739,-0.015826894,-0.013649394,0.0
671472000,0.0129453065,0.00042551337,0.026118023,-0.008512214,-0.016064787,-0.013420389,0.0
671508000,0.0024271458,-0.007983381,0.016292889,-0.008420784,-0.016336275,-0.013158474,0.0
671540000,0.010349326,-0.011159783,0.026399018,-0.008333524,-0.016571298,-0.01294794,0.0
671568000,0.0020250673,-0.018694246,0.01975361,-0.008257394,-0.01677708,-0.012757292,0.0
671600000,0.0032127844,-0.013719866,0.018105898,-0.008165021,-0.016997471,-0.012553833,0.0
671632000,0.00056005496,-0.0065433783,0.021269532,-0.008086663,-0.017202223,-0.012356529,0.0
671664000,0.0048015183,-0.0073762494,0.019471336,-0.008009641,-0.01741233,-0.012156771,0.0
671696000,-0.0023879665,0.0016317875,0.019140245,-0.007930663,-0.017634898,-0.011972018,0.0
671728000,0.0006480082,-0.004907161,0.02338722,-0.0078437915,-0.017863147,-0.011790262,0.0
671760000,0.00010354514,-0.016893622,0.01651228,-0.007755498,-0.018089617,-0.0116205,0.0
671792000,-0.003158297,-0.014448159,0.018296473,-0.007677206,-0.018305838,-0.011453267,0.0
671824000,0.009053722,-0.009651682,0.021661742,-0.007603288,-0.018509176,-0.01128618,0.0
671856000,-0.009990236,-0.005148345,0.01190552,-0.007532939,-0.01870739,-0.011124455,0.0
671888000,-0.0016816453,-0.003647374,0.028838687,-0.007459798,-0.018875621,-0.010973916,0.0
671924000,-0.004580735,-0.00013213977,0.01421682,-0.0073686964,-0.019064732,-0.010797695,0.0
671952000,-0.011426168,0.019573864,0.0091358395,-0.007293161,-0.019235078,-0.010660837,0.0
671984000,-0.00045413466,0.027996609,0.017558722,-0.007208173,-0.019476438,-0.010527651,0.0
672016000,-0.005727737,0.004149418,0.012110802,-0.007118791,-0.019731402,-0.010381578,0.0
672052000,-0.0027190242,-0.0017022993,0.0031187322,-0.0070208097,-0.020031324,-0.010228793,0.0
672080000,-0.0034632827,-0.032373063,0.017673787,-0.0069362037,-0.020247167,-0.010109187,0.0
672112000,0.002906618,-0.024657879,0.014020986,-0.006854058,-0.02048236,-0.009969068,0.0
672144000,0.011694183,-0.04319702,0.008301688,-0.006789375,-0.020689107,-0.009832673,0.0
672176000,0.0049657794,-0.03695179,0.022197207,-0.0067233215,-0.020938616,-0.009705876,0.0
672208000,0.011805469,-0.05461457,0.0045763,-0.006667616,-0.021178134,-0.009562978,0.0
672244000,-0.003723036,-0.0634223,0.016587723,-0.00659358,-0.02143969,-0.009413658,0.0
672276000,-0.004780634,-0.07306659,0.009578799,-0.0065371096,-0.021628983,-0.00929049,0.0
672304000,-0.002142378,-0.07818669,0.008014765,-0.0064819558,-0.021760922,-0.009180851,0.0
672336000,-0.0111712655,-0.073661864,0.0056094485,-0.0064068018,-0.021902744,-0.009056232,0.0
672368000,-0.01601189,-0.05349445,0.002862147,-0.006339261,-0.022054406,-0.008930173,0.0
672400000,-0.016706856,-0.043393575,0.009257557,-0.006268478,-0.022232108,-0.008817769,0.0
672432000,-0.01494904,-0.048245315,0.009292003,-0.006195091,-0.022407781,-0.008696144,0.0
672464000,-0.012265171,-0.048537806,0.0028580383,-0.0061198846,-0.022541754,-0.008588839,0.0
672496000,-0.01671016,-0.025451364,0.0068602287,-0.0060486766,-0.022676669,-0.008469085,0.0
672532000,-0.0063635507,-0.00490499,0.009620019,-0.005970034,-0.022817867,-0.008329561,0.0
672560000,0.0039807474,-0.0015493864,0.0007978785,-0.005914019,-0.022953039,-0.008211534,0.0
672592000,-0.014042566,-0.0057518785,0.0040661474,-0.0058437516,-0.023131592,-0.008098965,0.0
672624000,-0.008669197,-0.0012989873,0.007500823,-0.005766871,-0.023329467,-0.00797721,0.0
672656000,0.002289819,0.0068440572,0.001034664,-0.00570865,-0.023533251,-0.007863781,0.0
672688000,-0.011027521,-0.0012240508,0.007620591,-0.0056402283,-0.023725491,-0.0077552083,0.0
672720000,-0.006535805,-0.00846955,0.011427275,-0.0055615264,-0.023905413,-0.0076467055,0.0
672752000,-0.003074608,-0.005665796,0.003932434,-0.0054868707,-0.024080388,-0.00753672,0.0
672784000,-0.0011134217,-0.009066222,0.011297233,-0.005420895,-0.024276296,-0.0074398867,0.0
672816000,0.005677886,-0.009265784,0.01448126,-0.0053602504,-0.024490874,-0.007342795,0.0
672852000,-0.0018902639,-0.029734373,0.003624218,-0.0052958084,-0.024709094,-0.0072273863,0.0
672880000,0.0028225854,-0.0298247,0.010849548,-0.0052431053,-0.024866771,-0.007145919,0.0
672912000,0.0019713002,-0.027601073,0.012259524,-0.005176081,-0.025028216,-0.007055645,0.0
672944000,0.0055909697,-0.020235475,-0.0016862983,-0.0051228045,-0.02518045,-0.0069533545,0.0
672976000,0.00081400207,-0.01730702,0.0066791917,-0.005071873,-0.025347447,-0.0068548047,0.0
673008000,0.0018696436,-0.008888212,-0.0051077944,-0.0050153947,-0.02553429,-0.0067565697,0.0
673044000,-0.013101189,-0.025954971,0.010157659,-0.0049491664,-0.025717707,-0.006669484,0.0
673072000,-0.011455752,-0.025289398,0.0023746307,-0.0049012215,-0.025851708,-0.0065943957,0.0
673104000,-0.00044238206,-0.021850746,0.0037441507,-0.004854367,-0.025987385,-0.006514591,0.0
673136000,-0.024747444,-0.007998601,-0.0087158475,-0.0047956267,-0.02609705,-0.0064187353,0.0
673168000,-0.011775805,-0.0017008344,0.00046436343,-0.004741976,-0.026241213,-0.006335757,0.0
673204000,-0.015268328,0.0017223246,-0.0025534304,-0.004679988,-0.02643534,-0.006246952,0.0
673232000,-0.009968949,0.006320175,-0.0027836314,-0.004625439,-0.02659086,-0.006184166,0.0
673264000,-0.010719299,-0.0047732247,0.0024899682,-0.0045588785,-0.026760204,-0.006108185,0.0
673296000,-0.0045737317,0.0027916145,0.0026334845,-0.004504021,-0.02692362,-0.006025133,0.0
673328000,-0.0041106865,0.006894042,-0.009136231,-0.0044493587,-0.0270592,-0.0059387903,0.0
673360000,0.0023038029,0.005726727,0.0009615623,-0.004399162,-0.02721202,-0.0058610807,0.0
673392000,-0.0113969045,-0.0021125642,0.0021468638,-0.004339701,-0.027387585,-0.0057873903,0.0
673424000,-0.0023046688,0.0003316626,-0.006486623,-0.004291209,-0.027567167,-0.005707965,0.0
673456000,-0.0001246942,-0.0124821775,0.006465567,-0.0042421604,-0.027749889,-0.0056391745,0.0
673492000,-0.009123247,-0.011973746,0.0010582972,-0.004187131,-0.02792819,-0.0055699646,0.0
673524000,-0.0016594522,-0.009143855,-0.0013742154,-0.0041216896,-0.028069705,-0.0055034566,0.0
673552000,-0.0089714285,-0.004192043,0.00086683786,-0.004068593,-0.028195197,-0.0054472587,0.0
673584000,-0.0006107079,0.0029157575,-0.007528813,-0.0040096417,-0.028369065,-0.005377733,0.0
673616000,-0.00035292527,-0.0043503772,-0.0061630737,-0.0039582355,-0.028550113,-0.0053099436,0.0
673648000,0.00087946,-0.00748262,0.0027639363,-0.0038964993,-0.028719453,-0.0052498453,0.0
673680000,0.0010909477,-0.023137689,0.003998605,-0.0038416784,-0.028862882,-0.0051870975,0.0
673712000,-0.0007339892,-0.01957563,0.00487903,-0.0037958845,-0.02899032,-0.005131248,0.0
673744000,0.012052954,-0.004109482,-0.006719249,-0.003756766,-0.029118968,-0.005052393,0.0
673776000,-0.0028045974,-0.013838369,4.562043e-05,-0.0037154197,-0.02930149,-0.0049974644,0.0
673808000,-0.008911196,-0.018925594,-0.00057070237,-0.0036698289,-0.029472593,-0.0049318247,0.0
673840000,0.0014604381,-0.023080828,-0.012455173,-0.0036324966,-0.029628119,-0.0048640035,0.0
673876000,-0.0051274914,-0.020170193,-0.0019673607,-0.003591471,-0.02972664,-0.0047968365,0.0
673904000,-0.016637165,0.0020772757,0.0041259825,-0.00355132,-0.029751105,-0.004754181,0.0
673936000,-0.0058939606,0.030270245,-0.0061911703,-0.0035106884,-0.029719561,-0.0046912464,0.0
673968000,-0.014161992,0.07895942,0.0011112397,-0.0034877537,-0.029679358,-0.004630246,0.0
674000000,-0.026981566,0.11895136,0.0022937,-0.0034516375,-0.029644819,-0.004581669,0.0
674032000,-0.02083501,0.16212383,-0.004184267,-0.0034108723,-0.029621322,-0.004533402,0.0
674064000,-0.009655774,0.20705703,-6.549718e-05,-0.0033624172,-0.02960313,-0.004472206,0.0
674096000,-0.03164478,0.25120538,0.0010361387,-0.0033038792,-0.029584471,-0.004426379,0.0
674128000,-0.006929161,0.2740636,0.002799362,-0.0032401436,-0.029598674,-0.0043856804,0.0
674164000,-0.019347098,0.30952337,0.0083179055,-0.0031705021,-0.029701266,-0.004338917,0.0
674192000,-0.012585659,0.3056238,0.009391787,-0.003117843,-0.0298573,-0.0043118396,0.0
674224000,-0.0041937847,0.301658,0.0039981017,-0.0030578559,-0.030091591,-0.004262951,0.0
674256000,-0.0010566202,0.2939518,-0.0030110122,-0.002984946,-0.03036319,-0.004207251,0.0
674288000,0.007623768,0.26011023,-0.003112767,-0.0029123707,-0.030643264,-0.004155604,0.0
674320000,0.013657076,0.22968872,-0.0013746615,-0.0028448056,-0.030923815,-0.004100073,0.0
674352000,0.019711837,0.18179494,0.0016835337,-0.0027770596,-0.031207277,-0.0040401453,0.0
674384000,0.027055983,0.14760073,-0.0074187345,-0.002724139,-0.03149495,-0.0039859703,0.0
674416000,0.020808343,0.11676147,0.004065969,-0.0026705684,-0.031774834,-0.0039300597,0.0
674448000,0.033569228,0.07427733,-0.0028678009,-0.0026216635,-0.032017425,-0.0038735853,0.0
674484000,0.032709915,0.050000593,-0.007220757,-0.002577454,-0.032226365,-0.0038023863,0.0
674512000,0.040546346,0.035920102,0.009625882,-0.0025447586,-0.03234527,-0.0037574803,0.0
674544000,0.026959646,0.03353604,-0.0017530674,-0.002509172,-0.0324278,-0.0037096005,0.0
674576000,0.018908193,0.03377358,-0.0076226443,-0.002472496,-0.03251397,-0.00365763,0.0
674608000,0.028508998,0.04811811,0.0066895746,-0.0024429262,-0.032583356,-0.0036229698,0.0
674640000,0.022619706,0.057943653,-0.0022608011,-0.0024187604,-0.032634437,-0.0035715103,0.0
674672000,0.026772933,0.07398436,-0.0048519745,-0.002394962,-0.03266547,-0.0035237134,0.0
674704000,0.004328376,0.094006,0.0019395393,-0.0023658876,-0.03268677,-0.0034805005,0.0
674736000,0.004011959,0.10940924,0.0038050835,-0.0023475601,-0.03271505,-0.003441492,0.0
674768000,0.011352347,0.1179834,-0.003161229,-0.0023397403,-0.032790065,-0.0034001565,0.0
674800000,-0.015859988,0.11826973,0.000905472,-0.002342307,-0.032917988,-0.0033660827,0.0
674832000,-0.029491007,0.11189214,0.004389656,-0.0023412548,-0.03308365,-0.0033244884,0.0
674868000,-0.024791077,0.09061105,0.0046039373,-0.0023398183,-0.033268314,-0.0032863715,0.0
674900000,-0.047450356,0.06614737,0.0089692185,-0.0023251772,-0.0334221,-0.003263081,0.0
674928000,-0.06057338,0.049232114,0.0068884026,-0.0023123072,-0.03354323,-0.0032402023,0.0
674960000,-0.051166106,0.029207394,0.0055636284,-0.0022760772,-0.033662856,-0.0032184022,0.0
674992000,-0.04575772,0.015223978,-0.0017142685,-0.0022343516,-0.03377383,-0.0031947996,0.0
675024000,-0.04889416,0.0056963796,0.008929005,-0.0021832432,-0.033837836,-0.0031763988,0.0
675056000,-0.045380704,0.017281711,0.0037922119,-0.0021133767,-0.03385696,-0.0031575195,0.0
675088000,-0.031041652,0.02613597,0.0028298576,-0.0020254257,-0.033837885,-0.0031320755,0.0
675120000,-0.007757483,0.044172134,-0.004149492,-0.0019463396,-0.033787042,-0.0030988674,0.0
675152000,0.014968853,0.06854984,0.0041702157,-0.0018670518,-0.033729557,-0.0030550747,0.0
675188000,0.021563662,0.09970965,-0.0043170424,-0.0017957401,-0.033707432,-0.002996382,0.0
675216000,0.028909339,0.110613346,0.0009658991,-0.0017411878,-0.033701397,-0.002954197,0.0
675248000,0.04559853,0.12116712,-0.0060127196,-0.001682814,-0.033715047,-0.0029110366,0.0
675280000,0.046663165,0.13384153,-0.003257974,-0.0016362243,-0.03374455,-0.0028633627,0.0
675312000,0.047075175,0.14026333,-0.0047368254,-0.0015990798,-0.033773784,-0.0028048072,0.0
675344000,0.042887483,0.1386105,0.0026717805,-0.0015605626,-0.033794202,-0.0027541018,0.0
675376000,0.051942505,0.13957144,-0.0092745675,-0.0015367212,-0.03384252,-0.002703173,0.0
675412000,0.0557581,0.14063755,-0.0087268725,-0.0015191729,-0.033921793,-0.0026365942,0.0
675444000,0.05046316,0.117333405,-0.010530923,-0.00150973,-0.03399904,-0.002579342,0.0
675472000,0.040828872,0.113181,-0.0069031133,-0.0015195778,-0.034078527,-0.0025326803,0.0
675504000,0.025226973,0.098480366,-0.00071167434,-0.0015517537,-0.034193408,-0.002485345,0.0
675536000,0.00850472,0.08258148,0.00247285,-0.0016049687,-0.034308482,-0.0024452405,0.0
675568000,-0.014283481,0.052031334,0.0013475637,-0.0016571151,-0.034436483,-0.00241396,0.0
675600000,-0.040792126,0.013210185,0.009543312,-0.001687228,-0.0345477,-0.0024039706,0.0
675632000,-0.05653791,0.0011575525,0.0071841846,-0.0016841984,-0.034625847,-0.0023932685,0.0
675664000,-0.05608415,-0.011785453,0.004065084,-0.001658569,-0.034653723,-0.0023862089,0.0
675696000,-0.06776441,-0.01705135,0.00080134545,-0.0016034002,-0.03461882,-0.0023708572,0.0
675728000,-0.051379964,-0.00013520522,0.0026182446,-0.0015365788,-0.034528278,-0.0023570177,0.0
675760000,-0.03276173,0.02650756,-0.0031005195,-0.0014667321,-0.034448165,-0.00232414,0.0
675792000,-0.022435647,0.037910026,0.0063200328,-0.0013924487,-0.03436539,-0.0023011786,0.0
675824000,-0.012224272,0.05964662,0.0030864137,-0.0013160424,-0.034284744,-0.0022711067,0.0
675856000,0.013252847,0.081239976,-0.0005228284,-0.0012475535,-0.034211706,-0.002248952,0.0
675892000,0.036989056,0.111349605,0.004848288,-0.0011892503,-0.03413364,-0.0022095076,0.0
675920000,0.03659815,0.1371346,-0.0117065795,-0.0011449589,-0.034084473,-0.002174534,0.0
675952000,0.049722623,0.13302064,-0.00017567811,-0.0011088863,-0.03405037,-0.0021330041,0.0
675984000,0.04153271,0.13309206,-0.009531421,-0.0010973981,-0.034049064,-0.0020940872,0.0
676016000,0.052706152,0.14081332,0.007826328,-0.0010883285,-0.03409195,-0.002059065,0.0
676052000,0.045451306,0.12351086,-0.003210693,-0.0010900056,-0.034167174,-0.0020058341,0.0
676080000,0.027431969,0.11024332,0.00568598,-0.0011076622,-0.03423471,-0.0019788397,0.0
676112000,0.0195564,0.087260395,0.0036806192,-0.0011438337,-0.034304243,-0.0019432432,0.0
676144000,0.0014812067,0.059101265,0.011234416,-0.0011675298,-0.034360204,-0.0019103013,0.0
676180000,-0.007463665,0.03421266,0.0043535666,-0.001199893,-0.034431387,-0.0018929741,0.0
676212000,-0.030175403,0.015632799,0.0033614263,-0.0012092317,-0.03447407,-0.0018818262,0.0
676240000,-0.04596404,0.009652902,0.0050188354,-0.0011947942,-0.03448047,-0.001861669,0.0
676272000,-0.052546278,-0.010293743,0.0041827415,-0.0011556111,-0.03442989,-0.001843408,0.0
676304000,-0.033612955,0.0012898576,-0.0019410457,-0.0011079739,-0.034337495,-0.0018320176,0.0
676336000,-0.032729514,0.005857638,0.002840702,-0.0010461875,-0.03423225,-0.0018204699,0.0
676372000,-0.003547219,0.052982733,0.00040324137,-0.0009725386,-0.03412517,-0.0017948364,0.0
676400000,0.004712886,0.05444324,0.0018992105,-0.00093889225,-0.034050237,-0.0017789762,0.0
676436000,0.012721831,0.07176179,-0.007494068,-0.0009081404,-0.033952694,-0.001746176,0.0
676468000,0.012964357,0.0909025,-0.0017062705,-0.0008747379,-0.033870686,-0.0017179631,0.0
676500000,0.019730972,0.10407419,0.00198225,-0.00084792956,-0.03378865,-0.0016866793,0.0
676528000,0.019895181,0.11814246,-0.0016973263,-0.0008390668,-0.033731688,-0.0016604977,0.0
676564000,0.024043027,0.113425404,-0.0014042918,-0.00081960944,-0.03371184,-0.0016167638,0.0
676596000,0.025238892,0.10630986,0.010446772,-0.0008201908,-0.033739552,-0.0015949593,0.0
676624000,0.011654824,0.0891287,0.0046252594,-0.0008260116,-0.033776745,-0.0015768118,0.0
676656000,0.00713416,0.07415869,-0.008617917,-0.00083519024,-0.033814512,-0.0015534238,0.0
676688000,-0.013662453,0.049780574,-0.00035374012,-0.00084403006,-0.033820424,-0.0015328514,0.0
676720000,-0.017170968,0.031005371,0.0017434885,-0.0008450901,-0.03379177,-0.0015110197,0.0
676756000,-0.030444251,0.030479843,0.00066775363,-0.0008145768,-0.03374463,-0.0014960704,0.0
676784000,-0.017067673,0.015629828,-0.0013977059,-0.0007892537,-0.033703748,-0.0014897017,0.0
676816000,-0.0276099,0.022711257,0.0009426173,-0.00076223834,-0.03364764,-0.0014800008,0.0
676848000,-0.0071228393,0.03415651,-0.0017804664,-0.0007300731,-0.033582997,-0.0014611335,0.0
676880000,0.0047987527,0.035222705,0.0031891528,-0.00069705734,-0.033506982,-0.0014376177,0.0
676912000,0.00030889828,0.034769587,-0.005141082,-0.0006618967,-0.033404544,-0.0014031458,0.0
676944000,0.0046342127,0.051922243,-0.0016442224,-0.00063748646,-0.033289813,-0.0013725302,0.0
676980000,0.012910788,0.06673863,0.001697167,-0.0006213148,-0.033190288,-0.0013408555,0.0
677008000,0.01460732,0.08349867,0.0044865278,-0.00061735045,-0.033131894,-0.0013247583,0.0
677044000,0.009879266,0.08211168,-0.008171264,-0.0006132298,-0.033047695,-0.0012913507,0.0
677076000,0.010416966,0.08393266,-0.005224884,-0.0006021036,-0.03297713,-0.0012707614,0.0
677104000,0.015161125,0.09857816,-0.0013172792,-0.0005832883,-0.03291618,-0.0012474793,0.0
677136000,0.029140716,0.090687655,0.008162616,-0.00055988797,-0.032862917,-0.001226828,0.0
677172000,0.021765953,0.084170915,0.001094107,-0.0005422203,-0.03280458,-0.0012031839,0.0
677204000,0.026965378,0.08616996,0.005552746,-0.00053640973,-0.032759193,-0.0011802112,0.0
677236000,0.0096717235,0.09142663,0.0013573661,-0.00054333353,-0.032700595,-0.0011555093,0.0
677264000,-0.005376501,0.084720254,0.0012671107,-0.0005450226,-0.032673072,-0.0011306896,0.0
677296000,-0.0045019593,0.0552438,-0.00032409304,-0.0005436715,-0.032675784,-0.0011172058,0.0
677328000,0.0026221764,0.053993497,0.0012957253,-0.00054374087,-0.032677457,-0.0011018766,0.0
677360000,-0.0033248453,0.031958863,0.003946429,-0.0005526063,-0.03265252,-0.001098161,0.0
677392000,-0.018700266,0.03453588,0.011965415,-0.0005600995,-0.03258822,-0.0010923849,0.0
677424000,-0.02915162,0.02940863,0.007818773,-0.0005577686,-0.032488424,-0.0010812005,0.0
677460000,-0.028280146,0.029796813,0.0086897835,-0.0005333444,-0.032366272,-0.0010672549,0.0
677488000,-0.017425133,0.043562375,0.0030781922,-0.00049143546,-0.032286968,-0.001056353,0.0
677520000,0.0042947526,0.035814717,0.0051918235,-0.00046305693,-0.03220337,-0.0010434737,0.0
677556000,-0.008408997,0.05817131,0.010033997,-0.00043491847,-0.032117944,-0.0010428344,0.0
677584000,-0.0036262004,0.044740926,0.0044276104,-0.0004167673,-0.03205188,-0.001027617,0.0
677616000,0.0021658738,0.052087232,0.0030587309,-0.00038826664,-0.03196689,-0.0010179862,0.0
677652000,0.0043435795,0.047435164,0.011427343,-0.00036210526,-0.03186917,-0.0010007009,0.0
677680000,0.0072833896,0.052524883,-0.0031518652,-0.00034288116,-0.031811833,-0.0009856538,0.0
677712000,0.019195814,0.044276726,-0.0005721181,-0.00033066614,-0.031756155,-0.0009822616,0.0
677748000,0.019850617,0.03698747,-0.002612941,-0.00032290752,-0.031690154,-0.000958379,0.0
677780000,0.027095862,0.026586367,-0.005029614,-0.00031800673,-0.031610284,-0.00094390806,0.0
677808000,0.014091694,0.029810997,0.009205405,-0.00031616582,-0.031533185,-0.0009356611,0.0
677844000,-0.005697858,0.047981407,0.018227814,-0.00029873365,-0.031414464,-0.00093433686,0.0
677872000,0.010000819,0.047109544,0.004394427,-0.00029242196,-0.03132522,-0.00091386883,0.0
677904000,0.015529551,0.040651318,0.0036204788,-0.00029211942,-0.031238344,-0.0008999669,0.0
677936000,0.00893153,0.045988407,0.0011226062,-0.00031398045,-0.031153131,-0.0008912652,0.0
677968000,0.0031554932,0.049494494,0.009535588,-0.00033960448,-0.031057104,-0.0008833175,0.0
678000000,-0.017222028,0.051093273,-0.005271555,-0.00035477904,-0.030954977,-0.0008813055,0.0
