timestamp,roll_body,pitch_body,yaw_body,yaw_sp_move_rate,q_d[0],q_d[1],q_d[2],q_d[3],thrust_body[0],thrust_body[1],thrust_body[2],q_d_valid,roll_reset_integral,pitch_reset_integral,yaw_reset_integral,fw_control_yaw,apply_flaps
657304000,0.0,0.0,0.39087838,0.0,0.9809625,0.0,0.0,0.1941974,0.0,0.0,-0.0,1,0,0,0,0,0
657404000,0.026815651,0.012444726,0.39097306,0.0,0.9808624,0.011943262,0.008707517,0.19414076,0.0,0.0,-0.5023922,1,0,0,0,0,0
657500000,0.037646968,0.01498355,0.39098567,0.0,0.9807781,0.01700832,0.011003844,0.19407181,0.0,0.0,-0.52560073,1,0,0,0,0,0
657596000,0.02836457,0.013666935,0.390931,0.0,0.98085463,0.012584353,0.009456987,0.19410409,0.0,0.0,-0.5775696,1,0,0,0,0,0
657692000,0.02292812,0.013406213,0.391033,0.0,0.9808759,0.009943003,0.008801974,0.1941807,0.0,0.0,-0.6314291,1,0,0,0,0,0
657808000,0.013071205,0.012652332,0.39104858,0.0,0.9809134,0.0051818793,0.0074751605,0.19423229,0.0,0.0,-0.6634531,1,0,0,0,0,0
657904000,0.004086067,0.013475786,0.39091873,0.0,0.9809369,0.00069548225,0.007006313,0.19419886,0.0,0.0,-0.68865675,1,0,0,0,0,0
658004000,0.001814134,0.013385391,0.39106172,0.0,0.9809235,-0.00041053313,0.0067413403,0.19427694,0.0,0.0,-0.6959414,1,0,0,0,0,0
658100000,0.0007196034,0.012275157,0.39109808,0.0,0.98092306,-0.00083961774,0.006090475,0.19429931,0.0,0.0,-0.6437069,1,0,0,0,0,0
658196000,0.0014235413,0.019169236,0.3910393,0.0,0.9809029,-0.0011638583,0.009540128,0.19426067,0.0,0.0,-0.54035854,1,0,0,0,0,0
658292000,0.0016174172,0.015145799,0.3910393,0.0,0.9809196,-0.00067794323,0.0075856466,0.19426468,0.0,0.0,-0.6572528,1,0,0,0,0,0
658388000,0.003428236,0.021186927,0.3910393,0.0,0.9808939,-0.000376654,0.0107244095,0.19424732,0.0,0.0,-0.50056964,1,0,0,0,0,0
658504000,0.001103647,0.021998493,0.3910393,0.0,0.98088855,-0.0015955726,0.010896657,0.19425857,0.0,0.0,-0.59439284,1,0,0,0,0,0
658604000,0.00031641405,0.02058742,0.3910393,0.0,0.9808952,-0.0018446042,0.010128138,0.19426446,0.0,0.0,-0.5771743,1,0,0,0,0,0
658700000,-0.0032688107,0.02066423,0.3910393,0.0,0.9808899,-0.0036104247,0.009817551,0.19428226,0.0,0.0,-0.57710046,1,0,0,0,0,0
658796000,-0.002636619,0.021601776,0.3910393,0.0,0.980886,-0.0033914298,0.01033878,0.19427879,0.0,0.0,-0.5793341,1,0,0,0,0,0
658892000,-0.0030107577,0.020974051,0.3910393,0.0,0.9808887,-0.0035139555,0.009994571,0.19428092,0.0,0.0,-0.57835597,1,0,0,0,0,0
659008000,-0.0030831115,0.023019532,0.3910393,0.0,0.9808772,-0.003748107,0.010990739,0.19428062,0.0,0.0,-0.58297706,1,0,0,0,0,0
659104000,-0.0033925953,0.02331847,0.3910393,0.0,0.98087496,-0.003928922,0.0111072855,0.19428223,0.0,0.0,-0.5828288,1,0,0,0,0,0
659204000,-0.003111023,0.022006143,0.3910393,0.0,0.98088294,-0.0036633709,0.010491016,0.1942811,0.0,0.0,-0.57813203,1,0,0,0,0,0
659300000,-0.0032080389,0.023687582,0.3910393,0.0,0.98087305,-0.003874258,0.011306242,0.19428109,0.0,0.0,-0.5801393,1,0,0,0,0,0
659396000,-0.0029847582,0.02323441,0.3910393,0.0,0.9808762,-0.0037207396,0.011105678,0.19428001,0.0,0.0,-0.57656956,1,0,0,0,0,0
659492000,-0.0031121345,0.023803828,0.3910393,0.0,0.9808726,-0.003838513,0.011372569,0.19428048,0.0,0.0,-0.5804714,1,0,0,0,0,0
659608000,-0.0025834027,0.023448335,0.3910393,0.0,0.9808757,-0.0035446761,0.01124958,0.19427767,0.0,0.0,-0.5840121,1,0,0,0,0,0
659704000,-0.0041064327,0.023355387,0.3910393,0.0,0.9808732,-0.0042826007,0.011056049,0.1942862,0.0,0.0,-0.58085066,1,0,0,0,0,0
659804000,-0.0022605574,0.02476133,0.3910393,0.0,0.98086834,-0.0035138652,0.011924886,0.19427504,0.0,0.0,-0.58264405,1,0,0,0,0,0
659900000,-0.0014226361,0.025208905,0.3910393,0.0,0.98086697,-0.0031463907,0.012225785,0.19426964,0.0,0.0,-0.58172387,1,0,0,0,0,0
659996000,-0.0012639601,0.024924789,0.3910393,0.0,0.98086894,-0.003040976,0.012101859,0.19426894,0.0,0.0,-0.57962495,1,0,0,0,0,0
660092000,-0.0011821964,0.025524857,0.3910393,0.0,0.98086536,-0.003059158,0.0124040935,0.19426787,0.0,0.0,-0.58187234,1,0,0,0,0,0
660208000,-0.0021647366,0.025914654,0.3910393,0.0,0.98086125,-0.0035788855,0.012499823,0.19427365,0.0,0.0,-0.5814443,1,0,0,0,0,0
660304000,-0.003349419,0.024863755,0.3910393,0.0,0.9808656,-0.0040578274,0.011869349,0.19428146,0.0,0.0,-0.58557385,1,0,0,0,0,0
660404000,-0.003695651,0.027286824,0.3910393,0.0,0.98084897,-0.0044629546,0.013024068,0.19428265,0.0,0.0,-0.58087575,1,0,0,0,0,0
660500000,-0.005394456,0.028009376,0.3910393,0.0,0.9808398,-0.005366254,0.013213398,0.19429362,0.0,0.0,-0.582022,1,0,0,0,0,0
660596000,-0.00612664,0.027873596,0.3910393,0.0,0.9808387,-0.0057121464,0.013075679,0.19429843,0.0,0.0,-0.58116287,1,0,0,0,0,0
660692000,-0.0065660644,0.026893781,0.3910393,0.0,0.9808443,-0.0058325026,0.01255246,0.19430101,0.0,0.0,-0.58118707,1,0,0,0,0,0
660808000,-0.0067733214,0.02705709,0.3910393,0.0,0.9808426,-0.0059500043,0.012612416,0.19430238,0.0,0.0,-0.5844831,1,0,0,0,0,0
660904000,-0.007763302,0.025906932,0.3910393,0.0,0.9808474,-0.006323827,0.011952163,0.19430791,0.0,0.0,-0.5847255,1,0,0,0,0,0
661004000,-0.0066092825,0.02604756,0.3910393,0.0,0.9808499,-0.0057715233,0.012133247,0.19430101,0.0,0.0,-0.5797425,1,0,0,0,0,0
661100000,-0.0079578655,0.02753865,0.3910393,0.0,0.9808355,-0.0065776883,0.012733504,0.1943101,0.0,0.0,-0.5639541,1,0,0,0,0,0
661196000,-0.007304764,0.029328167,0.3910393,0.0,0.9808244,-0.0064311624,0.013674581,0.19430666,0.0,0.0,-0.56422395,1,0,0,0,0,0
661292000,-0.008445653,0.02958257,0.3910393,0.0,0.9808186,-0.007015369,0.013688504,0.19431463,0.0,0.0,-0.5653195,1,0,0,0,0,0
661408000,-0.008260294,0.028394058,0.3910393,0.0,0.9808282,-0.006809065,0.013123638,0.19431262,0.0,0.0,-0.5675395,1,0,0,0,0,0
661504000,-0.010706868,0.027037375,0.3910393,0.0,0.9808291,-0.007877171,0.012220574,0.19432676,0.0,0.0,-0.56499916,1,0,0,0,0,0
661604000,-0.009434932,0.02792043,0.3910393,0.0,0.98082757,-0.007339136,0.0127772335,0.19431984,0.0,0.0,-0.5631894,1,0,0,0,0,0
661700000,-0.009488155,0.02553767,0.3910393,0.0,0.9808441,-0.0071338774,0.011603483,0.19431773,0.0,0.0,-0.56620026,1,0,0,0,0,0
661796000,-0.008721874,0.02675369,0.3910393,0.0,0.9808384,-0.006876153,0.012274309,0.19431433,0.0,0.0,-0.5670113,1,0,0,0,0,0
661892000,-0.0077558416,0.029496722,0.3910393,0.0,0.98082167,-0.0066687423,0.013713419,0.19430983,0.0,0.0,-0.5662908,1,0,0,0,0,0
661988000,-0.009219684,0.026767565,0.3910393,0.0,0.9808366,-0.0071216356,0.012232749,0.19431739,0.0,0.0,-0.56405663,1,0,0,0,0,0
662104000,-0.0075566024,0.027356379,0.3910393,0.0,0.98083806,-0.0063632033,0.012683097,0.19430745,0.0,0.0,-0.568157,1,0,0,0,0,0
662204000,-0.0090650255,0.026424356,0.3910393,0.0,0.9808395,-0.0070124627,0.012079453,0.19431612,0.0,0.0,-0.5618131,1,0,0,0,0,0
662300000,-0.009627991,0.026409203,0.3910393,0.0,0.98083764,-0.007287081,0.012017326,0.19431949,0.0,0.0,-0.5626924,1,0,0,0,0,0
662396000,-0.0116822,0.024299378,0.3910393,0.0,0.98084396,-0.00808965,0.010783004,0.19432831,0.0,0.0,-0.5600163,1,0,0,0,0,0
662492000,-0.0118382955,0.024197826,0.3910393,0.0,0.98084396,-0.008156343,0.010718034,0.19432895,0.0,0.0,-0.56324136,1,0,0,0,0,0
662588000,-0.0108066145,0.025085239,0.3910393,0.0,0.98084223,-0.007736549,0.011253494,0.19432469,0.0,0.0,-0.56331897,1,0,0,0,0,0
662704000,-0.009217035,0.02412053,0.3910393,0.0,0.9808543,-0.006863307,0.010934808,0.19431467,0.0,0.0,-0.5656095,1,0,0,0,0,0
662804000,-0.009674225,0.02096459,0.3910393,0.0,0.9808717,-0.0067810714,0.009342585,0.19431312,0.0,0.0,-0.5638022,1,0,0,0,0,0
662900000,-0.008062568,0.022261932,0.3910393,0.0,0.98086935,-0.00611664,0.010135439,0.19430675,0.0,0.0,-0.56268173,1,0,0,0,0,0
662996000,-0.010226791,0.020365074,0.3910393,0.0,0.98087305,-0.0069938526,0.008994868,0.1943148,0.0,0.0,-0.56327194,1,0,0,0,0,0
663092000,-0.0085926885,0.021545999,0.3910393,0.0,0.9808719,-0.006307106,0.009732811,0.19430865,0.0,0.0,-0.56390715,1,0,0,0,0,0
663188000,-0.008444112,0.018240374,0.3910393,0.0,0.98088986,-0.005913223,0.0081260055,0.19430429,0.0,0.0,-0.56508243,1,0,0,0,0,0
663304000,-0.009109711,0.019870605,0.3910393,0.0,0.9808795,-0.006397977,0.008860887,0.1943091,0.0,0.0,-0.5664511,1,0,0,0,0,0
663404000,-0.00848481,0.017780604,0.3910393,0.0,0.98089194,-0.005888533,0.007896556,0.19430389,0.0,0.0,-0.56328654,1,0,0,0,0,0
663500000,-0.007430419,0.020339588,0.3910393,0.0,0.98088205,-0.005619928,0.009254048,0.19430201,0.0,0.0,-0.5626056,1,0,0,0,0,0
663596000,-0.006370486,0.0185294,0.3910393,0.0,0.980894,-0.0049242917,0.008469213,0.19429594,0.0,0.0,-0.5638004,1,0,0,0,0,0
663692000,-0.007199027,0.019774323,0.3910393,0.0,0.9808856,-0.0054515493,0.008999295,0.19430047,0.0,0.0,-0.56373143,1,0,0,0,0,0
663788000,-0.00691459,0.019072913,0.3910393,0.0,0.98089004,-0.0052439296,0.00868292,0.19429867,0.0,0.0,-0.5638787,1,0,0,0,0,0
663904000,-0.0055465153,0.018964197,0.3910393,0.0,0.98089385,-0.004562405,0.008762507,0.19429265,0.0,0.0,-0.56557304,1,0,0,0,0,0
664004000,-0.006935667,0.016545571,0.3910393,0.0,0.9809018,-0.005008816,0.0074413293,0.19429666,0.0,0.0,-0.5633575,1,0,0,0,0,0
664100000,-0.0057828687,0.017752228,0.3910393,0.0,0.9808991,-0.004560616,0.00814513,0.19429302,0.0,0.0,-0.5649605,1,0,0,0,0,0
664196000,-0.006122644,0.016400248,0.3910393,0.0,0.9809044,-0.0045959535,0.0074490355,0.19429351,0.0,0.0,-0.5639912,1,0,0,0,0,0
664292000,-0.004903588,0.015969073,0.3910393,0.0,0.9809089,-0.0039561857,0.00735599,0.19428875,0.0,0.0,-0.56276375,1,0,0,0,0,0
664408000,-0.005574048,0.0150732715,0.3910393,0.0,0.98091114,-0.0041980115,0.006851503,0.19429067,0.0,0.0,-0.5641671,1,0,0,0,0,0
664504000,-0.005543011,0.015425023,0.3910393,0.0,0.98090976,-0.0042169527,0.0070270384,0.19429077,0.0,0.0,-0.56422156,1,0,0,0,0,0
664604000,-0.0033851254,0.013782614,0.3910393,0.0,0.9809199,-0.002999079,0.0064311256,0.19428287,0.0,0.0,-0.5625346,1,0,0,0,0,0
664700000,-0.004060262,0.014619937,0.3910393,0.0,0.9809158,-0.0034115345,0.006776217,0.1942853,0.0,0.0,-0.5640891,1,0,0,0,0,0
664796000,-0.004239374,0.012458317,0.3910393,0.0,0.98092306,-0.0032894257,0.0056986236,0.19428505,0.0,0.0,-0.5617437,1,0,0,0,0,0
664892000,-0.0036454857,0.013735222,0.3910393,0.0,0.98091966,-0.0031221719,0.0063825897,0.19428371,0.0,0.0,-0.5625484,1,0,0,0,0,0
665008000,-0.002681102,0.011559711,0.3910393,0.0,0.98092806,-0.0024378686,0.0054092617,0.19428052,0.0,0.0,-0.5624115,1,0,0,0,0,0
665104000,-0.0031309556,0.01317875,0.3910393,0.0,0.98092234,-0.0028157646,0.0061596422,0.19428198,0.0,0.0,-0.56364596,1,0,0,0,0,0
665204000,-0.0016164279,0.012615224,0.3910393,0.0,0.98092604,-0.0020182105,0.006030375,0.19427739,0.0,0.0,-0.56331784,1,0,0,0,0,0
665300000,-0.0033230188,0.012501587,0.3910393,0.0,0.9809243,-0.0028441914,0.005808862,0.19428244,0.0,0.0,-0.5633757,1,0,0,0,0,0
665396000,-0.0010874332,0.012974791,0.3910393,0.0,0.9809254,-0.0017936841,0.006258115,0.19427568,0.0,0.0,-0.5616784,1,0,0,0,0,0
665492000,-0.0029154865,0.01325921,0.3910393,0.0,0.9809224,-0.0027179006,0.0062200367,0.19428131,0.0,0.0,-0.562173,1,0,0,0,0,0
665608000,-0.0024043145,0.012686259,0.3910393,0.0,0.98092496,-0.0024115392,0.005988681,0.19427975,0.0,0.0,-0.5629928,1,0,0,0,0,0
665704000,-0.0023590664,0.0136468,0.3910393,0.0,0.98092175,-0.0024826461,0.006464186,0.19427958,0.0,0.0,-0.5637628,1,0,0,0,0,0
665804000,0.000110827365,0.013888058,0.3910393,0.0,0.9809233,-0.001294693,0.006822434,0.19427128,0.0,0.0,-0.5605753,1,0,0,0,0,0
665900000,0.0011807497,0.0115325255,0.3910393,0.0,0.98093104,-0.0005411252,0.005771059,0.19426973,0.0,0.0,-0.5639602,1,0,0,0,0,0
665996000,-0.0008631961,0.013833412,0.3910393,0.0,0.98092276,-0.0017671059,0.0067010187,0.19427459,0.0,0.0,-0.5621495,1,0,0,0,0,0
666092000,-0.00031036785,0.01437286,0.3910393,0.0,0.9809213,-0.0015483643,0.0070192968,0.1942724,0.0,0.0,-0.5631324,1,0,0,0,0,0
666208000,0.000808106,0.014205671,0.3910393,0.0,0.9809226,-0.0009835564,0.00704594,0.19426858,0.0,0.0,-0.56331754,1,0,0,0,0,0
666304000,0.0009852081,0.01435495,0.3910393,0.0,0.98092216,-0.00091119536,0.007136359,0.19426784,0.0,0.0,-0.56235427,1,0,0,0,0,0
666404000,-0.0006116044,0.014467296,0.3910393,0.0,0.98092073,-0.001705282,0.0070363535,0.19427341,0.0,0.0,-0.5618714,1,0,0,0,0,0
666500000,-0.0004528513,0.014737696,0.3910393,0.0,0.9809199,-0.0016536849,0.007184394,0.19427268,0.0,0.0,-0.5628181,1,0,0,0,0,0
666596000,0.0018660091,0.013113159,0.3910393,0.0,0.9809265,-0.0003585702,0.006612864,0.19426608,0.0,0.0,-0.56279206,1,0,0,0,0,0
666692000,0.0025378615,0.013868107,0.3910393,0.0,0.9809242,-0.00010238723,0.007048395,0.19426286,0.0,0.0,-0.56301826,1,0,0,0,0,0
666808000,0.0013106322,0.014057546,0.3910393,0.0,0.9809233,-0.00072269817,0.0070221038,0.19426696,0.0,0.0,-0.5630489,1,0,0,0,0,0
666904000,0.00090852706,0.016159559,0.3910393,0.0,0.9809155,-0.0011240987,0.008013995,0.19426635,0.0,0.0,-0.5631024,1,0,0,0,0,0
667004000,0.0022592521,0.014352795,0.38768595,0.0,0.9812469,-0.00027394507,0.0072595226,0.19261825,0.0,0.0,-0.5609697,1,0,0,0,0,0
667100000,-0.009930581,0.035452984,0.31228775,0.0,0.98765326,-0.007660565,0.016737673,0.15557075,0.0,0.0,-0.5762194,1,0,0,0,0,0
667196000,-0.052330114,0.100199245,0.23688953,0.0,0.9912534,-0.03186184,0.046623133,0.11928032,0.0,0.0,-0.5578614,1,0,0,0,0,0
667292000,-0.12721002,0.18382715,0.16149126,0.0,0.99005693,-0.070475765,0.08619502,0.08597003,0.0,0.0,-0.5636845,1,0,0,0,0,0
667408000,-0.2353949,0.25845373,0.07038507,0.0,0.9836589,-0.12087756,0.123799495,0.0497735,0.0,0.0,-0.57317466,1,0,0,0,0,0
667504000,-0.30851644,0.2828998,-0.0050131567,0.0,0.9783082,-0.151763,0.13968551,0.019208835,0.0,0.0,-0.5765076,1,0,0,0,0,0
667604000,-0.35128516,0.2721233,-0.08355297,0.0,0.9756533,-0.167397,0.14066927,-0.01706016,0.0,0.0,-0.58422965,1,0,0,0,0,0
667700000,-0.38667756,0.25176495,-0.15895121,0.0,0.9724449,-0.18023257,0.13795552,-0.05324961,0.0,0.0,-0.5964967,1,0,0,0,0,0
667796000,-0.41709924,0.2267645,-0.23434947,0.0,0.9681235,-0.19136102,0.13397808,-0.090375386,0.0,0.0,-0.6058864,1,0,0,0,0,0
667892000,-0.44870225,0.2037029,-0.30974767,0.0,0.9617669,-0.2033809,0.13208081,-0.12726083,0.0,0.0,-0.6155755,1,0,0,0,0,0
668008000,-0.49686715,0.17178181,-0.40085384,0.0,0.9505928,-0.22352096,0.13025947,-0.17159297,0.0,0.0,-0.6273645,1,0,0,0,0,0
668104000,-0.52959263,0.13890426,-0.47625205,0.0,0.939934,-0.23791565,0.12667203,-0.20946224,0.0,0.0,-0.6355915,1,0,0,0,0,0
668204000,-0.5448425,0.09996623,-0.5547918,0.0,0.9288284,-0.24527745,0.119872026,-0.25049442,0.0,0.0,-0.6384992,1,0,0,0,0,0
668300000,-0.5651063,0.056016613,-0.63019,0.0,0.9151275,-0.2566432,0.11194084,-0.29007772,0.0,0.0,-0.6448815,1,0,0,0,0,0
668396000,-0.5807061,0.007945749,-0.7055882,0.0,0.89951766,-0.2673408,0.10249079,-0.32998872,0.0,0.0,-0.6525319,1,0,0,0,0,0
668492000,-0.5933043,-0.043836333,-0.7809864,0.0,0.88167906,-0.27822784,0.09186203,-0.3698551,0.0,0.0,-0.66025025,1,0,0,0,0,0
668588000,-0.60423595,-0.095837995,-0.85638463,0.0,0.86160034,-0.2893582,0.08180357,-0.40893143,0.0,0.0,-0.66565037,1,0,0,0,0,0
668704000,-0.61788416,-0.1640358,-0.9474908,0.0,0.8335217,-0.3052619,0.06879696,-0.45532814,0.0,0.0,-0.67902786,1,0,0,0,0,0
668804000,-0.6065284,-0.2038335,-1.0260307,0.0,0.8122826,-0.30649906,0.061214305,-0.49245113,0.0,0.0,-0.6784075,1,0,0,0,0,0
668900000,-0.5900855,-0.24868998,-1.1014291,0.0,0.79016185,-0.3079732,0.04986858,-0.52755076,0.0,0.0,-0.6839257,1,0,0,0,0,0
668996000,-0.56656104,-0.29257083,-1.1768275,0.0,0.7675249,-0.30769753,0.03706385,-0.56111854,0.0,0.0,-0.6854,1,0,0,0,0,0
669092000,-0.527709,-0.3315319,-1.252226,0.0,0.7463267,-0.30178332,0.021655466,-0.59283596,0.0,0.0,-0.68665636,1,0,0,0,0,0
669208000,-0.47244984,-0.366339,-1.3433324,0.0,0.7217879,-0.2903345,0.0045786533,-0.6282572,0.0,0.0,-0.6868507,1,0,0,0,0,0
669304000,-0.41805455,-0.37659547,-1.4187309,0.0,0.70383894,-0.27393997,-0.0061692325,-0.65538514,0.0,0.0,-0.682564,1,0,0,0,0,0
669404000,-0.3694349,-0.3701564,-1.497271,0.0,0.68485105,-0.25538394,-0.009648099,-0.68239653,0.0,0.0,-0.67667264,1,0,0,0,0,0
669500000,-0.33339173,-0.3844249,-1.5726694,0.0,0.6613882,-0.24838969,-0.017808376,-0.7074963,0.0,0.0,-0.6753222,1,0,0,0,0,0
669596000,-0.31017157,-0.42058685,-1.6480678,0.0,0.63266546,-0.2539703,-0.029229786,-0.73101246,0.0,0.0,-0.67142737,1,0,0,0,0,0
669692000,-0.28833,-0.46912608,-1.7234663,0.0,0.6013805,-0.2655516,-0.043710135,-0.75227195,0.0,0.0,-0.67003024,1,0,0,0,0,0
669808000,-0.24680088,-0.5091015,-1.8145727,0.0,0.5670888,-0.2702419,-0.060059436,-0.77574,0.0,0.0,-0.66412526,1,0,0,0,0,0
669904000,-0.20605548,-0.5201924,-1.8899711,0.0,0.54161453,-0.26554692,-0.06929027,-0.79456747,0.0,0.0,-0.6681247,1,0,0,0,0,0
670004000,-0.16395092,-0.51727,-1.9685112,0.0,0.5158352,-0.25611192,-0.07515476,-0.8140469,0.0,0.0,-0.66969836,1,0,0,0,0,0
670100000,-0.12593582,-0.5194887,-2.0439095,0.0,-0.48941207,0.25040534,0.081840806,0.83130926,0.0,0.0,-0.6705436,1,0,0,0,0,0
670196000,-0.0879735,-0.523059,-2.119308,0.0,-0.4621665,0.24607171,0.08930954,0.84727484,0.0,0.0,-0.67062116,1,0,0,0,0,0
670292000,-0.04622929,-0.53190166,-2.1947064,0.0,-0.43439952,0.24402209,0.099957645,0.8612542,0.0,0.0,-0.6704422,1,0,0,0,0,0
670408000,-0.01929647,-0.54322374,-2.2414222,0.0,-0.4167433,0.24559832,0.10834094,0.8684864,0.0,0.0,-0.6700116,1,0,0,0,0,0
670504000,-0.017704185,-0.5463579,-2.2411764,0.0,-0.41685003,0.24661031,0.10972263,0.8679749,0.0,0.0,-0.66940534,1,0,0,0,0,0
670604000,-0.017594965,-0.5410919,-2.2409692,0.0,-0.41728118,0.24429548,0.108686075,0.8685525,0.0,0.0,-0.6674321,1,0,0,0,0,0
670700000,-0.017702928,-0.5408373,-2.2407408,0.0,-0.4173829,0.24419528,0.10861342,0.8685409,0.0,0.0,-0.66884255,1,0,0,0,0,0
670796000,-0.019076144,-0.53505266,-2.2405796,0.0,-0.41764376,0.24196629,0.10681609,0.8692619,0.0,0.0,-0.6676792,1,0,0,0,0,0
670892000,-0.017316103,-0.5350646,-2.2403836,0.0,-0.41794103,0.2415933,0.107607216,0.86912525,0.0,0.0,-0.6698561,1,0,0,0,0,0
670988000,-0.015259629,-0.5347459,-2.2402241,0.0,-0.41827792,0.24101657,0.10845282,0.8690182,0.0,0.0,-0.66968375,1,0,0,0,0,0
671104000,-0.01246596,-0.54268247,-2.2399936,0.0,-0.41823277,0.24385954,0.111366786,0.86787754,0.0,0.0,-0.6705833,1,0,0,0,0,0
671204000,-0.010784489,-0.53736746,-2.239811,0.0,-0.41883823,0.2411941,0.11099914,0.8683773,0.0,0.0,-0.6684795,1,0,0,0,0,0
671300000,-0.0076252306,-0.5405277,-2.239628,0.0,-0.4191095,0.24189195,0.11305795,0.8677865,0.0,0.0,-0.67083365,1,0,0,0,0,0
671396000,-0.007025949,-0.537032,-2.2394838,0.0,-0.41945264,0.2402426,0.11259951,0.86813843,0.0,0.0,-0.6687113,1,0,0,0,0,0
671492000,-0.006502238,-0.539417,-2.2393324,0.0,-0.4194396,0.24115834,0.11334714,0.86779344,0.0,0.0,-0.6680544,1,0,0,0,0,0
671608000,-0.0061054723,-0.541138,-2.2391965,0.0,-0.41944414,0.24181342,0.11389793,0.8675369,0.0,0.0,-0.6695441,1,0,0,0,0,0
671704000,-0.005265884,-0.54256016,-2.2391117,0.0,-0.41949773,0.2422488,0.114571564,0.86730075,0.0,0.0,-0.672043,1,0,0,0,0,0
671804000,-0.0064515113,-0.5376975,-2.2390656,0.0,-0.41966376,0.24038713,0.113039255,0.86793923,0.0,0.0,-0.66869015,1,0,0,0,0,0
671900000,-0.00649585,-0.53166795,-2.2390695,0.0,-0.42001253,0.23778115,0.11174915,0.86865515,0.0,0.0,-0.66830945,1,0,0,0,0,0
671996000,-0.0061996337,-0.53918934,-2.2390609,0.0,-0.4196075,0.24098079,0.11346324,0.8677465,0.0,0.0,-0.6716183,1,0,0,0,0,0
672092000,-0.0055209687,-0.5417955,-2.2390647,0.0,-0.41953275,0.24196824,0.11430574,0.8673972,0.0,0.0,-0.66896504,1,0,0,0,0,0
672208000,-0.0065653655,-0.5544637,-2.23914,0.0,-0.41860813,0.24767649,0.11650772,0.86593854,0.0,0.0,-0.6721498,1,0,0,0,0,0
672304000,-0.008478618,-0.5525652,-2.239234,0.0,-0.4184469,0.24726102,0.1152685,0.866301,0.0,0.0,-0.6712322,1,0,0,0,0,0
672404000,-0.00911307,-0.55405766,-2.239398,0.0,-0.41820553,0.24804878,0.11528718,0.86618984,0.0,0.0,-0.6739703,1,0,0,0,0,0
672500000,-0.009647132,-0.5477756,-2.2395544,0.0,-0.4184571,0.24545097,0.11371528,0.8670158,0.0,0.0,-0.67230827,1,0,0,0,0,0
672596000,-0.009030062,-0.55220425,-2.2397294,0.0,-0.41818622,0.24724868,0.11489249,0.8664803,0.0,0.0,-0.6748985,1,0,0,0,0,0
672692000,-0.0077994475,-0.5520767,-2.2398872,0.0,-0.4182777,0.24694525,0.11537932,0.866458,0.0,0.0,-0.6719918,1,0,0,0,0,0
672788000,-0.008222861,-0.55634534,-2.2400541,0.0,-0.41789114,0.24889018,0.11607178,0.8659954,0.0,0.0,-0.67572683,1,0,0,0,0,0
672904000,-0.008273348,-0.5579226,-2.2402277,0.0,-0.41771242,0.24959292,0.11635941,0.86584073,0.0,0.0,-0.67420644,1,0,0,0,0,0
673004000,-0.00912577,-0.5580137,-2.2404509,0.0,-0.41750374,0.24982324,0.11598161,0.86592567,0.0,0.0,-0.6747499,1,0,0,0,0,0
673100000,-0.010526956,-0.5533669,-2.2406325,0.0,-0.41753796,0.24811623,0.114376366,0.8666132,0.0,0.0,-0.6744139,1,0,0,0,0,0
673196000,-0.010767073,-0.5560715,-2.2409122,0.0,-0.41721952,0.24935241,0.11480555,0.866355,0.0,0.0,-0.67745847,1,0,0,0,0,0
673292000,-0.01144972,-0.55275136,-2.2411554,0.0,-0.41723496,0.24807231,0.113782346,0.8668499,0.0,0.0,-0.67616975,1,0,0,0,0,0
673388000,-0.011212913,-0.5552313,-2.2414553,0.0,-0.4169808,0.24911305,0.11436834,0.8665966,0.0,0.0,-0.6794156,1,0,0,0,0,0
673504000,-0.010636393,-0.55712676,-2.2417562,0.0,-0.41680476,0.24983011,0.114978254,0.8663941,0.0,0.0,-0.6790224,1,0,0,0,0,0
673604000,-0.010901607,-0.55766386,-2.2420673,0.0,-0.4166034,0.2501356,0.1149371,0.8664083,0.0,0.0,-0.6802939,1,0,0,0,0,0
673700000,-0.011194152,-0.5545342,-2.2422936,0.0,-0.4166631,0.24885543,0.114125885,0.8668553,0.0,0.0,-0.67884827,1,0,0,0,0,0
673796000,-0.011159528,-0.5598439,-2.2425983,0.0,-0.4162053,0.25116274,0.11521572,0.8662655,0.0,0.0,-0.6783962,1,0,0,0,0,0
673892000,-0.01259146,-0.54170674,-2.242848,0.0,-0.4170378,0.24362138,0.110759206,0.86859685,0.0,0.0,-0.67421305,1,0,0,0,0,0
673988000,-0.016143398,-0.5139079,-2.243184,0.0,-0.41813043,0.23230617,0.1033224,0.87208104,0.0,0.0,-0.6732707,1,0,0,0,0,0
674104000,-0.014383669,-0.4752434,-2.243519,0.0,-0.42036408,0.21508512,0.095883705,0.8762641,0.0,0.0,-0.67110074,1,0,0,0,0,0
674204000,-0.013128345,-0.45833758,-2.243863,0.0,-0.42124534,0.20743452,0.09281665,0.87801385,0.0,0.0,-0.6651119,1,0,0,0,0,0
674300000,-0.008824936,-0.44862837,-2.244061,0.0,-0.4220961,0.20227712,0.092628606,0.8788281,0.0,0.0,-0.6591278,1,0,0,0,0,0
674396000,-0.0062066615,-0.4489204,-2.2443385,0.0,-0.4222241,0.20186563,0.09381288,0.8787356,0.0,0.0,-0.6539025,1,0,0,0,0,0
674492000,-0.0038643156,-0.43854475,-2.2445164,0.0,-0.42288595,0.19682033,0.09262752,0.8796871,0.0,0.0,-0.6485846,1,0,0,0,0,0
674608000,-0.0024640006,-0.42490917,-2.2447977,0.0,-0.42354038,0.1905369,0.09032709,0.8809939,0.0,0.0,-0.6463178,1,0,0,0,0,0
674704000,-0.0026114513,-0.40733832,-2.2449913,0.0,-0.42423776,0.18283135,0.086515784,0.88267213,0.0,0.0,-0.64557034,1,0,0,0,0,0
674804000,-0.008964304,-0.40624735,-2.2452912,0.0,-0.42357236,0.1837093,0.08345207,0.88310426,0.0,0.0,-0.6452941,1,0,0,0,0,0
674900000,-0.015026801,-0.405166,-2.2455049,0.0,-0.42296994,0.18452409,0.08052487,0.88349473,0.0,0.0,-0.64109606,1,0,0,0,0,0
674996000,-0.016295768,-0.40077645,-2.2458577,0.0,-0.4229029,0.18286984,0.07899729,0.88400865,0.0,0.0,-0.6380866,1,0,0,0,0,0
675092000,-0.0116671845,-0.38392833,-2.2461014,0.0,-0.42397156,0.17445679,0.07743508,0.88533425,0.0,0.0,-0.6357327,1,0,0,0,0,0
675188000,-0.0057065794,-0.3702893,-2.246275,0.0,-0.42498338,0.16716242,0.07715545,0.8862804,0.0,0.0,-0.63489425,1,0,0,0,0,0
675304000,-0.00014997862,-0.35365778,-2.2462797,0.0,-0.4260925,0.15860742,0.07607631,0.88741267,0.0,0.0,-0.6301921,1,0,0,0,0,0
675404000,0.004202402,-0.34521866,-2.2462745,0.0,-0.42674857,0.15393303,0.07621044,0.88790894,0.0,0.0,-0.6291426,1,0,0,0,0,0
675500000,-0.0022921548,-0.34407213,-2.246169,0.0,-0.4263365,0.15480508,0.07309035,0.88821757,0.0,0.0,-0.62822694,1,0,0,0,0,0
675596000,-0.0109317545,-0.34864083,-2.2461689,0.0,-0.42548236,0.15867274,0.07022881,0.8881755,0.0,0.0,-0.62554204,1,0,0,0,0,0
675692000,-0.011282456,-0.33600593,-2.246138,0.0,-0.4259657,0.15313745,0.067375116,0.889136,0.0,0.0,-0.62166023,1,0,0,0,0,0
675788000,-0.0065041794,-0.32426256,-2.2461927,0.0,-0.4267407,0.14690156,0.06698496,0.88984567,0.0,0.0,-0.6220834,1,0,0,0,0,0
675904000,0.0008965567,-0.30533248,-2.2461016,0.0,-0.42796037,0.13689145,0.066237405,0.8909115,0.0,0.0,-0.6197794,1,0,0,0,0,0
676004000,0.002615901,-0.3000436,-2.246107,0.0,-0.42824495,0.13416694,0.0658716,0.8912163,0.0,0.0,-0.61718327,1,0,0,0,0,0
676100000,-0.002027658,-0.29875907,-2.2460215,0.0,-0.42801255,0.1345857,0.063532926,0.89143455,0.0,0.0,-0.6143372,1,0,0,0,0,0
676196000,-0.007629942,-0.30060527,-2.24613,0.0,-0.42752275,0.13660996,0.06142391,0.89150953,0.0,0.0,-0.6120601,1,0,0,0,0,0
676292000,-0.005913145,-0.28886408,-2.2461638,0.0,-0.42801338,0.13101049,0.059670705,0.8922333,0.0,0.0,-0.6097671,1,0,0,0,0,0
676388000,-0.0041184574,-0.27848446,-2.2462919,0.0,-0.42840073,0.12599945,0.058237743,0.8928636,0.0,0.0,-0.61214054,1,0,0,0,0,0
676504000,-0.001375124,-0.26274016,-2.246347,0.0,-0.42901304,0.11838197,0.056082197,0.8937496,0.0,0.0,-0.6093109,1,0,0,0,0,0
676604000,-0.0025351944,-0.26413193,-2.2464242,0.0,-0.4288695,0.11925479,0.055857867,0.8937165,0.0,0.0,-0.60933787,1,0,0,0,0,0
676700000,-0.00651066,-0.25939006,-2.2463646,0.0,-0.42879903,0.117986776,0.053066555,0.8940886,0.0,0.0,-0.605194,1,0,0,0,0,0
676796000,-0.0060247816,-0.25457445,-2.2463615,0.0,-0.4289691,0.11573024,0.052249566,0.89435005,0.0,0.0,-0.60357934,1,0,0,0,0,0
676892000,-0.0029024116,-0.24417748,-2.2462492,0.0,-0.42948604,0.11040798,0.051418584,0.89482284,0.0,0.0,-0.60221446,1,0,0,0,0,0
677008000,-0.0026595357,-0.23415929,-2.2462006,0.0,-0.42978588,0.105871715,0.049376316,0.895342,0.0,0.0,-0.59977925,1,0,0,0,0,0
677104000,0.00023366352,-0.2258963,-2.2460642,0.0,-0.43020442,0.10154682,0.048901774,0.8956679,0.0,0.0,-0.60102487,1,0,0,0,0,0
677204000,-0.0005884976,-0.21796182,-2.245752,0.0,-0.43049374,0.098162256,0.046841722,0.8960163,0.0,0.0,-0.6000896,1,0,0,0,0,0
677300000,-0.0024591659,-0.22116293,-2.2456424,0.0,-0.43037316,0.099996194,0.046698328,0.8958789,0.0,0.0,-0.59706616,1,0,0,0,0,0
677396000,-0.0067496602,-0.21195002,-2.2454767,0.0,-0.43046147,0.09678883,0.042799287,0.89638335,0.0,0.0,-0.5966513,1,0,0,0,0,0
677492000,-0.0040485896,-0.20786376,-2.2454267,0.0,-0.4307106,0.09437518,0.04313158,0.89650506,0.0,0.0,-0.5939165,1,0,0,0,0,0
677608000,-0.0029304062,-0.20050958,-2.2452497,0.0,-0.4310099,0.09083405,0.04205558,0.8967781,0.0,0.0,-0.59466994,1,0,0,0,0,0
677704000,-0.0017798631,-0.19894741,-2.2452617,0.0,-0.4310911,0.08988594,0.042234097,0.8968262,0.0,0.0,-0.5920749,1,0,0,0,0,0
677804000,-0.000469262,-0.19149421,-2.245164,0.0,-0.43135187,0.08625886,0.041218817,0.8971042,0.0,0.0,-0.5937964,1,0,0,0,0,0
677900000,-0.0026334447,-0.18767735,-2.245411,0.0,-0.431228,0.08501835,0.03941402,0.8973633,0.0,0.0,-0.5899095,1,0,0,0,0,0
677996000,-0.0067435065,-0.17864595,-2.2455845,0.0,-0.43116704,0.08185524,0.035613265,0.89784545,0.0,0.0,-0.5921483,1,0,0,0,0,0
678092000,-0.0035455823,-0.17666648,-2.2458181,0.0,-0.4312321,0.08028152,0.036612295,0.8979161,0.0,0.0,-0.5899949,1,0,0,0,0,0
678188000,-0.0020448393,-0.17212334,-2.2458806,0.0,-0.43135193,0.0779194,0.036303453,0.89807916,0.0,0.0,-0.58800805,1,0,0,0,0,0
678304000,-0.0032160943,-0.16748518,-2.2459815,0.0,-0.43134946,0.07609104,0.034772754,0.89829767,0.0,0.0,-0.5881651,1,0,0,0,0,0
678404000,-0.003922525,-0.16004258,-2.245944,0.0,-0.43147767,0.07289992,0.032850407,0.89857304,0.0,0.0,-0.5886169,1,0,0,0,0,0
678500000,-0.0045369016,-0.15676045,-2.2459602,0.0,-0.43150756,0.07155825,0.031865176,0.898702,0.0,0.0,-0.5882948,1,0,0,0,0,0
678596000,-0.003374596,-0.15014501,-2.245831,0.0,-0.4317219,0.06833286,0.030963456,0.8988816,0.0,0.0,-0.5859697,1,0,0,0,0,0
678692000,-0.002902743,-0.14879727,-2.2456553,0.0,-0.4318397,0.067622624,0.030890401,0.8988812,0.0,0.0,-0.585788,1,0,0,0,0,0
678808000,-0.0040772907,-0.14195019,-2.2452996,0.0,-0.43207377,0.06479373,0.028894631,0.89904344,0.0,0.0,-0.5863451,1,0,0,0,0,0
678904000,-0.002129661,-0.1382445,-2.2453403,0.0,-0.43217626,0.06270779,0.02896785,0.89913976,0.0,0.0,-0.5841316,1,0,0,0,0,0
679004000,-0.001486069,-0.13020046,-2.2451649,0.0,-0.43239495,0.058949664,0.02752346,0.8993342,0.0,0.0,-0.58490735,1,0,0,0,0,0
679100000,-0.0029611103,-0.1281493,-2.2450814,0.0,-0.4324189,0.05834514,0.026419004,0.8993952,0.0,0.0,-0.58150643,1,0,0,0,0,0
679196000,-0.0036294956,-0.122827254,-2.2448843,0.0,-0.4325647,0.05609391,0.024972681,0.89950967,0.0,0.0,-0.5835601,1,0,0,0,0,0
679292000,-0.0044910796,-0.11978014,-2.244761,0.0,-0.43263906,0.05490843,0.023929164,0.8995754,0.0,0.0,-0.58211654,1,0,0,0,0,0
679388000,-0.0046094786,-0.11626929,-2.244579,0.0,-0.4327661,0.053352926,0.02312083,0.899629,0.0,0.0,-0.5799214,1,0,0,0,0,0
679504000,-0.0044830814,-0.10942791,-2.2440774,0.0,-0.43308574,0.05024286,0.021708978,0.8996895,0.0,0.0,-0.5819977,1,0,0,0,0,0
679604000,-0.0031594692,-0.106055595,-2.2433238,0.0,-0.4334997,0.04843116,0.021592043,0.8995923,0.0,0.0,-0.5762221,1,0,0,0,0,0
679700000,-0.00025161868,-0.10519527,-2.2425847,0.0,-0.43391192,0.047405478,0.022730973,0.8994201,0.0,0.0,-0.58163774,1,0,0,0,0,0
679796000,0.00012685006,-0.099392004,-2.2417064,0.0,-0.43438023,0.04470388,0.02166165,0.89935875,0.0,0.0,-0.5772271,1,0,0,0,0,0
679892000,-0.0017672431,-0.09483195,-2.2410302,0.0,-0.43469173,0.0430579,0.019833928,0.89933074,0.0,0.0,-0.57818353,1,0,0,0,0,0
679988000,-0.002890588,-0.09130839,-2.2403822,0.0,-0.43499684,0.04171163,0.018576277,0.8992735,0.0,0.0,-0.5764695,1,0,0,0,0,0
680104000,-0.0046226764,-0.089655824,-2.2398384,0.0,-0.43522307,0.041340586,0.017449137,0.8992038,0.0,0.0,-0.5764977,1,0,0,0,0,0
680204000,-0.0018119289,-0.08617144,-2.2393246,0.0,-0.43554655,0.03915775,0.0179644,0.8991347,0.0,0.0,-0.5773419,1,0,0,0,0,0
680300000,-0.0025682964,-0.08393369,-2.2388213,0.0,-0.43577996,0.03831214,0.017146569,0.899074,0.0,0.0,-0.57560825,1,0,0,0,0,0
680396000,-0.0032834199,-0.078130044,-2.2382257,0.0,-0.43608952,0.03585437,0.015570831,0.89905393,0.0,0.0,-0.5757673,1,0,0,0,0,0
680492000,-0.005279615,-0.075704835,-2.240658,0.0,-0.43498296,0.035216656,0.014101664,0.89963925,0.0,0.0,-0.5752453,1,0,0,0,0,0
680588000,-0.005072221,-0.07618118,-2.2186668,0.0,-0.44484758,0.03522644,0.014686814,0.89479274,0.0,0.0,-0.5739413,1,0,0,0,0,0
680704000,0.029673718,-0.0741833,-2.1275604,0.0,-0.48566455,0.025215289,0.030965459,0.87323266,0.0,0.0,-0.57493883,1,0,0,0,0,0
680804000,0.091392666,-0.055448838,-2.0490203,0.0,0.51985776,6.1025483e-05,-0.053403534,-0.852582,0.0,0.0,-0.5703251,1,0,0,0,0,0
680900000,0.16949907,-0.0355504,-1.9736218,0.0,0.5505428,0.031888288,-0.08037311,-0.8303168,0.0,0.0,-0.57552916,1,0,0,0,0,0
680996000,0.23865211,-0.026049653,-1.8982234,0.0,0.57947534,0.05881318,-0.104293294,-0.8061466,0.0,0.0,-0.57362884,1,0,0,0,0,0
681092000,0.27438843,-0.033858057,-1.822825,0.0,0.60861635,0.07052003,-0.118352145,-0.78141266,0.0,0.0,-0.5753962,1,0,0,0,0,0
681188000,0.27932873,-0.048811175,-1.7474265,0.0,0.6381482,0.07081629,-0.12221749,-0.75684536,0.0,0.0,-0.5745232,1,0,0,0,0,0
681304000,0.28716874,-0.075701274,-1.6563201,0.0,0.67278326,0.0691032,-0.13066474,-0.72492355,0.0,0.0,-0.58324134,1,0,0,0,0,0
681404000,0.2809801,-0.09557173,-1.57778,0.0,0.7016407,0.06499538,-0.13257378,-0.6970654,0.0,0.0,-0.584902,1,0,0,0,0,0
681500000,0.28670156,-0.11193975,-1.5023816,0.0,0.7277016,0.06646135,-0.1378172,-0.6686102,0.0,0.0,-0.5882125,1,0,0,0,0,0
681596000,0.29365075,-0.12468888,-1.4269831,0.0,0.75245875,0.07006072,-0.14216311,-0.63928634,0.0,0.0,-0.5909736,1,0,0,0,0,0
681692000,0.2993389,-0.14135434,-1.3515847,0.0,0.7761497,0.07236885,-0.14751987,-0.60876286,0.0,0.0,-0.5945387,1,0,0,0,0,0
681808000,0.3059075,-0.16667242,-1.2604783,0.0,0.8031579,0.074177206,-0.155942,-0.5701904,0.0,0.0,-0.59808666,1,0,0,0,0,0
681904000,0.29893634,-0.18772763,-1.1850798,0.0,0.82445973,0.0712231,-0.15967813,-0.5382344,0.0,0.0,-0.6009234,1,0,0,0,0,0
682004000,0.27697843,-0.19476272,-1.1065397,0.0,0.8457254,0.06629421,-0.15412636,-0.5065558,0.0,0.0,-0.60155696,1,0,0,0,0,0
682100000,0.2577868,-0.19724378,-1.0311413,0.0,0.8648419,0.06314289,-0.1480173,-0.47555482,0.0,0.0,-0.60266024,1,0,0,0,0,0
682196000,0.23900087,-0.1947577,-0.955743,0.0,0.88279665,0.060965642,-0.14028439,-0.44415483,0.0,0.0,-0.60264087,1,0,0,0,0,0
682292000,0.21988937,-0.19132826,-0.8803448,0.0,0.89957017,0.058356266,-0.13243039,-0.4121047,0.0,0.0,-0.6030036,1,0,0,0,0,0
682388000,0.1987819,-0.1892523,-0.8049466,0.0,0.91513056,0.054063506,-0.12519915,-0.37939206,0.0,0.0,-0.6029868,1,0,0,0,0,0
682504000,0.16804034,-0.18703046,-0.7138404,0.0,0.9323304,0.045778215,-0.116378516,-0.33929387,0.0,0.0,-0.5991588,1,0,0,0,0,0
682604000,0.121605344,-0.18347548,-0.63530064,0.0,0.9459679,0.02892263,-0.105764605,-0.30515897,0.0,0.0,-0.6013218,1,0,0,0,0,0
682700000,0.08419117,-0.1711325,-0.5599024,0.0,0.9576983,0.016703896,-0.09364739,-0.27159753,0.0,0.0,-0.59691674,1,0,0,0,0,0
682796000,0.054243617,-0.15892841,-0.48450422,0.0,0.9678972,0.0072079767,-0.08351927,-0.23695482,0.0,0.0,-0.5955699,1,0,0,0,0,0
682892000,0.03889777,-0.15195477,-0.40910602,0.0,0.97644234,0.0035717897,-0.07824678,-0.20105982,0.0,0.0,-0.5939564,1,0,0,0,0,0
682988000,0.026103416,-0.15034999,-0.3337078,0.0,0.98340607,0.0003614322,-0.07621632,-0.164631,0.0,0.0,-0.59050065,1,0,0,0,0,0
683104000,0.018857824,-0.15034264,-0.24260163,0.0,0.98989046,0.0002460276,-0.075683095,-0.11995358,0.0,0.0,-0.5877234,1,0,0,0,0,0
683204000,0.009794841,-0.15353002,-0.16406177,0.0,0.9937211,-0.0014172321,-0.07683094,-0.081322305,0.0,0.0,-0.58686435,1,0,0,0,0,0
683300000,0.0011831826,-0.15428877,-0.08866353,0.0,0.99604815,-0.0028261833,-0.07701829,-0.044139884,0.0,0.0,-0.58559346,1,0,0,0,0,0
683396000,-0.013300261,-0.1508249,-0.01326531,0.0,0.9971105,-0.007130731,-0.07529369,-0.0071146213,0.0,0.0,-0.5854452,1,0,0,0,0,0
683492000,-0.021524359,-0.14504711,0.007933652,0.0,0.9973088,-0.010446178,-0.07249781,0.0031763522,0.0,0.0,-0.58399165,1,0,0,0,0,0
683588000,-0.024399541,-0.13914053,0.0108964965,0.0,0.99749655,-0.011791075,-0.06957425,0.0045866133,0.0,0.0,-0.58475596,1,0,0,0,0,0
683704000,-0.020189943,-0.13489482,0.01459149,0.0,0.99765384,-0.009579903,-0.06746454,0.006598386,0.0,0.0,-0.5826558,1,0,0,0,0,0
683804000,-0.015947167,-0.13079113,0.018023709,0.0,0.9977949,-0.0073672445,-0.065415934,0.008471144,0.0,0.0,-0.5829579,1,0,0,0,0,0
683900000,-0.013283911,-0.12842672,0.02153467,0.0,0.99786377,-0.0059369304,-0.06423547,0.010318518,0.0,0.0,-0.58140475,1,0,0,0,0,0
683996000,-0.012529629,-0.1270291,0.024689026,0.0,0.997893,-0.005468171,-0.06354295,0.011921461,0.0,0.0,-0.57924706,1,0,0,0,0,0
684092000,-0.017280925,-0.123563014,0.028031409,0.0,0.9979643,-0.007757724,-0.061854705,0.013454562,0.0,0.0,-0.57999384,1,0,0,0,0,0
684188000,-0.020089816,-0.12037062,0.031058008,0.0,0.9980281,-0.009091374,-0.06029439,0.014895374,0.0,0.0,-0.5812341,1,0,0,0,0,0
684304000,-0.020969354,-0.116097875,0.034709234,0.0,0.99812096,-0.009458504,-0.058186058,0.016715381,0.0,0.0,-0.5793754,1,0,0,0,0,0
684404000,-0.021992495,-0.114716,0.037805438,0.0,0.9981287,-0.009892484,-0.05752035,0.018239116,0.0,0.0,-0.58062816,1,0,0,0,0,0
684500000,-0.021269036,-0.10977489,0.04088893,0.0,0.9982409,-0.0094946455,-0.0550624,0.019827826,0.0,0.0,-0.5791626,1,0,0,0,0,0
684596000,-0.020280343,-0.10976238,0.043798,0.0,0.99821585,-0.008921221,-0.05505937,0.021307075,0.0,0.0,-0.57899386,1,0,0,0,0,0
684692000,-0.020412033,-0.10842774,0.04689837,0.0,0.9982172,-0.0089175785,-0.054408543,0.022858495,0.0,0.0,-0.57916576,1,0,0,0,0,0
684788000,-0.018881215,-0.10734735,0.049925823,0.0,0.9982169,-0.008084926,-0.053864095,0.024416957,0.0,0.0,-0.5781069,1,0,0,0,0,0
684904000,-0.019192288,-0.103406824,0.053631846,0.0,0.99827194,-0.0081941,-0.05191637,0.0262799,0.0,0.0,-0.57697374,1,0,0,0,0,0
685004000,-0.020506494,-0.10082317,0.05696629,0.0,0.9982867,-0.008800886,-0.05065878,0.027925175,0.0,0.0,-0.57733077,1,0,0,0,0,0
685100000,-0.020547517,-0.096515074,0.06013312,0.0,0.9983466,-0.008806899,-0.048522945,0.029530084,0.0,0.0,-0.57492197,1,0,0,0,0,0
685196000,-0.02135044,-0.0965612,0.06336027,0.0,0.998293,-0.009128629,-0.048572615,0.031121183,0.0,0.0,-0.57490766,1,0,0,0,0,0
685292000,-0.020750046,-0.09394358,0.066622905,0.0,0.9983054,-0.008793895,-0.047271103,0.032779895,0.0,0.0,-0.57519555,1,0,0,0,0,0
685408000,-0.019289553,-0.09123353,0.07046935,0.0,0.9983088,-0.008022287,-0.045909923,0.034749575,0.0,0.0,-0.5734857,1,0,0,0,0,0
685504000,-0.019054268,-0.08920196,0.07386923,0.0,0.9982946,-0.0078647,-0.04490521,0.03646334,0.0,0.0,-0.5740073,1,0,0,0,0,0
685604000,-0.018718157,-0.08846467,0.07773686,0.0,0.99823976,-0.007624553,-0.044545896,0.038405415,0.0,0.0,-0.5727214,1,0,0,0,0,0
685700000,-0.01795629,-0.08719482,0.08133994,0.0,0.99819934,-0.007190093,-0.043910496,0.040227517,0.0,0.0,-0.5731898,1,0,0,0,0,0
685796000,-0.016543742,-0.08796885,0.08503495,0.0,0.9981113,-0.006387431,-0.04428025,0.04209872,0.0,0.0,-0.5737816,1,0,0,0,0,0
685892000,-0.015140357,-0.08460109,0.08872845,0.0,0.99810797,-0.0056804908,-0.04258055,0.043988924,0.0,0.0,-0.5719832,1,0,0,0,0,0
686008000,-0.014901372,-0.08354462,0.093171984,0.0,0.9980304,-0.0054913606,-0.042060364,0.046216432,0.0,0.0,-0.5741325,1,0,0,0,0,0
686104000,-0.015510238,-0.07857895,0.09691654,0.0,0.99804,-0.005837353,-0.03960744,0.048096213,0.0,0.0,-0.57298654,1,0,0,0,0,0
686204000,-0.013738663,-0.07690326,0.10129487,0.0,0.9979693,-0.004909279,-0.03873946,0.050323438,0.0,0.0,-0.57387,1,0,0,0,0,0
686300000,-0.013138558,-0.07558807,0.10526896,0.0,0.9978935,-0.004567615,-0.03807726,0.052323606,0.0,0.0,-0.571173,1,0,0,0,0,0
686396000,-0.012769114,-0.07670926,0.109491795,0.0,0.99776053,-0.0042721075,-0.038636096,0.05443275,0.0,0.0,-0.57292086,1,0,0,0,0,0
686492000,-0.01268045,-0.07533475,0.11356725,0.0,0.9976736,-0.004188282,-0.037956588,0.05647335,0.0,0.0,-0.57092065,1,0,0,0,0,0
686608000,-0.014416548,-0.07397735,0.11820917,0.0,0.9975609,-0.0050063306,-0.03734021,0.05876215,0.0,0.0,-0.57200897,1,0,0,0,0,0
686704000,-0.014389892,-0.070775904,0.1219205,0.0,0.9975073,-0.005021606,-0.035751987,0.0606287,0.0,0.0,-0.5708802,1,0,0,0,0,0
686804000,-0.011854111,-0.070565306,0.12625803,0.0,0.99738264,-0.003686154,-0.035578128,0.06283806,0.0,0.0,-0.57182515,1,0,0,0,0,0
686900000,-0.011164333,-0.0703398,0.13013008,0.0,0.99726415,-0.0032806708,-0.03545042,0.06478206,0.0,0.0,-0.5692204,1,0,0,0,0,0
686996000,-0.010914713,-0.06949907,0.13432859,0.0,0.9971409,-0.0031100682,-0.03502973,0.06688312,0.0,0.0,-0.5694949,1,0,0,0,0,0
687092000,-0.013244558,-0.06960163,0.13829118,0.0,0.9970004,-0.004198538,-0.035167143,0.06881729,0.0,0.0,-0.5700031,1,0,0,0,0,0
687208000,-0.01381363,-0.062380314,0.14248694,0.0,0.9969697,-0.0046660844,-0.031596653,0.07093205,0.0,0.0,-0.56971353,1,0,0,0,0,0
687304000,-0.0123742465,-0.063914604,0.14606547,0.0,0.99682045,-0.0038360262,-0.032317307,0.07273202,0.0,0.0,-0.5719141,1,0,0,0,0,0
687404000,-0.013808515,-0.06255059,0.14967456,0.0,0.9967057,-0.004543574,-0.031697884,0.07451381,0.0,0.0,-0.5702531,1,0,0,0,0,0
687500000,-0.013230912,-0.06255158,0.15383151,0.0,0.99654996,-0.004189838,-0.03168563,0.07659442,0.0,0.0,-0.5705717,1,0,0,0,0,0
687596000,-0.013260252,-0.06283385,0.1577574,0.0,0.99639326,-0.0041311043,-0.03183557,0.0785487,0.0,0.0,-0.5696802,1,0,0,0,0,0
687692000,-0.011212053,-0.061510794,0.16217117,0.0,0.9962413,-0.0030942794,-0.031102883,0.08078537,0.0,0.0,-0.5716478,1,0,0,0,0,0
687788000,-0.009361171,-0.058211748,0.16642073,0.0,0.9961184,-0.00224365,-0.02938961,0.08294252,0.0,0.0,-0.570083,1,0,0,0,0,0
687904000,-0.01003793,-0.057704207,0.17200336,0.0,0.9958894,-0.0025204166,-0.029172044,0.085714616,0.0,0.0,-0.570318,1,0,0,0,0,0
688004000,-0.011343247,-0.057893593,0.17683125,0.0,0.9956751,-0.0030914552,-0.02932983,0.088098556,0.0,0.0,-0.5694052,1,0,0,0,0,0
688100000,-0.008610966,-0.0559203,0.18216093,0.0,0.99546754,-0.001743199,-0.028231818,0.09079833,0.0,0.0,-0.57023764,1,0,0,0,0,0
688196000,-0.009017481,-0.05456042,0.1870425,0.0,0.995261,-0.0019401317,-0.027578244,0.09322685,0.0,0.0,-0.5703387,1,0,0,0,0,0
688292000,-0.008123587,-0.0548544,0.1927352,0.0,0.9949884,-0.0014027641,-0.027686968,0.09607067,0.0,0.0,-0.5686161,1,0,0,0,0,0
688408000,-0.006981346,-0.05163677,0.19875279,0.0,0.99473745,-0.00091106916,-0.026034195,0.09908958,0.0,0.0,-0.5683328,1,0,0,0,0,0
688504000,-0.006501432,-0.050277524,0.20440759,0.0,0.99447054,-0.00066820317,-0.025336364,0.10191189,0.0,0.0,-0.56976247,1,0,0,0,0,0
688604000,-0.0075921733,-0.04838799,0.209792,0.0,0.9942149,-0.0012411708,-0.024455834,0.10458102,0.0,0.0,-0.5702108,1,0,0,0,0,0
688700000,-0.007980124,-0.047529195,0.21477386,0.0,0.9939611,-0.0014191022,-0.024052825,0.10705528,0.0,0.0,-0.56997824,1,0,0,0,0,0
688796000,-0.008751609,-0.04662079,0.21904647,0.0,0.9937399,-0.001800717,-0.023646569,0.10917228,0.0,0.0,-0.5691151,1,0,0,0,0,0
688892000,-0.008262624,-0.04610104,0.20560609,0.0,0.9944575,-0.0017431345,-0.023350447,0.10249921,0.0,0.0,-0.56773853,1,0,0,0,0,0
689008000,-0.008342751,-0.04578446,0.20560609,0.0,0.99446094,-0.0017992312,-0.023197142,0.1024993,0.0,0.0,-0.57148784,1,0,0,0,0,0
689104000,-0.0059421672,-0.054520234,0.13020782,0.0,0.9975116,-0.0011904241,-0.027392097,0.064952664,0.0,0.0,-0.56962097,1,0,0,0,0,0
689204000,-0.0022804742,-0.082277454,0.051668014,0.0,0.9988211,-7.653242e-05,-0.041142803,0.025762381,0.0,0.0,-0.56817913,1,0,0,0,0,0
689300000,-0.00022240865,-0.12741812,0.03652044,0.0,0.99780506,0.0010515297,-0.06365737,0.018215084,0.0,0.0,-0.56905925,1,0,0,0,0,0
689396000,-6.395339e-05,-0.18181941,0.03656612,0.0,0.9957042,0.001627887,-0.09076993,0.018203644,0.0,0.0,-0.569973,1,0,0,0,0,0
689492000,-0.0029858586,-0.23853528,0.03678395,0.0,0.9927303,0.0007061719,-0.11899208,0.018082662,0.0,0.0,-0.57649165,1,0,0,0,0,0
689608000,-0.008403848,-0.2964867,0.036900457,0.0,0.98886645,-0.0014301796,-0.14775121,0.01762615,0.0,0.0,-0.58021575,1,0,0,0,0,0
689704000,-0.01047794,-0.32876083,0.037154853,0.0,0.9863521,-0.0021276185,-0.16370665,0.017468538,0.0,0.0,-0.5842409,1,0,0,0,0,0
689804000,-0.011251283,-0.34195933,0.037279803,0.0,0.98524964,-0.0023713144,-0.17021888,0.01740973,0.0,0.0,-0.5918046,1,0,0,0,0,0
689900000,-0.01205885,-0.3610245,0.037603043,0.0,0.98358047,-0.0025551317,-0.17961003,0.017412316,0.0,0.0,-0.59729075,1,0,0,0,0,0
689996000,-0.011664611,-0.37781373,0.037813324,0.0,0.98203856,-0.0021773714,-0.18785687,0.017473873,0.0,0.0,-0.6033376,1,0,0,0,0,0
690092000,-0.0111419745,-0.39785194,0.0382538,0.0,0.9801059,-0.0016805929,-0.19768183,0.01764756,0.0,0.0,-0.6074911,1,0,0,0,0,0
690208000,-0.013196998,-0.4267391,0.038712375,0.0,0.9771456,-0.0023492004,-0.2118348,0.017518668,0.0,0.0,-0.61748874,1,0,0,0,0,0
690304000,-0.012100254,-0.44334692,0.039369036,0.0,0.9753502,-0.0015733788,-0.219932,0.017871333,0.0,0.0,-0.619981,1,0,0,0,0,0
690404000,-0.012064648,-0.43736207,0.03999108,0.0,0.9759977,-0.0015499382,-0.2170127,0.018209286,0.0,0.0,-0.6208674,1,0,0,0,0,0
690500000,-0.008935571,-0.42478994,0.040907882,0.0,0.9773339,-5.5080538e-05,-0.21084478,0.019051109,0.0,0.0,-0.6231091,1,0,0,0,0,0
690596000,-0.0083926665,-0.40086356,0.041734654,0.0,0.9797762,4.277125e-05,-0.19913316,0.019612638,0.0,0.0,-0.62671006,1,0,0,0,0,0
690692000,-0.006491408,-0.3757044,0.042788517,0.0,0.9821906,0.00080716773,-0.18677379,0.020410175,0.0,0.0,-0.6246749,1,0,0,0,0,0
690808000,-0.006465873,-0.34810883,0.043893192,0.0,0.9846607,0.00061700173,-0.1732042,0.021053417,0.0,0.0,-0.62533563,1,0,0,0,0,0
690904000,-0.0050080013,-0.3169782,0.045043617,0.0,0.98722225,0.0010822366,-0.15784158,0.021842495,0.0,0.0,-0.62074894,1,0,0,0,0,0
691004000,-0.003497029,-0.277167,0.046098195,0.0,0.9901537,0.0014524331,-0.13814332,0.022584584,0.0,0.0,-0.6177456,1,0,0,0,0,0
691100000,-0.0013532247,-0.24697466,0.047287077,0.0,0.99210954,0.0022407183,-0.12315513,0.023377987,0.0,0.0,-0.6125431,1,0,0,0,0,0
691196000,0.00014022653,-0.22927392,0.04829766,0.0,0.99314654,0.0028316528,-0.114351,0.023996014,0.0,0.0,-0.6120103,1,0,0,0,0,0
691292000,-0.0004710418,-0.22507724,0.049493987,0.0,0.9933706,0.0025448746,-0.11227263,0.0245615,0.0,0.0,-0.6069681,1,0,0,0,0,0
691408000,-0.0024970449,-0.22757518,0.05063031,0.0,0.9932177,0.0016339781,-0.113537125,0.025007028,0.0,0.0,-0.6033149,1,0,0,0,0,0
691504000,-0.0022705926,-0.23106672,0.051767047,0.0,0.9930035,0.001856077,-0.11526701,0.025577256,0.0,0.0,-0.6006881,1,0,0,0,0,0
691604000,-0.0043728873,-0.2299776,0.052707687,0.0,0.99305534,0.00085211697,-0.11475268,0.025925934,0.0,0.0,-0.5995997,1,0,0,0,0,0
691700000,-0.0050899317,-0.22241984,0.053772874,0.0,0.99346775,0.00045518277,-0.11100835,0.026434705,0.0,0.0,-0.5999677,1,0,0,0,0,0
691796000,-0.0050576283,-0.21586804,0.05459282,0.0,0.9938147,0.00042696076,-0.10775271,0.026861798,0.0,0.0,-0.5982547,1,0,0,0,0,0
691892000,-0.0034794803,-0.2103937,0.055644464,0.0,0.9940906,0.0011915821,-0.105010256,0.02748221,0.0,0.0,-0.5979915,1,0,0,0,0,0
692008000,-0.003686772,-0.20737249,0.056651358,0.0,0.99423414,0.001098577,-0.10351079,0.027979024,0.0,0.0,-0.5966015,1,0,0,0,0,0
692104000,-0.0026052769,-0.20515081,0.057832807,0.0,0.99433094,0.0016652489,-0.1023902,0.028627055,0.0,0.0,-0.5931166,1,0,0,0,0,0
692204000,-0.0014273248,-0.20345642,0.05886614,0.0,0.99440116,0.0022789142,-0.10152972,0.02920423,0.0,0.0,-0.59504783,1,0,0,0,0,0
692300000,1.7413928e-05,-0.19982406,0.06015196,0.0,0.9945629,0.0030081628,-0.09970052,0.029922348,0.0,0.0,-0.59187394,1,0,0,0,0,0
692396000,-0.000981424,-0.1939343,0.061199784,0.0,0.99483776,0.0024738964,-0.09678488,0.030403905,0.0,0.0,-0.5924363,1,0,0,0,0,0
692492000,-0.0033580658,-0.19141285,0.06190519,0.0,0.99495035,0.0012868176,-0.09556619,0.030645609,0.0,0.0,-0.59032565,1,0,0,0,0,0
692588000,-0.0019803648,-0.18651994,0.0629845,0.0,0.9951632,0.0019468339,-0.09310966,0.031258035,0.0,0.0,-0.5909411,1,0,0,0,0,0
692704000,-0.0024033438,-0.18113637,0.06405868,0.0,0.99539346,0.0017002444,-0.09043628,0.03178396,0.0,0.0,-0.5894218,1,0,0,0,0,0
692804000,-0.0032136526,-0.17870349,0.06520578,0.0,0.9954848,0.0013091657,-0.089237526,0.03232374,0.0,0.0,-0.5880238,1,0,0,0,0,0
692900000,-0.0032193724,-0.17421076,0.06599863,0.0,0.9956697,0.0012675497,-0.08700069,0.032728244,0.0,0.0,-0.58962333,1,0,0,0,0,0
692996000,-0.0011273158,-0.17160401,0.0671908,0.0,0.99576056,0.0023172074,-0.085667245,0.033417236,0.0,0.0,-0.5862753,1,0,0,0,0,0
693092000,-0.00052886567,-0.1673805,0.06818486,0.0,0.9959217,0.0025859682,-0.083553,0.033944435,0.0,0.0,-0.58933604,1,0,0,0,0,0
693208000,-0.0031947806,-0.16295509,0.06959198,0.0,0.9960825,0.0012402539,-0.08139344,0.03454358,0.0,0.0,-0.5865956,1,0,0,0,0,0
693304000,-0.0037106592,-0.15678857,0.07052351,0.0,0.99631244,0.00091243256,-0.07833041,0.035000905,0.0,0.0,-0.58838195,1,0,0,0,0,0
693404000,-0.0029630347,-0.1557758,0.07183512,0.0,0.99632835,0.0013180393,-0.07781194,0.035685733,0.0,0.0,-0.5845758,1,0,0,0,0,0
693500000,-0.003612364,-0.15017296,0.07277898,0.0,0.99652547,0.0009292855,-0.07503168,0.03614348,0.0,0.0,-0.58749795,1,0,0,0,0,0
693596000,-0.00350308,-0.15008421,0.07402091,0.0,0.9965061,0.0010286852,-0.07498486,0.03676659,0.0,0.0,-0.582544,1,0,0,0,0,0
693692000,-0.0039783414,-0.14822288,0.0749922,0.0,0.9965576,0.00079337583,-0.07406578,0.03723716,0.0,0.0,-0.58099836,1,0,0,0,0,0
693788000,-0.001493482,-0.14296275,0.07628187,0.0,0.99672264,0.0019790917,-0.07139696,0.037981007,0.0,0.0,-0.5832197,1,0,0,0,0,0
693904000,-0.0019579576,-0.13663101,0.077606276,0.0,0.99691856,0.0016721688,-0.06824885,0.038636122,0.0,0.0,-0.58404547,1,0,0,0,0,0
694004000,-0.00051801867,-0.13255303,0.07939923,0.0,0.997019,0.0023702981,-0.06618607,0.039584905,0.0,0.0,-0.581263,1,0,0,0,0,0
694100000,-0.0011962437,-0.1298265,0.08078936,0.0,0.9970812,0.0020232208,-0.06483885,0.040259868,0.0,0.0,-0.57961285,1,0,0,0,0,0
694196000,-0.0013729704,-0.12533079,0.08242504,0.0,0.99719125,0.0018956219,-0.06259943,0.04107703,0.0,0.0,-0.5817475,1,0,0,0,0,0
694292000,-0.0011089684,-0.123849146,0.08375439,0.0,0.99720955,0.002037876,-0.061853908,0.041750424,0.0,0.0,-0.5803496,1,0,0,0,0,0
694388000,-0.0007438623,-0.1190773,0.085250124,0.0,0.9973223,0.0021646363,-0.059465244,0.042514537,0.0,0.0,-0.5798634,1,0,0,0,0,0
694504000,-0.0010580664,-0.11465309,0.086746275,0.0,0.99741954,0.0019566242,-0.057264168,0.04325803,0.0,0.0,-0.58091503,1,0,0,0,0,0
694604000,-0.0024192117,-0.11139864,0.08838946,0.0,0.9974765,0.0012529907,-0.05566948,0.044044524,0.0,0.0,-0.5791532,1,0,0,0,0,0
694700000,-0.003663574,-0.10961532,0.089587316,0.0,0.9974997,0.0006257811,-0.05480709,0.044611126,0.0,0.0,-0.5767374,1,0,0,0,0,0
694796000,-0.0043782135,-0.10616457,0.09112772,0.0,0.997558,0.00023290323,-0.053101733,0.045367803,0.0,0.0,-0.57767165,1,0,0,0,0,0
694892000,-0.0039126435,-0.1048452,0.09239032,0.0,0.9975637,0.00046814713,-0.05243281,0.046012804,0.0,0.0,-0.57572395,1,0,0,0,0,0
695008000,-0.0034663659,-0.10008186,0.09418386,0.0,0.9976436,0.00062557304,-0.050046008,0.04692893,0.0,0.0,-0.57613367,1,0,0,0,0,0
695104000,-0.0034950266,-0.09742895,0.09549558,0.0,0.99767786,0.0005807521,-0.04872295,0.047587954,0.0,0.0,-0.5773457,1,0,0,0,0,0
695204000,-0.0032305883,-0.09630249,0.09755139,0.0,0.9976555,0.00073526654,-0.048153993,0.04862213,0.0,0.0,-0.5725348,1,0,0,0,0,0
695300000,-0.0028362244,-0.09291029,0.09916232,0.0,0.99769586,0.00088668516,-0.04645153,0.049441557,0.0,0.0,-0.5755916,1,0,0,0,0,0
695396000,-0.0032477966,-0.089627676,0.10093881,0.0,0.9977264,0.00063980656,-0.04482358,0.05032461,0.0,0.0,-0.5745134,1,0,0,0,0,0
695492000,-0.0043994524,-0.08480528,0.1024186,0.0,0.9977938,-2.5061301e-05,-0.042446755,0.05104766,0.0,0.0,-0.57428354,1,0,0,0,0,0
695608000,-0.0054660076,-0.08234026,0.10464027,0.0,0.9977876,-0.0005745199,-0.04124483,0.052139428,0.0,0.0,-0.5727408,1,0,0,0,0,0
695704000,-0.0048277,-0.07902638,0.10626435,0.0,0.99781156,-0.00031067812,-0.039575137,0.052970354,0.0,0.0,-0.5734405,1,0,0,0,0,0
695804000,-0.0048129787,-0.076017454,0.10840917,0.0,0.99781215,-0.00034248023,-0.03807394,0.054047443,0.0,0.0,-0.5736328,1,0,0,0,0,0
695900000,-0.0058470923,-0.07633328,0.11005816,0.0,0.997761,-0.0008182945,-0.03826013,0.054849632,0.0,0.0,-0.57380193,1,0,0,0,0,0
695996000,-0.0057357745,-0.07293351,0.11232019,0.0,0.9977614,-0.00081502,-0.036561918,0.05598864,0.0,0.0,-0.5728572,1,0,0,0,0,0
696092000,-0.0050373003,-0.06837569,0.114251584,0.0,0.9977871,-0.00056151,-0.034269035,0.056975238,0.0,0.0,-0.57281303,1,0,0,0,0,0
696208000,-0.00436005,-0.06686627,0.11747914,0.0,0.9977194,-0.0002126984,-0.033497084,0.058600113,0.0,0.0,-0.57222104,1,0,0,0,0,0
696304000,-0.0038128938,-0.066168755,0.11623939,0.0,0.99776703,1.9232439e-05,-0.033133112,0.057992127,0.0,0.0,-0.5713917,1,0,0,0,0,0
696404000,-0.0019078545,-0.06851737,0.15708011,0.0,0.99633443,0.0017369577,-0.034221176,0.07838069,0.0,0.0,-0.5712318,1,0,0,0,0,0
696500000,0.0037235974,-0.105031565,0.20264028,0.0,0.9934883,0.007159052,-0.052034296,0.1011045,0.0,0.0,-0.5707493,1,0,0,0,0,0
696596000,0.004006009,-0.16932574,0.2029448,0.0,0.99127364,0.010551511,-0.08392443,0.10110382,0.0,0.0,-0.5745928,1,0,0,0,0,0
696692000,-0.0040216874,-0.25829607,0.20318066,0.0,0.98658335,0.011077415,-0.12832728,0.100313246,0.0,0.0,-0.57932997,1,0,0,0,0,0
696808000,-0.012951962,-0.35025138,0.20344044,0.0,0.97970873,0.011348067,-0.1739752,0.09886715,0.0,0.0,-0.5839282,1,0,0,0,0,0
696904000,-0.015842633,-0.38906002,0.20360646,0.0,0.97618383,0.011912936,-0.1930884,0.09818422,0.0,0.0,-0.5885056,1,0,0,0,0,0
697004000,-0.015603448,-0.3987074,0.20381476,0.0,0.97523695,0.012538333,-0.1977804,0.098176256,0.0,0.0,-0.59897935,1,0,0,0,0,0
697100000,-0.015723065,-0.4112472,0.2039999,0.0,0.97397923,0.0131335305,-0.20389378,0.09807829,0.0,0.0,-0.6069013,1,0,0,0,0,0
697196000,-0.013270363,-0.42874685,0.20425983,0.0,0.97214097,0.0152389305,-0.21228305,0.098212406,0.0,0.0,-0.6143063,1,0,0,0,0,0
697292000,-0.013335674,-0.45161828,0.20452589,0.0,0.9696524,0.016391208,-0.22338381,0.09800591,0.0,0.0,-0.6199815,1,0,0,0,0,0
697408000,-0.012786994,-0.48606536,0.20492609,0.0,0.9656597,0.01844081,-0.240015,0.09774547,0.0,0.0,-0.63030595,1,0,0,0,0,0
697504000,-0.012726334,-0.50519234,0.20527406,0.0,0.9633148,0.019476593,-0.24922958,0.09762174,0.0,0.0,-0.6373215,1,0,0,0,0,0
697604000,-0.009523129,-0.5131044,0.20565064,0.0,0.96227473,0.021463998,-0.2528767,0.09808176,0.0,0.0,-0.6395277,1,0,0,0,0,0
697700000,-0.008193103,-0.53317976,0.20607899,0.0,0.9596613,0.023165962,-0.2624503,0.0981495,0.0,0.0,-0.6462093,1,0,0,0,0,0
697796000,-0.0066108378,-0.5490427,0.20650762,0.0,0.9575157,0.024776127,-0.2699689,0.098319165,0.0,0.0,-0.65412885,1,0,0,0,0,0
697892000,-0.0053247483,-0.56300026,0.20698382,0.0,0.9555729,0.026154453,-0.2765739,0.09850507,0.0,0.0,-0.6601044,1,0,0,0,0,0
698008000,-0.0028061417,-0.5864453,0.20755817,0.0,0.95220786,0.02860638,-0.28762257,0.098767824,0.0,0.0,-0.6713271,1,0,0,0,0,0
698104000,0.00081894867,-0.5968469,0.20810673,0.0,0.95061904,0.030927196,-0.2923828,0.0993947,0.0,0.0,-0.6801233,1,0,0,0,0,0
698204000,0.0059396587,-0.5940087,0.2087091,0.0,0.95092094,0.0333089,-0.29076785,0.10046861,0.0,0.0,-0.68091965,1,0,0,0,0,0
698300000,0.014460746,-0.5887885,0.20933932,0.0,0.9514966,0.037196133,-0.28784177,0.10206762,0.0,0.0,-0.6833594,1,0,0,0,0,0
698396000,0.025743335,-0.57388556,0.20996594,0.0,0.9533723,0.0419325,-0.28014618,0.10412022,0.0,0.0,-0.68387413,1,0,0,0,0,0
698492000,0.037551463,-0.5508853,0.21063265,0.0,0.95626765,0.04655205,-0.26851913,0.10621925,0.0,0.0,-0.68870616,1,0,0,0,0,0
698588000,0.03958827,-0.53148365,0.21125522,0.0,0.9587841,0.04667512,-0.25909674,0.106879644,0.0,0.0,-0.68597573,1,0,0,0,0,0
698704000,0.024610167,-0.5171209,0.21193749,0.0,0.9609305,0.03887135,-0.2529774,0.105375424,0.0,0.0,-0.68352604,1,0,0,0,0,0
698804000,0.01715019,-0.5134645,0.2124441,0.0,0.9615072,0.03516755,-0.2516015,0.10470885,0.0,0.0,-0.6834385,1,0,0,0,0,0
698900000,0.01961783,-0.5281688,0.2128993,0.0,0.9595495,0.03714741,-0.2585295,0.10510619,0.0,0.0,-0.6801827,1,0,0,0,0,0
698996000,0.01870622,-0.53987926,0.21328487,0.0,0.9580044,0.03734663,-0.26418722,0.10506143,0.0,0.0,-0.6761736,1,0,0,0,0,0
699092000,0.020910328,-0.5377782,0.2137251,0.0,0.9582186,0.038355414,-0.2630557,0.105582654,0.0,0.0,-0.6746298,1,0,0,0,0,0
699208000,0.021486826,-0.5299275,0.2142054,0.0,0.9592159,0.03830111,-0.25925034,0.10595881,0.0,0.0,-0.67847925,1,0,0,0,0,0
699304000,0.021931518,-0.5193537,0.21463986,0.0,0.9605532,0.038038757,-0.2541405,0.106316,0.0,0.0,-0.6810937,1,0,0,0,0,0
699404000,0.02181965,-0.5123881,0.21505028,0.0,0.9614207,0.03768544,-0.25078964,0.106557705,0.0,0.0,-0.680642,1,0,0,0,0,0
699500000,0.021522596,-0.5164983,0.21547693,0.0,0.9608815,0.037804253,-0.25277394,0.1066906,0.0,0.0,-0.6775036,1,0,0,0,0,0
699596000,0.021639284,-0.52506036,0.21584906,0.0,0.95975894,0.038341045,-0.2568743,0.10680992,0.0,0.0,-0.6768121,1,0,0,0,0,0
699692000,0.020225784,-0.52812195,0.21621943,0.0,0.9593683,0.037865777,-0.25841254,0.10677795,0.0,0.0,-0.6739445,1,0,0,0,0,0
699808000,0.020636437,-0.5302601,0.21658725,0.0,0.9590618,0.038218927,-0.25940967,0.106987804,0.0,0.0,-0.6765968,1,0,0,0,0,0
699904000,0.020207014,-0.5236238,0.21689491,0.0,0.95991606,0.037714865,-0.25624117,0.10714099,0.0,0.0,-0.67821646,1,0,0,0,0,0
700004000,0.0180753,-0.51633805,0.21716866,0.0,0.96087545,0.036353722,-0.25284973,0.10706906,0.0,0.0,-0.6773106,1,0,0,0,0,0
700100000,0.018061258,-0.51705486,0.21747662,0.0,0.96076787,0.036422685,-0.25318944,0.107208416,0.0,0.0,-0.676098,1,0,0,0,0,0
700196000,0.018499445,-0.52039266,0.21775131,0.0,0.96031797,0.03683929,-0.2547648,0.107364155,0.0,0.0,-0.67591137,1,0,0,0,0,0
700292000,0.02012218,-0.5215326,0.21809426,0.0,0.9601229,0.037720583,-0.2552187,0.10772504,0.0,0.0,-0.6750014,1,0,0,0,0,0
700408000,0.019412076,-0.5265275,0.2184653,0.0,0.9594706,0.03768376,-0.25764844,0.10776529,0.0,0.0,-0.67629,1,0,0,0,0,0
700504000,0.019302107,-0.5252838,0.21879123,0.0,0.9596164,0.03760899,-0.2570512,0.10791938,0.0,0.0,-0.6768917,1,0,0,0,0,0
700604000,0.018220814,-0.5204748,0.21909447,0.0,0.9602403,0.036880843,-0.25479448,0.1079728,0.0,0.0,-0.6762621,1,0,0,0,0,0
700700000,0.018101547,-0.5192346,0.21941893,0.0,0.960384,0.03680074,-0.25419915,0.10812542,0.0,0.0,-0.675148,1,0,0,0,0,0
700796000,0.018127818,-0.519875,0.21970464,0.0,0.96028596,0.03688284,-0.2545001,0.10825974,0.0,0.0,-0.6759579,1,0,0,0,0,0
700892000,0.018504778,-0.5203189,0.2200506,0.0,0.9602033,0.03713089,-0.25468656,0.10846951,0.0,0.0,-0.6750831,1,0,0,0,0,0
700988000,0.01790164,-0.5223231,0.22037587,0.0,0.95993924,0.036986906,-0.25567576,0.108529076,0.0,0.0,-0.67540437,1,0,0,0,0,0
701104000,0.018304793,-0.5254978,0.22085199,0.0,0.9594957,0.0374065,-0.25716934,0.1087778,0.0,0.0,-0.6757821,1,0,0,0,0,0
701204000,0.019213812,-0.51976687,0.22127496,0.0,0.9601943,0.037598412,-0.25435993,0.109152876,0.0,0.0,-0.67422825,1,0,0,0,0,0
701300000,0.020878024,-0.49894938,0.22180474,0.0,0.9627513,0.03737717,-0.24424526,0.10980453,0.0,0.0,-0.66944486,1,0,0,0,0,0
701396000,0.023867857,-0.46844977,0.22230352,0.0,0.966316,0.037278354,-0.22935289,0.11063912,0.0,0.0,-0.6690336,1,0,0,0,0,0
701492000,0.023350826,-0.44151956,0.22285031,0.0,0.96933013,0.035667926,-0.21633157,0.11102945,0.0,0.0,-0.66942215,1,0,0,0,0,0
701608000,0.020535138,-0.43045184,0.22338529,0.0,0.9705452,0.03377117,-0.21110818,0.11106235,0.0,0.0,-0.66617614,1,0,0,0,0,0
701704000,0.019781187,-0.43081883,0.22384813,0.0,0.970493,0.033473793,-0.21132046,0.11120473,0.0,0.0,-0.65686584,1,0,0,0,0,0
701804000,0.017717747,-0.4273045,0.2242232,0.0,0.9708796,0.032323368,-0.20972256,0.11119539,0.0,0.0,-0.6530279,1,0,0,0,0,0
701900000,0.015964497,-0.41552547,0.22461638,0.0,0.97211486,0.030877843,-0.2040899,0.11129473,0.0,0.0,-0.6491298,1,0,0,0,0,0
701996000,0.0136303,-0.39941362,0.22490415,0.0,0.97375995,0.028898418,-0.19637483,0.11132582,0.0,0.0,-0.64832276,1,0,0,0,0,0
702092000,0.012102647,-0.38294932,0.22519955,0.0,0.9753605,0.027285935,-0.18843068,0.11145081,0.0,0.0,-0.6463143,1,0,0,0,0,0
702188000,0.009592119,-0.37392813,0.22540846,0.0,0.9762277,0.025587093,-0.18416536,0.11139041,0.0,0.0,-0.64321655,1,0,0,0,0,0
702304000,0.006676379,-0.36828813,0.22568698,0.0,0.9767665,0.02387916,-0.18157002,0.11130712,0.0,0.0,-0.6384921,1,0,0,0,0,0
702404000,0.0057354453,-0.3625542,0.22589225,0.0,0.9772847,0.023122,-0.17881852,0.11137263,0.0,0.0,-0.6366928,1,0,0,0,0,0
702500000,0.006143497,-0.35426563,0.22617283,0.0,0.97799975,0.022888554,-0.17474042,0.11161713,0.0,0.0,-0.63415015,1,0,0,0,0,0
702596000,0.011271125,-0.34562778,0.22641963,0.0,0.97867376,0.02494118,-0.17022437,0.11224656,0.0,0.0,-0.63355815,1,0,0,0,0,0
702692000,0.012383239,-0.33989292,0.22661231,0.0,0.97913677,0.025185335,-0.16735192,0.11247338,0.0,0.0,-0.6302407,1,0,0,0,0,0
702808000,0.011144011,-0.3309864,0.226936,0.0,0.9798754,0.024112713,-0.16305462,0.11258801,0.0,0.0,-0.62761307,1,0,0,0,0,0
702904000,0.008652026,-0.32416213,0.2271436,0.0,0.9804474,0.022529598,-0.1598474,0.112535045,0.0,0.0,-0.62489045,1,0,0,0,0,0
703004000,0.0064147185,-0.31371343,0.22738619,0.0,0.98128444,0.020869678,-0.15484554,0.11255276,0.0,0.0,-0.6240595,1,0,0,0,0,0
703100000,0.0042094556,-0.30772436,0.22750355,0.0,0.98176134,0.019461928,-0.15202893,0.112485945,0.0,0.0,-0.6214751,1,0,0,0,0,0
703196000,0.0034608473,-0.29838338,0.22768265,0.0,0.98245984,0.018584816,-0.14748211,0.11258908,0.0,0.0,-0.6180993,1,0,0,0,0,0
703292000,0.0035358488,-0.29246774,0.22779168,0.0,0.98288614,0.018297967,-0.14457013,0.11269251,0.0,0.0,-0.6185445,1,0,0,0,0,0
703408000,0.0021972915,-0.2854317,0.2279914,0.0,0.9833905,0.017259136,-0.14118494,0.11274771,0.0,0.0,-0.6143036,1,0,0,0,0,0
703504000,0.00026580328,-0.2772632,0.22809976,0.0,0.9839696,0.015856948,-0.13727523,0.112729214,0.0,0.0,-0.6137483,1,0,0,0,0,0
703604000,0.0022714622,-0.2702901,0.22821467,0.0,0.9844199,0.01645885,-0.13372962,0.11297363,0.0,0.0,-0.6105163,1,0,0,0,0,0
703700000,0.0012703124,-0.26264352,0.22826366,0.0,0.98493004,0.015538113,-0.13002098,0.11298624,0.0,0.0,-0.61011684,1,0,0,0,0,0
703796000,0.0024889174,-0.2571064,0.22835346,0.0,0.9852721,0.015831748,-0.12722397,0.11314713,0.0,0.0,-0.6078306,1,0,0,0,0,0
703892000,0.0029755118,-0.24880838,0.22840059,0.0,0.98578626,0.015606222,-0.12310694,0.11325486,0.0,0.0,-0.60622567,1,0,0,0,0,0
704008000,0.0022438078,-0.23915657,0.22848876,0.0,0.9863709,0.0147056095,-0.118388824,0.11331489,0.0,0.0,-0.60592824,1,0,0,0,0,0
704104000,-0.0006757329,-0.23364684,0.22849508,0.0,0.9867136,0.012954123,-0.115836255,0.11318301,0.0,0.0,-0.60304004,1,0,0,0,0,0
704204000,-0.0017231958,-0.22750768,0.22858532,0.0,0.9870657,0.012094533,-0.112865694,0.11320973,0.0,0.0,-0.6012101,1,0,0,0,0,0
704300000,-0.0010789512,-0.21982431,0.22864029,0.0,0.9874843,0.011979871,-0.10903613,0.113324165,0.0,0.0,-0.6014984,1,0,0,0,0,0
