timestamp,rollspeed,pitchspeed,yawspeed,q[0],q[1],q[2],q[3],delta_q_reset[0],delta_q_reset[1],delta_q_reset[2],delta_q_reset[3],quat_reset_counter
657300000,0.00129175,0.006481827,0.0038762141,-0.9809197,0.0027858578,-0.008708757,-0.19419856,0.99999833,3.727549e-05,-2.5259917e-05,0.0018613341,3
657328000,0.0034243322,0.0051585664,0.0030548724,-0.98091704,0.0027956301,-0.008694167,-0.19421262,0.99999833,3.727549e-05,-2.5259917e-05,0.0018613341,3
657360000,-0.0057274327,0.00048105605,0.0052084425,-0.98090905,0.0028079282,-0.008671778,-0.19425353,0.99999833,3.727549e-05,-2.5259917e-05,0.0018613341,3
657392000,0.005225306,0.0022795917,0.0020907237,-0.9809107,0.00275118,-0.0086050285,-0.19424872,0.99999833,3.727549e-05,-2.5259917e-05,0.0018613341,3
657428000,0.009548114,-0.0007062941,0.0031250003,-0.9809108,0.0027505932,-0.008613385,-0.1942479,0.99999833,3.727549e-05,-2.5259917e-05,0.0018613341,3
657456000,0.004228388,0.003987682,-0.0057764184,-0.980914,0.002665102,-0.008609327,-0.19423352,0.99999833,3.727549e-05,-2.5259917e-05,0.0018613341,3
657488000,-0.002393048,-0.0066891382,-0.0049433894,-0.98091155,0.0026727468,-0.00864202,-0.1942444,0.99999833,3.727549e-05,-2.5259917e-05,0.0018613341,3
657520000,0.0007612083,-0.00048739882,-0.0076003224,-0.9809182,0.0026768043,-0.008652307,-0.19420971,0.99999833,3.727549e-05,-2.5259917e-05,0.0018613341,3
657556000,-0.0048198258,0.0013227365,-0.005909211,-0.9809259,0.0026650622,-0.0086665265,-0.19417058,0.99999833,3.727549e-05,-2.5259917e-05,0.0018613341,3
657584000,-0.00015846035,0.005346206,-0.00230393,-0.98091674,0.0026517785,-0.008653604,-0.1942175,0.99999833,3.727549e-05,-2.5259917e-05,0.0018613341,3
657616000,0.027961003,0.0037240526,0.0030352948,-0.98091626,0.0024794764,-0.008714074,-0.19421966,0.99999833,3.727549e-05,-2.5259917e-05,0.0018613341,3
657648000,0.104248434,-0.006045534,-0.0046528224,-0.98091835,0.0014317759,-0.008904597,-0.19421072,0.99999833,3.727549e-05,-2.5259917e-05,0.0018613341,3
657680000,0.14434232,-0.015576316,0.005135913,-0.98091525,-0.00076177897,-0.009205359,-0.19421645,0.99999833,3.727549e-05,-2.5259917e-05,0.0018613341,3
657712000,0.13924369,-0.019673835,-0.00093195715,-0.98090357,-0.0031517637,-0.009415243,-0.19424164,0.99999833,3.727549e-05,-2.5259917e-05,0.0018613341,3
657744000,0.11125511,-0.02604714,0.0021539459,-0.98089594,-0.0051956065,-0.009460849,-0.19423366,0.99999833,3.727549e-05,-2.5259917e-05,0.0018613341,3
657776000,0.07717183,-0.025075356,-0.0050398093,-0.98089266,-0.006637848,-0.009330277,-0.19421268,0.99999833,3.727549e-05,-2.5259917e-05,0.0018613341,3
657808000,0.028852805,-0.023618996,-0.0021614088,-0.98089206,-0.007523387,-0.009074897,-0.19419536,0.99999833,3.727549e-05,-2.5259917e-05,0.0018613341,3
657840000,0.00051120087,-0.016837487,0.00072785723,-0.98090017,-0.007842558,-0.00884268,-0.1941524,0.99999833,3.727549e-05,-2.5259917e-05,0.0018613341,3
657872000,-0.029843854,-0.019475322,0.0026931872,-0.98090357,-0.007725978,-0.008518291,-0.19415486,0.99999833,3.727549e-05,-2.5259917e-05,0.0018613341,3
657904000,-0.050714165,-0.0092517845,0.0022145947,-0.98091066,-0.0071409754,-0.008243622,-0.19415285,0.99999833,3.727549e-05,-2.5259917e-05,0.0018613341,3
657936000,-0.065833874,-0.005360103,-0.00064116175,-0.9809181,-0.0062730224,-0.007937882,-0.1941585,0.99999833,3.727549e-05,-2.5259917e-05,0.0018613341,3
657972000,-0.0632802,0.0038349475,0.00250353,-0.98090655,-0.00521858,-0.0076600765,-0.19425899,0.99999833,3.727549e-05,-2.5259917e-05,0.0018613341,3
658000000,-0.065754205,-0.004936413,-0.0062343064,-0.9809142,-0.0043463167,-0.0074703563,-0.19424932,0.99999833,3.727549e-05,-2.5259917e-05,0.0018613341,3
658032000,-0.053070426,-0.00094043,-0.0025092103,-0.9809181,-0.003464481,-0.0072629326,-0.19425508,0.99999833,3.727549e-05,-2.5259917e-05,0.0018613341,3
658064000,-0.036519747,0.0061260317,0.001229847,-0.98092854,-0.0027410928,-0.0071612005,-0.19421805,0.99999833,3.727549e-05,-2.5259917e-05,0.0018613341,3
658096000,-0.045146298,0.0061727306,0.005114937,-0.98092186,-0.0020566846,-0.0070400885,-0.19426452,0.99999833,3.727549e-05,-2.5259917e-05,0.0018613341,3
658128000,-0.041783776,0.0010923026,0.005078065,-0.98091984,-0.0014572581,-0.0069165574,-0.19428405,0.99999833,3.727549e-05,-2.5259917e-05,0.0018613341,3
658160000,-0.02465885,0.004651916,-0.0019876892,-0.9809212,-0.0009897177,-0.0068413466,-0.19428323,0.99999833,3.727549e-05,-2.5259917e-05,0.0018613341,3
658192000,-0.02687295,0.0026300715,-0.002820219,-0.980925,-0.000617951,-0.006821861,-0.19426617,0.99999833,3.727549e-05,-2.5259917e-05,0.0018613341,3
658224000,-0.011319265,0.008616487,0.0013049635,-0.9809242,-0.00031697925,-0.0069325925,-0.19426706,0.99999833,3.727549e-05,-2.5259917e-05,0.0018613341,3
658260000,-0.015396537,0.015825052,-0.0063793045,-0.98091584,-8.134248e-05,-0.007241747,-0.1942983,0.99999833,3.727549e-05,-2.5259917e-05,0.0018613341,3
658288000,-0.003718166,0.014359713,0.001061597,-0.9809184,9.6677795e-05,-0.0073756017,-0.19428006,0.99999833,3.727549e-05,-2.5259917e-05,0.0018613341,3
658320000,-0.0049859826,0.003939349,0.00545826,-0.9809238,0.00019479687,-0.007459618,-0.19424942,0.99999833,3.727549e-05,-2.5259917e-05,0.0018613341,3
658352000,-0.0006375384,-0.0031790081,0.0031148775,-0.9809262,0.00029581232,-0.0074277464,-0.1942385,0.99999833,3.727549e-05,-2.5259917e-05,0.0018613341,3
658384000,0.008953438,0.0019009504,-0.0009477771,-0.98093253,0.00025126745,-0.007465563,-0.19420545,0.99999833,3.727549e-05,-2.5259917e-05,0.0018613341,3
658416000,0.008858803,0.02377863,-0.00086404436,-0.9809273,9.402416e-05,-0.007699558,-0.19422284,0.99999833,3.727549e-05,-2.5259917e-05,0.0018613341,3
658448000,0.010056575,0.028173327,6.5140426e-05,-0.9809231,-5.2101852e-05,-0.008158705,-0.19422482,0.99999833,3.727549e-05,-2.5259917e-05,0.0018613341,3
658480000,0.014097792,0.037002217,0.003373554,-0.98091334,-0.00017989332,-0.008684616,-0.19425137,0.99999833,3.727549e-05,-2.5259917e-05,0.0018613341,3
658516000,0.005221913,0.027166687,-0.0018658866,-0.98090816,-0.00015349124,-0.009289242,-0.19424953,0.99999833,3.727549e-05,-2.5259917e-05,0.0018613341,3
658548000,-0.0029684994,0.03201656,0.00082734134,-0.9809023,-0.00010032538,-0.009805301,-0.19425426,0.99999833,3.727549e-05,-2.5259917e-05,0.0018613341,3
658576000,-0.012746951,0.021624068,-0.008055948,-0.98090035,4.0608527e-05,-0.010186365,-0.19424425,0.99999833,3.727549e-05,-2.5259917e-05,0.0018613341,3
658612000,-0.008435457,0.019320754,0.004379765,-0.9808988,0.00036320768,-0.010537414,-0.19423336,0.99999833,3.727549e-05,-2.5259917e-05,0.0018613341,3
658640000,-0.0152858915,0.011386959,0.0003248877,-0.98088235,0.0005981355,-0.010681358,-0.19430777,0.99999833,3.727549e-05,-2.5259917e-05,0.0018613341,3
658672000,-0.0152483955,0.0070502167,0.006191986,-0.9808772,0.00076859485,-0.010762362,-0.1943284,0.99999833,3.727549e-05,-2.5259917e-05,0.0018613341,3
658704000,-0.019571291,-0.0024676435,-0.0009943754,-0.98087656,0.0010068743,-0.010758277,-0.19433089,0.99999833,3.727549e-05,-2.5259917e-05,0.0018613341,3
658736000,-0.011211798,-0.004689493,-0.00048274844,-0.9808707,0.0012199127,-0.0106827915,-0.19436333,0.99999833,3.727549e-05,-2.5259917e-05,0.0018613341,3
658768000,-0.0195298,0.001234219,0.0020115403,-0.9808588,0.0015022213,-0.010598627,-0.19442591,0.99999833,3.727549e-05,-2.5259917e-05,0.0018613341,3
658800000,-0.025970861,-0.0067085144,0.0013311979,-0.980859,0.0018026424,-0.010465094,-0.19443005,0.99999833,3.727549e-05,-2.5259917e-05,0.0018613341,3
658832000,-0.00930203,-0.0011985092,-0.0021082866,-0.980856,0.0020485818,-0.010273408,-0.19445242,0.99999833,3.727549e-05,-2.5259917e-05,0.0018613341,3
658864000,-0.0067124157,0.007650249,-0.0015036704,-0.98085415,0.0021906134,-0.010222207,-0.19446339,0.99999833,3.727549e-05,-2.5259917e-05,0.0018613341,3
658896000,-0.0060494184,0.01167647,0.0030017411,-0.98085994,0.0023207238,-0.010281287,-0.1944294,0.99999833,3.727549e-05,-2.5259917e-05,0.0018613341,3
658928000,-0.0063764546,-0.004836991,-0.0058664577,-0.9808596,0.0022935928,-0.010324154,-0.19442944,0.99999833,3.727549e-05,-2.5259917e-05,0.0018613341,3
658960000,-0.0042337235,0.0034773108,-0.010127187,-0.9808677,0.0023653076,-0.01031977,-0.1943879,0.99999833,3.727549e-05,-2.5259917e-05,0.0018613341,3
658992000,-0.01386313,-0.0066022994,-0.0092733335,-0.98088247,0.0025029457,-0.01023284,-0.19431594,0.99999833,3.727549e-05,-2.5259917e-05,0.0018613341,3
659024000,-0.01633777,0.00054128235,-0.00041056942,-0.9808805,0.0026769186,-0.010129613,-0.19432877,0.99999833,3.727549e-05,-2.5259917e-05,0.0018613341,3
659056000,-0.008478028,0.008253347,-0.0050602467,0.98058647,-0.0028949857,0.010223894,0.19579898,-0.99999887,3.1665666e-05,1.747685e-07,-0.0015140772,4
659088000,-0.007375243,0.010649,-0.0023386548,0.9805954,-0.0029751,0.010387723,0.19574484,-0.99999887,3.1665666e-05,1.747685e-07,-0.0015140772,4
659120000,-0.003295257,0.014763948,-0.0023662448,0.9806091,-0.003047558,0.010495133,0.19566882,-0.99999887,3.1665666e-05,1.747685e-07,-0.0015140772,4
659152000,-0.006788159,0.012144369,-0.00385279,0.98063415,-0.0031414418,0.010615896,0.19553564,-0.99999887,3.1665666e-05,1.747685e-07,-0.0015140772,4
659188000,0.007347162,0.0020771828,0.0015480401,0.9806734,-0.003164677,0.010701566,0.19533387,-0.99999887,3.1665666e-05,1.747685e-07,-0.0015140772,4
659216000,0.0008727689,0.0053141434,-0.007109531,0.9807134,-0.0031877842,0.01077685,0.19512825,-0.99999887,3.1665666e-05,1.747685e-07,-0.0015140772,4
659248000,0.00031961518,0.0024451807,-0.009145712,0.9807575,-0.0031301007,0.010895815,0.19490099,-0.99999887,3.1665666e-05,1.747685e-07,-0.0015140772,4
659280000,0.0051849964,0.0078781685,0.0035391664,0.9807996,-0.0030481322,0.010958305,0.19468614,-0.99999887,3.1665666e-05,1.747685e-07,-0.0015140772,4
659312000,0.00061280245,4.423177e-05,-0.009143274,0.98083377,-0.0029320852,0.011021928,0.19451281,-0.99999887,3.1665666e-05,1.747685e-07,-0.0015140772,4
659344000,0.005575322,0.0007095798,-0.0057734703,0.9808727,-0.0028698589,0.011070103,0.19431423,-0.99999887,3.1665666e-05,1.747685e-07,-0.0015140772,4
659380000,-0.0030870794,-0.0012576194,-0.003583067,0.9809158,-0.002868966,0.011120104,0.19409388,-0.99999887,3.1665666e-05,1.747685e-07,-0.0015140772,4
659408000,0.0025033115,-0.0127284415,-0.010222932,0.98094505,-0.0028723888,0.011112832,0.19394638,-0.99999887,3.1665666e-05,1.747685e-07,-0.0015140772,4
659440000,-0.009101888,0.0026629716,-0.004566091,0.9809795,-0.0029727311,0.011124108,0.1937695,-0.99999887,3.1665666e-05,1.747685e-07,-0.0015140772,4
659472000,-0.003637555,0.00064913277,-0.0022171885,0.9809976,-0.0029900752,0.01106688,0.19368087,-0.99999887,3.1665666e-05,1.747685e-07,-0.0015140772,4
659504000,-0.0030467769,-0.0061604287,-0.0025790469,0.98100823,-0.0030426083,0.010993392,0.19363059,-0.99999887,3.1665666e-05,1.747685e-07,-0.0015140772,4
659536000,-0.000919405,0.009826367,0.001175891,0.98101884,-0.0030900217,0.011052342,0.19357254,-0.99999887,3.1665666e-05,1.747685e-07,-0.0015140772,4
659568000,-0.0021947725,0.0067985384,0.009847507,0.98100466,-0.0031663987,0.011121443,0.19363917,-0.99999887,3.1665666e-05,1.747685e-07,-0.0015140772,4
659600000,-0.007659957,-0.0044161854,-0.0008263871,0.9810189,-0.0031814203,0.011125156,0.19356683,-0.99999887,3.1665666e-05,1.747685e-07,-0.0015140772,4
659632000,-0.0041168192,0.00012240931,0.0049420185,0.9810289,-0.0032459635,0.011173804,0.19351202,-0.99999887,3.1665666e-05,1.747685e-07,-0.0015140772,4
659664000,0.0049964758,-0.0050311075,-0.0033608086,0.9810348,-0.0032381704,0.011246827,0.19347827,-0.99999887,3.1665666e-05,1.747685e-07,-0.0015140772,4
659696000,0.0058176112,0.0020800866,0.00068820664,0.9810339,-0.0031532394,0.0112506645,0.1934841,-0.99999887,3.1665666e-05,1.747685e-07,-0.0015140772,4
659732000,-0.0045968923,0.0053151,0.0009137433,0.98103535,-0.0031126235,0.011292963,0.1934747,-0.99999887,3.1665666e-05,1.747685e-07,-0.0015140772,4
659760000,-0.00809467,0.0011018277,0.008016856,0.9810214,-0.003185179,0.011290549,0.1935444,-0.99999887,3.1665666e-05,1.747685e-07,-0.0015140772,4
659796000,0.0014950695,0.001492192,0.003462045,0.9810133,-0.0032966381,0.011275415,0.1935845,-0.99999887,3.1665666e-05,1.747685e-07,-0.0015140772,4
659824000,0.0027377922,0.007090257,0.004795071,0.9809997,-0.0033118906,0.011320767,0.19365042,-0.99999887,3.1665666e-05,1.747685e-07,-0.0015140772,4
659856000,0.009745458,0.004179193,0.0007224624,0.98097134,-0.0032728754,0.011437681,0.19378793,-0.99999887,3.1665666e-05,1.747685e-07,-0.0015140772,4
659888000,0.00053611095,0.0057339934,0.0020352467,0.98095155,-0.0031897256,0.01149325,0.19388615,-0.99999887,3.1665666e-05,1.747685e-07,-0.0015140772,4
659920000,0.0038957212,0.001278182,-0.0055227485,0.98093873,-0.0031678372,0.011557381,0.19394794,-0.99999887,3.1665666e-05,1.747685e-07,-0.0015140772,4
659952000,0.011127643,-0.00042506028,0.005488045,0.980927,-0.0030606666,0.011544538,0.19400944,-0.99999887,3.1665666e-05,1.747685e-07,-0.0015140772,4
659984000,0.00489085,0.0070693973,-0.0019511692,0.98090285,-0.0029480911,0.011649632,0.1941269,-0.99999887,3.1665666e-05,1.747685e-07,-0.0015140772,4
660020000,-0.0011964961,0.004561003,0.00022885273,0.98088145,-0.0029313315,0.011770107,0.1942282,-0.99999887,3.1665666e-05,1.747685e-07,-0.0015140772,4
660048000,0.006657583,-0.0010059476,0.0077059586,0.9808666,-0.0028730931,0.011842762,0.1942995,-0.99999887,3.1665666e-05,1.747685e-07,-0.0015140772,4
660080000,0.003110111,0.0076510697,0.0009196154,0.98085654,-0.002782883,0.011913322,0.19434747,-0.99999887,3.1665666e-05,1.747685e-07,-0.0015140772,4
660112000,0.0064344,0.0068378667,0.005811756,0.98084724,-0.0026869397,0.012078994,0.19438545,-0.99999887,3.1665666e-05,1.747685e-07,-0.0015140772,4
660148000,0.0061874688,0.0042854156,0.0012655203,0.98083633,-0.00259749,0.012195057,0.1944343,-0.99999887,3.1665666e-05,1.747685e-07,-0.0015140772,4
660176000,-0.00355758,0.0072372034,-0.0010340791,0.9808207,-0.00259345,0.012245525,0.19450994,-0.99999887,3.1665666e-05,1.747685e-07,-0.0015140772,4
660208000,0.0014750184,0.00056676986,-0.006670443,0.9808202,-0.0026145126,0.012251659,0.1945121,-0.99999887,3.1665666e-05,1.747685e-07,-0.0015140772,4
660240000,-0.0038518966,0.003973606,0.0037573674,0.98081213,-0.0026709917,0.012217047,0.19455372,-0.99999887,3.1665666e-05,1.747685e-07,-0.0015140772,4
660276000,-0.0015944024,0.008864174,0.0036547275,0.9808133,-0.0027793408,0.012249817,0.19454402,-0.99999887,3.1665666e-05,1.747685e-07,-0.0015140772,4
660304000,-0.0036976403,0.001116645,-0.0018907099,0.9808103,-0.0028331904,0.012277524,0.19455694,-0.99999887,3.1665666e-05,1.747685e-07,-0.0015140772,4
660336000,-0.006190937,-0.004651206,0.0010496712,0.98081845,-0.0028974263,0.012299737,0.19451374,-0.99999887,3.1665666e-05,1.747685e-07,-0.0015140772,4
660372000,-0.008678874,0.0028326586,-0.0017541044,0.98081,-0.0030467398,0.012352398,0.19455074,-0.99999887,3.1665666e-05,1.747685e-07,-0.0015140772,4
660400000,-0.01027628,-0.00412678,-0.0024516224,0.98081267,-0.0032065513,0.0122971665,0.19453833,-0.99999887,3.1665666e-05,1.747685e-07,-0.0015140772,4
660432000,-0.0122732455,0.009387783,0.0050565857,0.980818,-0.003361976,0.0123285465,0.19450687,-0.99999887,3.1665666e-05,1.747685e-07,-0.0015140772,4
660464000,-0.0064975335,0.0034882296,-0.0060099885,0.9808196,-0.003541652,0.012395285,0.19449133,-0.99999887,3.1665666e-05,1.747685e-07,-0.0015140772,4
660496000,-0.0082614,0.009608442,0.0023047416,0.98081964,-0.0037413693,0.012484089,0.1944816,-0.99999887,3.1665666e-05,1.747685e-07,-0.0015140772,4
660532000,-0.007132701,0.0095476415,-0.0003126908,0.9808285,-0.0039646127,0.012630677,0.19442283,-0.99999887,3.1665666e-05,1.747685e-07,-0.0015140772,4
660560000,-0.011190053,0.0130828405,0.0021116426,0.9808235,-0.0041344487,0.012759648,0.19443569,-0.99999887,3.1665666e-05,1.747685e-07,-0.0015140772,4
660596000,-0.0024076651,0.0075788787,0.00018968817,0.9808073,-0.0043800795,0.012901794,0.19450277,-0.99999887,3.1665666e-05,1.747685e-07,-0.0015140772,4
660628000,-0.0058053946,9.240676e-05,0.0021015455,0.98080844,-0.0045323595,0.012921479,0.19449247,-0.99999887,3.1665666e-05,1.747685e-07,-0.0015140772,4
660656000,-0.01940991,-0.0027120435,-0.0045835143,0.9808085,-0.004712838,0.012899732,0.19448972,-0.99999887,3.1665666e-05,1.747685e-07,-0.0015140772,4
660688000,-0.0065252334,0.0023268901,-0.003329521,0.98080516,-0.004864189,0.0129076885,0.19450183,-0.99999887,3.1665666e-05,1.747685e-07,-0.0015140772,4
660720000,-0.00519568,-0.0038372567,-0.004119036,0.98079336,-0.0049669025,0.012846182,0.19456269,-0.99999887,3.1665666e-05,1.747685e-07,-0.0015140772,4
660752000,0.0012619081,-0.0061036646,0.0016453739,0.9807883,-0.0050026514,0.012796712,0.19459115,-0.99999887,3.1665666e-05,1.747685e-07,-0.0015140772,4
660784000,-0.00807937,-0.0020957808,-0.0010276843,0.980787,-0.005038985,0.012722155,0.1946014,-0.99999887,3.1665666e-05,1.747685e-07,-0.0015140772,4
660816000,-0.014223033,-0.0043840013,0.00052731566,0.98078203,-0.0051803812,0.012676936,0.19462606,-0.99999887,3.1665666e-05,1.747685e-07,-0.0015140772,4
660848000,-0.003654221,-0.005469612,-0.0035961554,0.9807775,-0.00525191,0.012642684,0.19464917,-0.99999887,3.1665666e-05,1.747685e-07,-0.0015140772,4
660880000,-0.0131818885,-0.0097821895,0.001244992,0.98077464,-0.005336191,0.012560531,0.19466604,-0.99999887,3.1665666e-05,1.747685e-07,-0.0015140772,4
660912000,-0.011244014,-0.0051917713,0.000886417,0.980762,-0.005415147,0.012470545,0.19473328,-0.99999887,3.1665666e-05,1.747685e-07,-0.0015140772,4
660944000,-0.0038381875,-0.0050088502,-0.0015368818,0.980755,-0.0054945205,0.012363775,0.19477344,-0.99999887,3.1665666e-05,1.747685e-07,-0.0015140772,4
660976000,0.0019804589,-0.00043314416,-0.0048490446,0.98074913,-0.00556502,0.012274979,0.19480664,-0.99999887,3.1665666e-05,1.747685e-07,-0.0015140772,4
661008000,0.0008819503,-0.0045569707,-0.0034937742,0.98074764,-0.0055501303,0.012155954,0.19482194,-0.99999887,3.1665666e-05,1.747685e-07,-0.0015140772,4
661040000,0.0051985877,-0.009470649,-0.0031015603,0.9807448,-0.0055261077,0.01206808,0.19484249,-0.99999887,3.1665666e-05,1.747685e-07,-0.0015140772,4
661072000,-0.0005210574,-0.0058444175,0.001743248,0.9807515,-0.0055383686,0.011991648,0.19481294,-0.99999887,3.1665666e-05,1.747685e-07,-0.0015140772,4
661104000,-0.0009254833,0.002389869,-5.0158473e-05,0.980748,-0.005561472,0.011952157,0.19483237,-0.99999887,3.1665666e-05,1.747685e-07,-0.0015140772,4
661136000,-0.005370602,0.0052436,-0.0049242424,0.9807432,-0.0055827284,0.011995408,0.194853,-0.99999887,3.1665666e-05,1.747685e-07,-0.0015140772,4
661168000,-0.0027658492,0.00958443,-0.00011079002,0.9807473,-0.0056744907,0.012129245,0.19482194,-0.99999887,3.1665666e-05,1.747685e-07,-0.0015140772,4
661204000,-0.002404821,0.008737735,-0.0026571779,0.9807479,-0.005816226,0.012295581,0.19480419,-0.99999887,3.1665666e-05,1.747685e-07,-0.0015140772,4
661232000,-0.0023920247,0.0029202607,0.0009198972,0.9807439,-0.0058532245,0.012400836,0.19481649,-0.99999887,3.1665666e-05,1.747685e-07,-0.0015140772,4
661264000,0.0013681124,0.016834848,-0.005656056,0.98074967,-0.005855851,0.012662223,0.19477037,-0.99999887,3.1665666e-05,1.747685e-07,-0.0015140772,4
661296000,0.002846763,0.015060116,-0.010893015,0.98076075,-0.005907073,0.012915995,0.19469623,-0.99999887,3.1665666e-05,1.747685e-07,-0.0015140772,4
661328000,-0.0017684092,0.009854723,-0.0050596525,0.9807679,-0.0059042634,0.013174064,0.19464338,-0.99999887,3.1665666e-05,1.747685e-07,-0.0015140772,4
661360000,-0.003145555,0.0074001024,-0.0022874423,0.98078156,-0.005927664,0.013242505,0.19456886,-0.99999887,3.1665666e-05,1.747685e-07,-0.0015140772,4
661396000,-0.004478658,0.0036867282,0.0056282915,0.9807763,-0.006058115,0.013281175,0.19458872,-0.99999887,3.1665666e-05,1.747685e-07,-0.0015140772,4
661424000,-0.004193051,-0.00219737,-0.007207468,0.9807839,-0.0060859392,0.013293023,0.19454935,-0.99999887,3.1665666e-05,1.747685e-07,-0.0015140772,4
661456000,-0.0044568097,-0.00058203936,-0.00042708236,0.98078334,-0.006116356,0.013265903,0.19455256,-0.99999887,3.1665666e-05,1.747685e-07,-0.0015140772,4
661488000,-0.0010331227,-0.0038745813,-3.566983e-05,0.9807751,-0.006184524,0.013194328,0.19459675,-0.99999887,3.1665666e-05,1.747685e-07,-0.0015140772,4
661520000,-0.005646896,-0.0018095681,-0.007998343,0.980776,-0.006195644,0.013134237,0.1945956,-0.99999887,3.1665666e-05,1.747685e-07,-0.0015140772,4
661556000,-0.011794921,-0.014154464,0.0031389524,0.980777,-0.0063907444,0.01294171,0.19459738,-0.99999887,3.1665666e-05,1.747685e-07,-0.0015140772,4
661584000,-0.011977692,-0.0039472883,-0.009452439,0.9807835,-0.0064799064,0.012793634,0.19457176,-0.99999887,3.1665666e-05,1.747685e-07,-0.0015140772,4
661616000,-0.012116646,-0.0047791153,-0.00178513,0.9807836,-0.006599264,0.012708906,0.19457251,-0.99999887,3.1665666e-05,1.747685e-07,-0.0015140772,4
661648000,-0.0007700982,-0.006504819,0.0011629382,0.9807851,-0.00667684,0.012585055,0.19457032,-0.99999887,3.1665666e-05,1.747685e-07,-0.0015140772,4
661680000,-0.0032176957,-0.0017880853,-0.002939106,0.9807886,-0.006720671,0.012571785,0.19455245,-0.99999887,3.1665666e-05,1.747685e-07,-0.0015140772,4
661712000,-0.004191173,-0.001467471,0.0008985322,0.9807859,-0.0066866437,0.012563134,0.1945673,-0.99999887,3.1665666e-05,1.747685e-07,-0.0015140772,4
661744000,0.0037860193,-0.0100591425,0.00033744355,0.98079216,-0.0066981795,0.012534239,0.19453755,-0.99999887,3.1665666e-05,1.747685e-07,-0.0015140772,4
661780000,-0.008487819,-0.008573217,-0.008891578,0.9808001,-0.006682398,0.012397965,0.1945065,-0.99999887,3.1665666e-05,1.747685e-07,-0.0015140772,4
661808000,0.00114138,-0.0042689154,-0.00054899475,0.98080355,-0.0066433065,0.012280932,0.19449829,-0.99999887,3.1665666e-05,1.747685e-07,-0.0015140772,4
661840000,0.007071565,-0.0063523543,-0.0043807244,0.98081744,-0.0065571675,0.012176229,0.1944378,-0.99999887,3.1665666e-05,1.747685e-07,-0.0015140772,4
661872000,0.006562783,-0.0018774006,0.002525247,0.98082274,-0.0065228925,0.012085765,0.19441797,-0.99999887,3.1665666e-05,1.747685e-07,-0.0015140772,4
661908000,0.0076365224,0.007040646,0.0010139601,0.9808286,-0.006346039,0.012074794,0.19439495,-0.99999887,3.1665666e-05,1.747685e-07,-0.0015140772,4
661936000,0.010002426,0.014293354,-0.0048069307,0.9808352,-0.006254103,0.012205912,0.19435629,-0.99999887,3.1665666e-05,1.747685e-07,-0.0015140772,4
661968000,0.0056189927,0.0045419447,-0.0029479614,0.98084134,-0.006162906,0.012315895,0.19432124,-0.99999887,3.1665666e-05,1.747685e-07,-0.0015140772,4
662000000,0.00039420248,0.0063095954,-0.011812646,0.98085904,-0.0061502126,0.012461997,0.19422282,-0.99999887,3.1665666e-05,1.747685e-07,-0.0015140772,4
662036000,0.003919985,-0.00072824815,-0.004401801,0.9808674,-0.006038966,0.0125425,0.19417882,-0.99999887,3.1665666e-05,1.747685e-07,-0.0015140772,4
662064000,-0.011148071,-0.0016336599,-3.8141734e-05,0.98086584,-0.0061177504,0.012563297,0.19418325,-0.99999887,3.1665666e-05,1.747685e-07,-0.0015140772,4
662100000,-0.011777733,-0.0060678767,-0.0013487054,0.98086,-0.006221153,0.012534824,0.19421111,-0.99999887,3.1665666e-05,1.747685e-07,-0.0015140772,4
662128000,-0.00094352383,-0.0069707534,-0.00093150616,0.9808641,-0.006312912,0.012500288,0.19418956,-0.99999887,3.1665666e-05,1.747685e-07,-0.0015140772,4
662164000,0.008891366,-0.002152136,0.0033185468,0.9808736,-0.0062758545,0.012465185,0.19414516,-0.99999887,3.1665666e-05,1.747685e-07,-0.0015140772,4
662192000,0.0026955071,0.0006333208,0.0056335726,0.9808756,-0.0061718384,0.012490486,0.19413637,-0.99999887,3.1665666e-05,1.747685e-07,-0.0015140772,4
662224000,-0.0010390624,-0.006836656,-0.00035719847,0.9808808,-0.0060608145,0.012479739,0.1941145,-0.99999887,3.1665666e-05,1.747685e-07,-0.0015140772,4
662256000,-0.001945803,0.0049312036,-0.0014239565,0.98088866,-0.0060556764,0.012399543,0.19408013,-0.99999887,3.1665666e-05,1.747685e-07,-0.0015140772,4
662292000,-0.009616618,-0.00265106,0.004844459,0.9808791,-0.0060795704,0.012364693,0.19412936,-0.99999887,3.1665666e-05,1.747685e-07,-0.0015140772,4
662320000,-0.0047326726,-0.009671772,-0.002503803,0.9808799,-0.006070382,0.012250711,0.19413356,-0.99999887,3.1665666e-05,1.747685e-07,-0.0015140772,4
662356000,-0.012762781,-0.005307532,0.006797934,0.9808956,-0.006174522,0.012152858,0.19405699,-0.99999887,3.1665666e-05,1.747685e-07,-0.0015140772,4
662384000,-0.008258978,-0.0012419019,6.6192704e-05,0.98090255,-0.006223673,0.012092616,0.1940243,-0.99999887,3.1665666e-05,1.747685e-07,-0.0015140772,4
662416000,-0.004106417,-0.0017611263,-0.0006502706,0.9809078,-0.0063232617,0.012065296,0.19399603,-0.99999887,3.1665666e-05,1.747685e-07,-0.0015140772,4
662452000,-0.012208639,-0.011192877,0.009926797,0.9809087,-0.0064503113,0.011897946,0.19399744,-0.99999887,3.1665666e-05,1.747685e-07,-0.0015140772,4
662480000,-0.021180581,-0.008549487,0.0061465576,0.98090285,-0.0066271164,0.011688656,0.19403346,-0.99999887,3.1665666e-05,1.747685e-07,-0.0015140772,4
662512000,-0.013406748,-0.012955267,0.0012121198,0.98091406,-0.0068328013,0.011424356,0.19398576,-0.99999887,3.1665666e-05,1.747685e-07,-0.0015140772,4
662544000,-0.014751485,-0.015549121,-0.0019454602,0.9809144,-0.0069863624,0.011169347,0.19399329,-0.99999887,3.1665666e-05,1.747685e-07,-0.0015140772,4
662576000,-0.0132480785,-0.006509478,0.0052375626,0.9809036,-0.0071050026,0.010987583,0.19405408,-0.99999887,3.1665666e-05,1.747685e-07,-0.0015140772,4
662608000,-0.0025248728,0.006257035,0.005325715,0.9808955,-0.007135179,0.010965252,0.19409524,-0.99999887,3.1665666e-05,1.747685e-07,-0.0015140772,4
662640000,-0.0020469143,0.0019584284,0.0024399399,0.98087907,-0.0071934634,0.011040222,0.19417147,-0.99999887,3.1665666e-05,1.747685e-07,-0.0015140772,4
662672000,0.0014636716,-0.0016651927,0.0018018124,0.9808736,-0.0071799573,0.011020145,0.19420147,-0.99999887,3.1665666e-05,1.747685e-07,-0.0015140772,4
662704000,1.2255914e-05,-0.0081476215,0.0033598708,0.98087287,-0.007163931,0.011029764,0.1942048,-0.99999887,3.1665666e-05,1.747685e-07,-0.0015140772,4
662736000,0.009997893,0.005450705,-0.0036304535,0.98086643,-0.007088883,0.011078814,0.19423762,-0.99999887,3.1665666e-05,1.747685e-07,-0.0015140772,4
662768000,-0.00021004694,-0.004659816,-0.0014258646,0.9808623,-0.007010844,0.011054811,0.19426247,-0.99999887,3.1665666e-05,1.747685e-07,-0.0015140772,4
662800000,0.00032505856,-0.008786836,0.006851087,0.98086035,-0.0069699213,0.010994555,0.19427694,-0.99999887,3.1665666e-05,1.747685e-07,-0.0015140772,4
662832000,-0.0026117216,-0.0109088775,-0.004097488,0.9808665,-0.0069234692,0.010809721,0.19425789,-0.99999887,3.1665666e-05,1.747685e-07,-0.0015140772,4
662864000,0.0014207135,-0.004767973,0.0039127506,0.98086673,-0.006841461,0.0106134955,0.19427073,-0.99999887,3.1665666e-05,1.747685e-07,-0.0015140772,4
662896000,0.008831802,-0.006677294,0.0062775663,0.98085743,-0.0067815986,0.010447209,0.19432868,-0.99999887,3.1665666e-05,1.747685e-07,-0.0015140772,4
662928000,0.013379122,-0.009295117,-0.00171105,0.9808491,-0.006632247,0.010215329,0.19438829,-0.99999887,3.1665666e-05,1.747685e-07,-0.0015140772,4
662960000,0.0060816007,-0.008688834,-0.0020200326,0.980848,-0.0064938227,0.010056494,0.19440661,-0.99999887,3.1665666e-05,1.747685e-07,-0.0015140772,4
662992000,0.011479156,-0.008787381,-0.0034433163,0.9808532,-0.006298385,0.009987203,0.19439057,-0.99999887,3.1665666e-05,1.747685e-07,-0.0015140772,4
663024000,-0.00280904,-0.014918642,-0.0013733495,0.98085976,-0.0061943377,0.009808394,0.19436972,-0.99999887,3.1665666e-05,1.747685e-07,-0.0015140772,4
663056000,-0.0011693116,-0.008182642,0.0015330752,0.98086035,-0.0062104394,0.009597314,0.19437687,-0.99999887,3.1665666e-05,1.747685e-07,-0.0015140772,4
663088000,0.00016251893,-0.005178486,0.0019590878,0.98085415,-0.006203804,0.00948004,0.19441435,-0.99999887,3.1665666e-05,1.747685e-07,-0.0015140772,4
663120000,0.00016032794,-0.008045053,-0.0005429039,0.9808554,-0.006173208,0.00940702,0.1944122,-0.99999887,3.1665666e-05,1.747685e-07,-0.0015140772,4
663156000,0.008007463,0.000237084,-0.0027025207,0.98085964,-0.0060834475,0.009442277,0.19439186,-0.99999887,3.1665666e-05,1.747685e-07,-0.0015140772,4
663184000,0.016435647,-0.0046295803,-0.0020888005,0.9808597,-0.005956175,0.009423625,0.19439697,-0.99999887,3.1665666e-05,1.747685e-07,-0.0015140772,4
663216000,0.0043136687,-0.006780572,-0.001859365,0.9808546,-0.005847007,0.009335118,0.1944297,-0.99999887,3.1665666e-05,1.747685e-07,-0.0015140772,4
663248000,0.0064524873,-0.01632486,-0.0067559653,0.9808615,-0.005770819,0.00916431,0.19440547,-0.99999887,3.1665666e-05,1.747685e-07,-0.0015140772,4
663280000,-0.00075799297,-0.010353588,0.0027942644,0.9808566,-0.005737851,0.009023537,0.19443816,-0.99999887,3.1665666e-05,1.747685e-07,-0.0015140772,4
663312000,-0.004540318,-0.010138769,-0.0015377254,0.98086154,-0.0057163266,0.008779844,0.1944248,-0.99999887,3.1665666e-05,1.747685e-07,-0.0015140772,4
663348000,-0.0047694626,-0.0022616251,0.0031320113,0.9808582,-0.0057817823,0.008685325,0.19444416,-0.99999887,3.1665666e-05,1.747685e-07,-0.0015140772,4
663376000,0.0035044819,0.00010406133,0.002057813,0.98085994,-0.005786294,0.008637461,0.19443692,-0.99999887,3.1665666e-05,1.747685e-07,-0.0015140772,4
663408000,-0.007268589,-0.0069345008,0.0057178987,0.9808615,-0.0058783134,0.0085084,0.19443218,-0.99999887,3.1665666e-05,1.747685e-07,-0.0015140772,4
663444000,0.0063988417,-0.0006380398,-0.0031345054,0.98087305,-0.00587326,0.008387597,0.19437951,-0.99999887,3.1665666e-05,1.747685e-07,-0.0015140772,4
663472000,0.00343676,-0.00716759,0.002005509,0.9808779,-0.0058304886,0.008332348,0.19435859,-0.99999887,3.1665666e-05,1.747685e-07,-0.0015140772,4
663504000,0.011863241,0.0009206077,-0.004764345,0.98087907,-0.0057127015,0.008305424,0.1943571,-0.99999887,3.1665666e-05,1.747685e-07,-0.0015140772,4
663536000,0.0070717544,0.00021160813,-0.0034406302,0.9808784,-0.0055684065,0.008360204,0.19436224,-0.99999887,3.1665666e-05,1.747685e-07,-0.0015140772,4
663568000,0.0014004663,0.0036362945,-0.0069972193,0.9808806,-0.0054429662,0.0084401155,0.19435158,-0.99999887,3.1665666e-05,1.747685e-07,-0.0015140772,4
663600000,0.018496267,0.0054964228,-0.0004616389,0.9808761,-0.005309625,0.008582429,0.19437133,-0.99999887,3.1665666e-05,1.747685e-07,-0.0015140772,4
663632000,0.013516622,-0.0029979688,-0.0055995807,0.9808804,-0.005161808,0.0086951,0.19434875,-0.99999887,3.1665666e-05,1.747685e-07,-0.0015140772,4
663664000,0.0049639787,-0.006396561,0.0013589978,0.98088896,-0.00502191,0.008664727,0.19431084,-0.99999887,3.1665666e-05,1.747685e-07,-0.0015140772,4
663700000,-0.0031784396,0.0036662554,-0.0039070146,0.98089564,-0.005013271,0.008784932,0.19427213,-0.99999887,3.1665666e-05,1.747685e-07,-0.0015140772,4
663728000,-0.0018853719,-0.0059677917,0.0041609243,0.98089314,-0.0050184624,0.008802731,0.19428346,-0.99999887,3.1665666e-05,1.747685e-07,-0.0015140772,4
663764000,0.004601812,0.0051305676,-0.0025995048,0.98088276,-0.0049676485,0.008857945,0.19433466,-0.99999887,3.1665666e-05,1.747685e-07,-0.0015140772,4
663796000,-0.006346833,-0.0018209056,-0.003376456,0.98088735,-0.0049944925,0.008953161,0.19430621,-0.99999887,3.1665666e-05,1.747685e-07,-0.0015140772,4
663824000,-0.004857064,0.0025586593,-0.005908085,0.9808939,-0.005027447,0.009033542,0.19426872,-0.99999887,3.1665666e-05,1.747685e-07,-0.0015140772,4
663856000,0.004577406,-0.0059404476,0.0037838323,0.9808955,-0.0050127655,0.009074099,0.19425896,-0.99999887,3.1665666e-05,1.747685e-07,-0.0015140772,4
663888000,-3.7862686e-05,-0.0030142693,-0.007907651,0.9808943,-0.004991948,0.009075105,0.19426563,-0.99999887,3.1665666e-05,1.747685e-07,-0.0015140772,4
663920000,0.0016546091,-3.5200734e-05,0.0028671687,0.9808913,-0.00494196,0.009088739,0.19428147,-0.99999887,3.1665666e-05,1.747685e-07,-0.0015140772,4
663952000,0.014084878,-0.0012519821,-0.0047320956,0.98089,-0.00482536,0.009120121,0.19429003,-0.99999887,3.1665666e-05,1.747685e-07,-0.0015140772,4
663984000,0.008491196,-0.005467841,-0.0053666844,0.98089105,-0.0046811257,0.009133706,0.19428742,-0.99999887,3.1665666e-05,1.747685e-07,-0.0015140772,4
664020000,0.007495061,-0.007900076,-0.005378341,0.98089314,-0.004532964,0.009056757,0.19428396,-0.99999887,3.1665666e-05,1.747685e-07,-0.0015140772,4
664048000,0.005349921,-0.020870218,-0.002226884,0.98089445,-0.0043993257,0.008926139,0.19428624,-0.99999887,3.1665666e-05,1.747685e-07,-0.0015140772,4
664084000,-0.00065603585,-0.016509522,-0.0004280869,0.980886,-0.00442774,0.008638288,0.19434135,-0.99999887,3.1665666e-05,1.747685e-07,-0.0015140772,4
664112000,-0.0040575825,-0.009453846,-0.0031657354,0.98089135,-0.004407069,0.008422113,0.1943242,-0.99999887,3.1665666e-05,1.747685e-07,-0.0015140772,4
664144000,-0.0010639557,-0.004707017,-0.003065078,0.9809025,-0.004400798,0.008275135,0.19427444,-0.99999887,3.1665666e-05,1.747685e-07,-0.0015140772,4
664176000,0.00034520685,-0.0046152086,-0.0053767087,0.98091656,-0.0043762703,0.008166635,0.19420841,-0.99999887,3.1665666e-05,1.747685e-07,-0.0015140772,4
664212000,0.003314312,-0.0019259709,0.0004074938,0.98091674,-0.0043364554,0.008114127,0.19421072,-0.99999887,3.1665666e-05,1.747685e-07,-0.0015140772,4
664240000,0.007522282,-0.011077497,-0.0031903693,0.9809215,-0.0042600087,0.008036346,0.19419125,-0.99999887,3.1665666e-05,1.747685e-07,-0.0015140772,4
664272000,-0.0011233845,-0.009406414,-0.0017919259,0.9809271,-0.0042149653,0.00792669,0.19416887,-0.99999887,3.1665666e-05,1.747685e-07,-0.0015140772,4
664304000,0.00026772363,-0.005779327,0.0016657792,0.9809325,-0.0042399266,0.007835311,0.194145,-0.99999887,3.1665666e-05,1.747685e-07,-0.0015140772,4
664336000,0.0047487887,-0.008813272,0.008595288,0.98092157,-0.0041665365,0.007716472,0.19420646,-0.99999887,3.1665666e-05,1.747685e-07,-0.0015140772,4
664368000,0.0036503982,-0.005773573,0.0035796282,0.98091716,-0.004104197,0.007561655,0.19423556,-0.99999887,3.1665666e-05,1.747685e-07,-0.0015140772,4
664400000,-0.0046030805,-0.0006761616,0.0033288882,0.9809052,-0.004030903,0.007490598,0.19430098,-0.99999887,3.1665666e-05,1.747685e-07,-0.0015140772,4
664432000,-0.0030962168,-0.008018099,0.0033009923,0.980909,-0.003998997,0.0073653143,0.19428706,-0.99999887,3.1665666e-05,1.747685e-07,-0.0015140772,4
664464000,-0.0010645029,-0.00030782958,-0.0027157615,0.980906,-0.0039244313,0.0073560462,0.19430374,-0.99999887,3.1665666e-05,1.747685e-07,-0.0015140772,4
664496000,0.0023260382,-0.0032545435,-6.474741e-05,0.9809128,-0.0038981866,0.0072921305,0.19427212,-0.99999887,3.1665666e-05,1.747685e-07,-0.0015140772,4
664528000,-0.0054271296,-0.00668796,0.0065729683,0.98091173,-0.0039022116,0.0072029573,0.1942809,-0.99999887,3.1665666e-05,1.747685e-07,-0.0015140772,4
664564000,0.0018737796,0.0007544062,-0.0006130128,0.9809076,-0.00392412,0.0071742884,0.19430245,-0.99999887,3.1665666e-05,1.747685e-07,-0.0015140772,4
664592000,-0.001676914,-0.002636841,-0.0057420568,0.98091364,-0.0038861325,0.007139555,0.19427378,-0.99999887,3.1665666e-05,1.747685e-07,-0.0015140772,4
664624000,0.007302116,0.0024025033,0.0050170496,0.98090875,-0.0038151208,0.0071620955,0.19429944,-0.99999887,3.1665666e-05,1.747685e-07,-0.0015140772,4
664656000,0.0026309597,-0.0065434687,-0.004341237,0.98090893,-0.0036846597,0.007100081,0.1943033,-0.99999887,3.1665666e-05,1.747685e-07,-0.0015140772,4
664688000,0.020033417,-0.0044243014,-0.0028305643,0.9809126,-0.0034941256,0.007087203,0.19428873,-0.99999887,3.1665666e-05,1.747685e-07,-0.0015140772,4
664724000,0.0037752804,-0.0024988097,-0.007519915,0.9809272,-0.0033413055,0.006989033,0.19422142,-0.99999887,3.1665666e-05,1.747685e-07,-0.0015140772,4
664752000,0.007587781,-0.00806094,-0.00077991385,0.9809317,-0.0032822646,0.0069798897,0.19420017,-0.99999887,3.1665666e-05,1.747685e-07,-0.0015140772,4
664784000,0.010228997,-0.00361236,0.0044104205,0.98093367,-0.0031665098,0.006956568,0.19419286,-0.99999887,3.1665666e-05,1.747685e-07,-0.0015140772,4
664816000,0.0101348385,-0.010393438,0.00013685354,0.9809428,-0.0030458285,0.0068612588,0.194152,-0.99999887,3.1665666e-05,1.747685e-07,-0.0015140772,4
664852000,0.005621832,-0.0149132265,0.004281111,0.9809461,-0.002988842,0.0066927024,0.19414176,-0.99999887,3.1665666e-05,1.747685e-07,-0.0015140772,4
664880000,-0.0017510175,-0.0077588456,-0.0016902525,0.9809475,-0.0029158122,0.0065444685,0.19414116,-0.99999887,3.1665666e-05,1.747685e-07,-0.0015140772,4
664912000,-0.002799556,-0.0111827105,0.0034750127,0.98094344,-0.0028744459,0.006420301,0.19416636,-0.99999887,3.1665666e-05,1.747685e-07,-0.0015140772,4
664944000,-0.0032187633,-0.0046283524,0.0006254156,0.9809321,-0.002864219,0.0064066737,0.19422379,-0.99999887,3.1665666e-05,1.747685e-07,-0.0015140772,4
664980000,0.0026713316,-0.012373037,-0.006075622,0.98093015,-0.002870578,0.0063512158,0.19423555,-0.99999887,3.1665666e-05,1.747685e-07,-0.0015140772,4
665008000,0.0029787004,-0.0051937546,0.00031017454,0.98093385,-0.0028076426,0.0062684594,0.19422074,-0.99999887,3.1665666e-05,1.747685e-07,-0.0015140772,4
665040000,0.003385023,-0.0057466566,-0.00035711197,0.9809345,-0.0027780903,0.00616453,0.19422139,-0.99999887,3.1665666e-05,1.747685e-07,-0.0015140772,4
665072000,-0.0014140732,-0.0071853595,-0.005194928,0.98094076,-0.002756363,0.006068725,0.19419283,-0.99999887,3.1665666e-05,1.747685e-07,-0.0015140772,4
665108000,0.0026267124,-0.008923282,0.0008679518,0.980938,-0.0027679899,0.0060041067,0.1942083,-0.99999887,3.1665666e-05,1.747685e-07,-0.0015140772,4
665136000,0.006412576,0.00092108035,0.0033431156,0.9809365,-0.0027619232,0.006021515,0.19421579,-0.99999887,3.1665666e-05,1.747685e-07,-0.0015140772,4
665168000,-0.0010982356,-0.0056972313,-0.003091623,0.9809279,-0.0027737587,0.0060584852,0.19425808,-0.99999887,3.1665666e-05,1.747685e-07,-0.0015140772,4
665200000,0.0048019374,-0.0020304276,0.003994693,0.9809311,-0.0027416446,0.006113891,0.19424072,-0.99999887,3.1665666e-05,1.747685e-07,-0.0015140772,4
665232000,0.003489509,0.0049943863,-0.0047871326,0.9809363,-0.0026932862,0.0061419345,0.19421436,-0.99999887,3.1665666e-05,1.747685e-07,-0.0015140772,4
665264000,0.010127876,-0.0009500901,0.0029001823,0.98093605,-0.002558535,0.0061525246,0.19421688,-0.99999887,3.1665666e-05,1.747685e-07,-0.0015140772,4
665300000,-0.0014118452,-0.0054247417,-0.003295658,0.9809352,-0.0024167772,0.006103733,0.19422391,-0.99999887,3.1665666e-05,1.747685e-07,-0.0015140772,4
665328000,-0.0060281004,-0.0044190367,0.005282901,0.9809221,-0.0024283058,0.0060826405,0.19429098,-0.99999887,3.1665666e-05,1.747685e-07,-0.0015140772,4
665360000,-0.0033340831,0.00039200997,0.003049446,0.98092616,-0.002476642,0.0061055273,0.19426923,-0.99999887,3.1665666e-05,1.747685e-07,-0.0015140772,4
665396000,0.0039729285,0.0010793204,0.0039852615,0.98093265,-0.002428052,0.006131055,0.19423638,-0.99999887,3.1665666e-05,1.747685e-07,-0.0015140772,4
665424000,0.008204994,0.0102474615,0.0022144467,0.9809318,-0.002351861,0.006131181,0.19424166,-0.99999887,3.1665666e-05,1.747685e-07,-0.0015140772,4
665460000,0.010067718,0.0060912725,-0.0041634534,0.9809311,-0.0022644654,0.006202006,0.19424352,-0.99999887,3.1665666e-05,1.747685e-07,-0.0015140772,4
665488000,0.005244262,0.006990218,0.004409828,0.98093134,-0.0022178942,0.0062812283,0.19424048,-0.99999887,3.1665666e-05,1.747685e-07,-0.0015140772,4
665520000,-0.0020030434,0.003073477,0.0038285875,0.9809297,-0.0021935261,0.0063916687,0.19424587,-0.99999887,3.1665666e-05,1.747685e-07,-0.0015140772,4
665552000,-0.001372165,0.00634517,0.0002831698,0.98092294,-0.0021792748,0.0064613274,0.19427714,-0.99999887,3.1665666e-05,1.747685e-07,-0.0015140772,4
665584000,-0.007143893,0.008948826,0.0012204836,0.9809202,-0.0022442462,0.006553891,0.19428764,-0.99999887,3.1665666e-05,1.747685e-07,-0.0015140772,4
665616000,0.0007869227,0.0092703765,0.0037811832,0.98092604,-0.0022960256,0.0067246,0.19425163,-0.99999887,3.1665666e-05,1.747685e-07,-0.0015140772,4
665648000,-0.0061584916,-0.0016625742,-0.0038200577,0.98093,-0.0024180342,0.006707808,0.19423108,-0.99999887,3.1665666e-05,1.747685e-07,-0.0015140772,4
665680000,-0.0014543552,0.0002646069,-0.0009321213,0.9809334,-0.0024546632,0.006682371,0.19421355,-0.99999887,3.1665666e-05,1.747685e-07,-0.0015140772,4
665712000,-0.006916686,-0.0031404984,0.005696291,0.98092735,-0.002461703,0.0066563375,0.19424523,-0.99999887,3.1665666e-05,1.747685e-07,-0.0015140772,4
665744000,0.0007553357,-0.0024370607,0.0048152483,0.9809274,-0.0024702896,0.0066377656,0.19424559,-0.99999887,3.1665666e-05,1.747685e-07,-0.0015140772,4
665776000,0.002841402,-0.0013249838,-0.0019636368,0.9809289,-0.0024115026,0.006604516,0.19423978,-0.99999887,3.1665666e-05,1.747685e-07,-0.0015140772,4
665808000,0.0036812264,0.006339305,-0.0013159843,0.9809273,-0.0024213789,0.006668992,0.19424592,-0.99999887,3.1665666e-05,1.747685e-07,-0.0015140772,4
665840000,0.01315702,0.007856289,0.0009855247,0.98092425,-0.0023449352,0.006825656,0.19425689,-0.99999887,3.1665666e-05,1.747685e-07,-0.0015140772,4
665872000,0.01383373,-0.0027806698,0.003573252,0.98091316,-0.0021639797,0.006902412,0.19431208,-0.99999887,3.1665666e-05,1.747685e-07,-0.0015140772,4
665904000,0.014143749,-0.0064581223,0.00033810223,0.9809086,-0.001876355,0.006864747,0.1943392,-0.99999887,3.1665666e-05,1.747685e-07,-0.0015140772,4
665940000,0.016660042,-0.008303042,-0.0029230383,0.9809101,-0.0014767986,0.0068534715,0.19433555,-0.99999887,3.1665666e-05,1.747685e-07,-0.0015140772,4
665968000,0.007495655,-0.010293885,0.0031928637,0.98090917,-0.0012687978,0.006744078,0.19434552,-0.99999887,3.1665666e-05,1.747685e-07,-0.0015140772,4
666000000,0.0007227984,-0.0057848813,-0.004292999,0.9809178,-0.0011811967,0.0066396906,0.1943058,-0.99999887,3.1665666e-05,1.747685e-07,-0.0015140772,4
666036000,-0.008733132,-0.0066442075,0.00039326632,0.9809233,-0.0012534052,0.006560297,0.1942804,-0.99999887,3.1665666e-05,1.747685e-07,-0.0015140772,4
666064000,0.0008354147,0.002904943,-0.0039035594,0.98092693,-0.0012753637,0.006508768,0.19426346,-0.99999887,3.1665666e-05,1.747685e-07,-0.0015140772,4
666096000,-0.011860663,0.0041587413,0.002376201,0.98091847,-0.0013686117,0.006556708,0.194304,-0.99999887,3.1665666e-05,1.747685e-07,-0.0015140772,4
666128000,0.007379852,0.004425942,0.0016209327,0.9809122,-0.0014356183,0.0065948553,0.194334,-0.99999887,3.1665666e-05,1.747685e-07,-0.0015140772,4
666164000,0.0037272752,0.008542609,-0.0024688917,0.9809132,-0.0014561517,0.006662449,0.19432637,-0.99999887,3.1665666e-05,1.747685e-07,-0.0015140772,4
666196000,0.012427297,0.01006267,0.0010738223,0.9809148,-0.0013791574,0.0068161464,0.19431396,-0.99999887,3.1665666e-05,1.747685e-07,-0.0015140772,4
666224000,0.0022647427,0.0073477062,0.008339638,0.98090833,-0.0013516117,0.0069928993,0.19434044,-0.99999887,3.1665666e-05,1.747685e-07,-0.0015140772,4
666256000,0.004552691,0.010191103,0.00276552,0.98090374,-0.0012654782,0.007167891,0.19435754,-0.99999887,3.1665666e-05,1.747685e-07,-0.0015140772,4
666288000,0.0020625456,0.00076397974,-0.010349591,0.9809116,-0.0012757824,0.0072192736,0.19431625,-0.99999887,3.1665666e-05,1.747685e-07,-0.0015140772,4
666320000,0.0030165801,-0.007323822,-0.0032573165,0.9809105,-0.0011908661,0.007185976,0.19432363,-0.99999887,3.1665666e-05,1.747685e-07,-0.0015140772,4
666356000,0.0058197007,-0.0023670155,-0.010556825,0.98091584,-0.0011289853,0.0071527753,0.1942979,-0.99999887,3.1665666e-05,1.747685e-07,-0.0015140772,4
666384000,0.002072512,0.002385587,-0.0032998025,0.98092103,-0.0010377006,0.0071292133,0.19427305,-0.99999887,3.1665666e-05,1.747685e-07,-0.0015140772,4
666420000,0.0018102219,0.0054737185,0.0014220634,0.9809187,-0.0010405781,0.007199582,0.19428244,-0.99999887,3.1665666e-05,1.747685e-07,-0.0015140772,4
666448000,-0.007703526,-0.0043973583,0.0042786733,0.9809168,-0.0011425047,0.007221002,0.19429077,-0.99999887,3.1665666e-05,1.747685e-07,-0.0015140772,4
666480000,-0.0040945313,0.003855793,0.00019279029,0.98090494,-0.0012517225,0.0072299177,0.19434951,-0.99999887,3.1665666e-05,1.747685e-07,-0.0015140772,4
666512000,-1.0178599e-05,0.0016580778,0.0026129163,0.98090744,-0.0013657071,0.0072327154,0.19433573,-0.99999887,3.1665666e-05,1.747685e-07,-0.0015140772,4
666544000,0.0034390409,-0.004005562,-0.003934617,0.98091567,-0.0013451283,0.0072501916,0.19429377,-0.99999887,3.1665666e-05,1.747685e-07,-0.0015140772,4
666576000,-0.0048402823,-0.004396895,-0.0013102023,0.9809153,-0.0013479803,0.0072305314,0.19429669,-0.99999887,3.1665666e-05,1.747685e-07,-0.0015140772,4
666608000,-0.0076068244,0.0017199274,-0.00015513547,0.9809135,-0.0014500686,0.007179799,0.19430643,-0.99999887,3.1665666e-05,1.747685e-07,-0.0015140772,4
666640000,0.003774923,-0.0044746953,0.0036574593,0.98091483,-0.0014369293,0.0071390877,0.19430184,-0.99999887,3.1665666e-05,1.747685e-07,-0.0015140772,4
666672000,0.010394013,-0.0029587452,0.003338717,0.9809128,-0.0013427049,0.007075584,0.19431506,-0.99999887,3.1665666e-05,1.747685e-07,-0.0015140772,4
666708000,0.02068278,-0.009633163,-0.0008887763,0.9809111,-0.001135664,0.0070329057,0.19432686,-0.99999887,3.1665666e-05,1.747685e-07,-0.0015140772,4
666736000,0.01566903,-0.005565226,-0.007563742,0.98091966,-0.0009233296,0.0070159826,0.19428504,-0.99999887,3.1665666e-05,1.747685e-07,-0.0015140772,4
666768000,0.0052134437,0.002983689,-0.0072834175,0.98092407,-0.0007210455,0.007018013,0.19426304,-0.99999887,3.1665666e-05,1.747685e-07,-0.0015140772,4
666800000,0.008962358,0.0034630748,-0.000876434,0.98092896,-0.00061212434,0.007137251,0.19423471,-0.99999887,3.1665666e-05,1.747685e-07,-0.0015140772,4
666832000,-0.0005293726,0.015177313,-0.00014791865,0.9809221,-0.00061539887,0.007229608,0.19426593,-0.99999887,3.1665666e-05,1.747685e-07,-0.0015140772,4
666864000,-0.0039532785,0.0036396685,0.0077817733,0.9809146,-0.00063202815,0.0073370966,0.19429964,-0.99999887,3.1665666e-05,1.747685e-07,-0.0015140772,4
666896000,0.0023710565,0.0064037247,-1.66893e-05,0.98091376,-0.00058420416,0.0074416236,0.19430034,-0.99999887,3.1665666e-05,1.747685e-07,-0.0015140772,4
666928000,-0.011876116,0.0036201165,-0.00060676096,0.98092,-0.0008132492,0.0075152367,0.19426462,-0.99999887,3.1665666e-05,1.747685e-07,-0.0015140772,4
666960000,0.0015205727,0.002176506,-0.0019087854,0.9809295,-0.00082291325,0.0075541036,0.19421567,-0.99999887,3.1665666e-05,1.747685e-07,-0.0015140772,4
666992000,-0.0019748365,0.0050075995,0.0022887331,0.9809394,-0.000859996,0.0076253638,0.1941626,-0.99999887,3.1665666e-05,1.747685e-07,-0.0015140772,4
667024000,-0.0038785636,0.009364674,-0.0050631138,0.98095024,-0.00091778603,0.0077342354,0.19410317,-0.99999887,3.1665666e-05,1.747685e-07,-0.0015140772,4
667056000,0.005879093,-0.003737634,0.00047907175,0.98095614,-0.00085313,0.007737278,0.19407335,-0.99999887,3.1665666e-05,1.747685e-07,-0.0015140772,4
667092000,-0.0044390024,0.005684541,-0.013992705,0.98097616,-0.0007878621,0.007743163,0.19397253,-0.99999887,3.1665666e-05,1.747685e-07,-0.0015140772,4
667124000,-0.033967063,0.032517206,-0.035965934,0.98105544,-0.0012084455,0.007967305,0.1935599,-0.99999887,3.1665666e-05,1.747685e-07,-0.0015140772,4
667152000,-0.05541192,0.0808497,-0.060018454,0.9811693,-0.0019412112,0.00863021,0.19294712,-0.99999887,3.1665666e-05,1.747685e-07,-0.0015140772,4
667184000,-0.09766799,0.14218055,-0.08975456,0.9813909,-0.0035048341,0.010127375,0.19172181,-0.99999887,3.1665666e-05,1.747685e-07,-0.0015140772,4
667220000,-0.15262103,0.25341392,-0.1276394,0.98173076,-0.00640053,0.013191305,0.18970953,-0.99999887,3.1665666e-05,1.747685e-07,-0.0015140772,4
667248000,-0.19097385,0.3575132,-0.16568123,0.9820407,-0.009621612,0.016914962,0.18766321,-0.99999887,3.1665666e-05,1.747685e-07,-0.0015140772,4
667280000,-0.2522034,0.49239662,-0.20840913,0.98241943,-0.0144969,0.02299402,0.18469805,-0.99999887,3.1665666e-05,1.747685e-07,-0.0015140772,4
667312000,-0.31326732,0.61706537,-0.24345349,0.9827693,-0.020689867,0.030869052,0.18106255,-0.99999887,3.1665666e-05,1.747685e-07,-0.0015140772,4
667344000,-0.39665738,0.7406682,-0.28595668,0.9830038,-0.028398566,0.040536102,0.1767876,-0.99999887,3.1665666e-05,1.747685e-07,-0.0015140772,4
667376000,-0.47624424,0.8313177,-0.33331507,0.98305196,-0.037693866,0.05162271,0.17182305,-0.99999887,3.1665666e-05,1.747685e-07,-0.0015140772,4
667408000,-0.5251754,0.89197934,-0.36218068,0.9828292,-0.04826089,0.06378599,0.16627991,-0.99999887,3.1665666e-05,1.747685e-07,-0.0015140772,4
667440000,-0.5743175,0.9390855,-0.39874133,0.9823263,-0.05976179,0.07640702,0.16007966,-0.99999887,3.1665666e-05,1.747685e-07,-0.0015140772,4
667476000,-0.5964441,0.9117496,-0.4351043,0.9813945,-0.07333618,0.09065153,0.15254179,-0.99999887,3.1665666e-05,1.747685e-07,-0.0015140772,4
667504000,-0.5907579,0.8911507,-0.46468624,0.98046446,-0.08396801,0.10133963,0.14618184,-0.99999887,3.1665666e-05,1.747685e-07,-0.0015140772,4
667536000,-0.5699542,0.8229407,-0.48792857,0.979254,-0.09580777,0.11266692,0.13852306,-0.99999887,3.1665666e-05,1.747685e-07,-0.0015140772,4
667568000,-0.5284241,0.73811615,-0.51828706,0.9779736,-0.10698812,0.12293074,0.13041967,-0.99999887,3.1665666e-05,1.747685e-07,-0.0015140772,4
667600000,-0.48439696,0.6534908,-0.5458714,0.9767185,-0.11753529,0.13169487,0.12191346,-0.99999887,3.1665666e-05,1.747685e-07,-0.0015140772,4
667632000,-0.43962988,0.54477805,-0.5680593,0.9756007,-0.12694,0.13895796,0.11305009,-0.99999887,3.1665666e-05,1.747685e-07,-0.0015140772,4
667664000,-0.3642642,0.44994223,-0.6032672,0.97466236,-0.13529254,0.14473322,0.10383377,-0.99999887,3.1665666e-05,1.747685e-07,-0.0015140772,4
667696000,-0.31173703,0.36207157,-0.615503,0.97392464,-0.14263472,0.14909227,0.094326995,-0.99999887,3.1665666e-05,1.747685e-07,-0.0015140772,4
667728000,-0.26904818,0.2751183,-0.6378434,0.97341454,-0.14903103,0.15201981,0.08452191,-0.99999887,3.1665666e-05,1.747685e-07,-0.0015140772,4
667760000,-0.2144653,0.20479964,-0.662614,0.9731098,-0.15455304,0.15373455,0.0744073,-0.99999887,3.1665666e-05,1.747685e-07,-0.0015140772,4
667796000,-0.17650701,0.15285648,-0.68236,0.97290945,-0.16011666,0.1545242,0.06270668,-0.99999887,3.1665666e-05,1.747685e-07,-0.0015140772,4
667824000,-0.15793607,0.114378795,-0.69917667,0.9728233,-0.16397767,0.15451176,0.053406008,-0.99999887,3.1665666e-05,1.747685e-07,-0.0015140772,4
667860000,-0.14264205,0.0863094,-0.72229195,0.97272295,-0.16859923,0.15393436,0.041092787,-0.99999887,3.1665666e-05,1.747685e-07,-0.0015140772,4
667892000,-0.11762648,0.061074663,-0.7337616,0.9726099,-0.17246237,0.15295084,0.029880255,-0.99999887,3.1665666e-05,1.747685e-07,-0.0015140772,4
667920000,-0.10323494,0.0639141,-0.7458404,0.97247076,-0.17557825,0.15190993,0.019910635,-0.99999887,3.1665666e-05,1.747685e-07,-0.0015140772,4
667956000,-0.09880561,0.061244898,-0.7581716,0.9721657,-0.1794091,0.15053076,0.0068398127,-0.99999887,3.1665666e-05,1.747685e-07,-0.0015140772,4
667988000,-0.102544636,0.072202414,-0.7688958,0.9717139,-0.18283468,0.14939506,-0.0049781324,-0.99999887,3.1665666e-05,1.747685e-07,-0.0015140772,4
668020000,-0.11721297,0.0829581,-0.7760859,0.97109324,-0.18632226,0.14824273,-0.016915074,-0.99999887,3.1665666e-05,1.747685e-07,-0.0015140772,4
668048000,-0.12905635,0.09211234,-0.7877785,0.97035086,-0.18956421,0.14738865,-0.027591873,-0.99999887,3.1665666e-05,1.747685e-07,-0.0015140772,4
668080000,-0.12976117,0.09815068,-0.79512936,0.9693282,-0.19328547,0.14648229,-0.03983218,-0.99999887,3.1665666e-05,1.747685e-07,-0.0015140772,4
668112000,-0.14608717,0.095365815,-0.806616,0.9680804,-0.19722605,0.14559673,-0.05219083,-0.99999887,3.1665666e-05,1.747685e-07,-0.0015140772,4
668144000,-0.16439284,0.114456885,-0.80176395,0.9665881,-0.20136492,0.14484817,-0.06464403,-0.99999887,3.1665666e-05,1.747685e-07,-0.0015140772,4
668176000,-0.15988624,0.12203572,-0.8139882,0.9648825,-0.20558876,0.14417699,-0.07712373,-0.99999887,3.1665666e-05,1.747685e-07,-0.0015140772,4
668208000,-0.16760339,0.12688027,-0.8259633,0.9629701,-0.20984542,0.14354244,-0.08971652,-0.99999887,3.1665666e-05,1.747685e-07,-0.0015140772,4
668240000,-0.15591535,0.12309808,-0.83184475,0.96088207,-0.21398963,0.14284667,-0.10251249,-0.99999887,3.1665666e-05,1.747685e-07,-0.0015140772,4
668272000,-0.14617756,0.11674413,-0.8367917,0.95864445,-0.21797593,0.14204872,-0.115367346,-0.99999887,3.1665666e-05,1.747685e-07,-0.0015140772,4
668304000,-0.14895599,0.1165494,-0.8415478,0.9562464,-0.22191349,0.1410252,-0.12829368,-0.99999887,3.1665666e-05,1.747685e-07,-0.0015140772,4
668340000,-0.14154585,0.10038851,-0.8578284,0.9533466,-0.22623426,0.13970032,-0.14294097,-0.99999887,3.1665666e-05,1.747685e-07,-0.0015140772,4
668368000,-0.1380366,0.08619484,-0.8624969,0.9509487,-0.22950202,0.13850239,-0.15440997,-0.99999887,3.1665666e-05,1.747685e-07,-0.0015140772,4
668400000,-0.13216925,0.075095356,-0.8639678,0.9480734,-0.23318437,0.13681453,-0.16752224,-0.99999887,3.1665666e-05,1.747685e-07,-0.0015140772,4
668436000,-0.13223737,0.060789146,-0.8810522,0.9446483,-0.23723012,0.1346028,-0.18232822,-0.99999887,3.1665666e-05,1.747685e-07,-0.0015140772,4
668464000,-0.120315276,0.049799845,-0.8856364,0.94183207,-0.24036402,0.1326992,-0.19382629,-0.99999887,3.1665666e-05,1.747685e-07,-0.0015140772,4
668496000,-0.12706357,0.04722818,-0.8862258,0.93841887,-0.243934,0.13036102,-0.20705609,-0.99999887,3.1665666e-05,1.747685e-07,-0.0015140772,4
668528000,-0.11830376,0.030336179,-0.88611656,0.9348446,-0.24741885,0.12783296,-0.22024596,-0.99999887,3.1665666e-05,1.747685e-07,-0.0015140772,4
668560000,-0.115009926,0.034270495,-0.8986828,0.9310457,-0.25091136,0.1251774,-0.23351249,-0.99999887,3.1665666e-05,1.747685e-07,-0.0015140772,4
668596000,-0.12234096,0.03295163,-0.90387714,0.926515,-0.25478318,0.122160085,-0.24846019,-0.99999887,3.1665666e-05,1.747685e-07,-0.0015140772,4
668628000,-0.13370283,0.036603563,-0.91575223,0.9222086,-0.2583324,0.11940076,-0.2617999,-0.99999887,3.1665666e-05,1.747685e-07,-0.0015140772,4
668656000,-0.12881677,0.02436787,-0.915082,0.91827005,-0.2613692,0.11689997,-0.27349725,-0.99999887,3.1665666e-05,1.747685e-07,-0.0015140772,4
668688000,-0.1297286,0.024794456,-0.9200036,0.9135258,-0.26495385,0.11399545,-0.28683624,-0.99999887,3.1665666e-05,1.747685e-07,-0.0015140772,4
668720000,-0.1497668,0.02146392,-0.93192905,0.9085127,-0.26858923,0.11105861,-0.3002173,-0.99999887,3.1665666e-05,1.747685e-07,-0.0015140772,4
668752000,-0.15185541,0.023731407,-0.9346748,0.9032521,-0.2722357,0.10808575,-0.3135935,-0.99999887,3.1665666e-05,1.747685e-07,-0.0015140772,4
668784000,-0.13536495,0.03298742,-0.93346953,0.8977842,-0.27574268,0.10515786,-0.32694256,-0.99999887,3.1665666e-05,1.747685e-07,-0.0015140772,4
668816000,-0.11936773,0.036056757,-0.93724054,0.8921429,-0.27892354,0.10218222,-0.34035513,-0.99999887,3.1665666e-05,1.747685e-07,-0.0015140772,4
668848000,-0.09702963,0.061013464,-0.9343695,0.88636,-0.28169876,0.09930376,-0.3537664,-0.99999887,3.1665666e-05,1.747685e-07,-0.0015140772,4
668880000,-0.08933952,0.060171083,-0.94088984,0.8803962,-0.28417277,0.096471734,-0.36720777,-0.99999887,3.1665666e-05,1.747685e-07,-0.0015140772,4
668916000,-0.06972441,0.07077624,-0.93903095,0.8735496,-0.28644928,0.09322627,-0.38231778,-0.99999887,3.1665666e-05,1.747685e-07,-0.0015140772,4
668944000,-0.05685325,0.073250026,-0.93876076,0.86812216,-0.2879672,0.09062867,-0.39398643,-0.99999887,3.1665666e-05,1.747685e-07,-0.0015140772,4
668976000,-0.037661616,0.06927362,-0.93812436,0.8618391,-0.2893605,0.087466575,-0.4072511,-0.99999887,3.1665666e-05,1.747685e-07,-0.0015140772,4
669012000,-0.011288071,0.06607914,-0.94152504,0.8546371,-0.29055682,0.08375618,-0.42208683,-0.99999887,3.1665666e-05,1.747685e-07,-0.0015140772,4
669040000,0.0072494023,0.060459044,-0.9322414,0.84896183,-0.29121193,0.08075625,-0.43351793,-0.99999887,3.1665666e-05,1.747685e-07,-0.0015140772,4
669072000,0.03210708,0.06124948,-0.93319273,0.84237397,-0.29176775,0.07702513,-0.4464806,-0.99999887,3.1665666e-05,1.747685e-07,-0.0015140772,4
669108000,0.050229922,0.037651163,-0.9381724,0.8349054,-0.291932,0.072482556,-0.46092862,-0.99999887,3.1665666e-05,1.747685e-07,-0.0015140772,4
669136000,0.08193812,0.031273752,-0.9321107,0.8290562,-0.29177362,0.0686517,-0.47203916,-0.99999887,3.1665666e-05,1.747685e-07,-0.0015140772,4
669168000,0.104457766,0.03720818,-0.92726004,0.8223369,-0.29126692,0.06402552,-0.484589,-0.99999887,3.1665666e-05,1.747685e-07,-0.0015140772,4
669200000,0.14797509,0.03441942,-0.92539936,0.8156315,-0.2902029,0.059104618,-0.49702546,-0.99999887,3.1665666e-05,1.747685e-07,-0.0015140772,4
669232000,0.179824,0.02988404,-0.9144059,0.8089874,-0.2886143,0.053920887,-0.5092483,-0.99999887,3.1665666e-05,1.747685e-07,-0.0015140772,4
669264000,0.22048424,0.048911184,-0.90193397,0.802379,-0.28641364,0.048560787,-0.5213417,-0.99999887,3.1665666e-05,1.747685e-07,-0.0015140772,4
669300000,0.25752345,0.058312207,-0.8960915,0.79502195,-0.28319013,0.042447004,-0.5347352,-0.99999887,3.1665666e-05,1.747685e-07,-0.0015140772,4
669328000,0.27586007,0.07916669,-0.87910044,0.789352,-0.28023165,0.03769224,-0.5449523,-0.99999887,3.1665666e-05,1.747685e-07,-0.0015140772,4
669364000,0.29271892,0.10999575,-0.8723178,0.78205353,-0.27579,0.03179418,-0.5579617,-0.99999887,3.1665666e-05,1.747685e-07,-0.0015140772,4
669392000,0.29274702,0.13467903,-0.84902096,0.77636963,-0.27192363,0.027500615,-0.5679361,-0.99999887,3.1665666e-05,1.747685e-07,-0.0015140772,4
669424000,0.28969932,0.16153282,-0.83558357,0.7698307,-0.26720533,0.023034677,-0.57916445,-0.99999887,3.1665666e-05,1.747685e-07,-0.0015140772,4
669456000,0.28959584,0.20410083,-0.82135457,0.76329386,-0.26215345,0.01912488,-0.59016293,-0.99999887,3.1665666e-05,1.747685e-07,-0.0015140772,4
669488000,0.25359455,0.22465652,-0.8043245,0.756648,-0.25702167,0.015760979,-0.6009787,-0.99999887,3.1665666e-05,1.747685e-07,-0.0015140772,4
669520000,0.22700852,0.23646848,-0.79793227,0.7498409,-0.25205854,0.012950126,-0.611586,-0.99999887,3.1665666e-05,1.747685e-07,-0.0015140772,4
669552000,0.18300907,0.22866756,-0.7763855,0.74290204,-0.24749964,0.010482952,-0.6218767,-0.99999887,3.1665666e-05,1.747685e-07,-0.0015140772,4
669584000,0.13449433,0.19038895,-0.7760296,0.7356835,-0.24361776,0.008266348,-0.631943,-0.99999887,3.1665666e-05,1.747685e-07,-0.0015140772,4
669616000,0.0818313,0.15616228,-0.7714615,0.7281941,-0.24066487,0.006173985,-0.6416975,-0.99999887,3.1665666e-05,1.747685e-07,-0.0015140772,4
669652000,0.021925092,0.09668798,-0.767996,0.71945465,-0.23858741,0.003950183,-0.6522618,-0.99999887,3.1665666e-05,1.747685e-07,-0.0015140772,4
669680000,-0.02743149,0.043275975,-0.7751792,0.71234006,-0.23804188,0.002037705,-0.66023,-0.99999887,3.1665666e-05,1.747685e-07,-0.0015140772,4
669712000,-0.06417423,-0.026116405,-0.77625966,0.70392376,-0.23850049,-0.00034867343,-0.6690357,-0.99999887,3.1665666e-05,1.747685e-07,-0.0015140772,4
669748000,-0.09793317,-0.088893555,-0.782599,0.69411,-0.2403302,-0.0034275248,-0.67855805,-0.99999887,3.1665666e-05,1.747685e-07,-0.0015140772,4
669776000,-0.110561535,-0.13701215,-0.7845963,0.6862507,-0.24247575,-0.006165364,-0.68573135,-0.99999887,3.1665666e-05,1.747685e-07,-0.0015140772,4
669808000,-0.09982636,-0.16961335,-0.7848993,0.67716175,-0.24525996,-0.009763441,-0.69368887,-0.99999887,3.1665666e-05,1.747685e-07,-0.0015140772,4
669840000,-0.08757147,-0.18615034,-0.78761446,0.6679885,-0.24817558,-0.013841097,-0.7014334,-0.99999887,3.1665666e-05,1.747685e-07,-0.0015140772,4
669872000,-0.06624945,-0.1905771,-0.78293586,0.6587477,-0.25091568,-0.018183019,-0.7090573,-0.99999887,3.1665666e-05,1.747685e-07,-0.0015140772,4
669904000,-0.03325834,-0.1705137,-0.7780949,0.64957696,-0.2531851,-0.022638595,-0.7165435,-0.99999887,3.1665666e-05,1.747685e-07,-0.0015140772,4
669936000,-0.0128063215,-0.13902652,-0.7820147,0.64044935,-0.25486213,-0.027166205,-0.72396964,-0.99999887,3.1665666e-05,1.747685e-07,-0.0015140772,4
669968000,0.00797659,-0.10675099,-0.76853395,0.6314088,-0.2558938,-0.03156358,-0.731331,-0.99999887,3.1665666e-05,1.747685e-07,-0.0015140772,4
670000000,0.025551561,-0.0710886,-0.7638918,0.62244785,-0.2562623,-0.035782672,-0.73865277,-0.99999887,3.1665666e-05,1.747685e-07,-0.0015140772,4
670032000,0.04153923,-0.022483755,-0.76016176,0.6135352,-0.2560259,-0.039742053,-0.7459531,-0.99999887,3.1665666e-05,1.747685e-07,-0.0015140772,4
