timestamp,ref_timestamp,ref_lat,ref_lon,x,y,z,delta_xy[0],delta_xy[1],delta_z,vx,vy,vz,z_deriv,delta_vxy[0],delta_vxy[1],delta_vz,ax,ay,az,yaw,ref_alt,dist_bottom,dist_bottom_rate,eph,epv,evh,evv,vxy_max,vz_max,hagl_min,hagl_max,xy_valid,z_valid,v_xy_valid,v_z_valid,xy_reset_counter,z_reset_counter,vxy_reset_counter,vz_reset_counter,xy_global,z_global,dist_bottom_valid
657300000,0,47.3977508,8.5456074,0.011119493,-0.06774155,0.72598267,0.0,0.0,0.0,0.0,0.0,0.0,0.0,0.0,0.0,0.0,0.0,0.0,0.0,0.4109585,488.83002,0.0,0.0,0.0,0.0,0.0,0.0,inf,inf,inf,inf,1,1,1,1,0,0,0,0,1,1,0
657400000,0,47.3977508,8.5456074,0.011119493,-0.06774155,0.72598267,0.0,0.0,0.0,0.0,0.0,0.0,0.0,0.0,0.0,0.0,0.0,0.0,0.0,0.41095847,488.83002,0.0,0.0,0.0,0.0,0.0,0.0,inf,inf,inf,inf,1,1,1,1,0,0,0,0,1,1,0
657500000,0,47.3977508,8.5456074,0.011119493,-0.06774155,0.72598267,0.0,0.0,0.0,0.0,0.0,0.0,0.0,0.0,0.0,0.0,0.0,0.0,0.0,0.41095847,488.83002,0.0,0.0,0.0,0.0,0.0,0.0,inf,inf,inf,inf,1,1,1,1,0,0,0,0,1,1,0
657600000,0,47.3977508,8.5456074,0.011119493,-0.06774155,0.72598267,0.0,0.0,0.0,0.0,0.0,0.0,0.0,0.0,0.0,0.0,0.0,0.0,0.0,0.4109587,488.83002,0.0,0.0,0.0,0.0,0.0,0.0,inf,inf,inf,inf,1,1,1,1,0,0,0,0,1,1,0
657700000,0,47.3977508,8.5456074,0.011119493,-0.06774155,0.72198486,0.0,0.0,0.0,0.0,0.0,-0.089999996,0.0,0.0,0.0,0.0,0.0,0.0,0.0,0.4110493,488.83002,0.0,0.0,0.0,0.0,0.0,0.0,inf,inf,inf,inf,1,1,1,1,0,0,0,0,1,1,0
657800000,0,47.3977508,8.5456074,0.011119493,-0.06774155,0.70098877,0.0,0.0,0.0,0.0,0.02,-0.32,0.0,0.0,0.0,0.0,0.0,0.0,0.0,0.41105777,488.83002,0.0,0.0,0.0,0.0,0.0,0.0,inf,inf,inf,inf,1,1,1,1,0,0,0,0,1,1,0
657900000,0,47.3977508,8.5456074,0.011119493,-0.06774155,0.6539917,0.0,0.0,0.0,-0.01,0.04,-0.61,0.0,0.0,0.0,0.0,0.0,0.0,0.0,0.41109073,488.83002,0.0,0.0,0.0,0.0,0.0,0.0,inf,inf,inf,inf,1,1,1,1,0,0,0,0,1,1,0
657996000,0,47.3977508,8.5456074,0.011119493,-0.06021471,0.5780029,0.0,0.0,0.0,-0.01,0.06,-0.95,0.0,0.0,0.0,0.0,0.0,0.0,0.0,0.41116792,488.83002,0.0,0.0,0.0,0.0,0.0,0.0,inf,inf,inf,inf,1,1,1,1,0,0,0,0,1,1,0
658100000,0,47.3977508,8.5456074,0.011119493,-0.052687872,0.46298218,0.0,0.0,0.0,-0.01,0.06,-1.35,0.0,0.0,0.0,0.0,0.0,0.0,0.0,0.41122517,488.83002,0.0,0.0,0.0,0.0,0.0,0.0,inf,inf,inf,inf,1,1,1,1,0,0,0,0,1,1,0
658200000,0,47.3977508,8.5456074,0.011119493,-0.04516103,0.31100464,0.0,0.0,0.0,0.0,0.06,-1.5,0.0,0.0,0.0,0.0,0.0,0.0,0.0,0.41123667,488.83002,0.0,0.0,0.0,0.0,0.0,0.0,inf,inf,inf,inf,1,1,1,1,0,0,0,0,1,1,0
658300000,0,47.3977508,8.5456074,0.011119493,-0.037634194,0.15298462,0.0,0.0,0.0,0.0,0.06,-1.81,0.0,0.0,0.0,0.0,0.0,0.0,0.0,0.41123137,488.83002,0.0,0.0,0.0,0.0,0.0,0.0,inf,inf,inf,inf,1,1,1,1,0,0,0,0,1,1,0
658400000,0,47.3977508,8.5456074,0.011119493,-0.030107355,-0.041015625,0.0,0.0,0.0,0.0,0.06,-1.92,0.0,0.0,0.0,0.0,0.0,0.0,0.0,0.41124147,488.83002,0.0,0.0,0.0,0.0,0.0,0.0,inf,inf,inf,inf,1,1,1,1,0,0,0,0,1,1,0
658500000,0,47.3977508,8.5456074,0.011119493,-0.022580516,-0.22399902,0.0,0.0,0.0,0.0,0.06,-1.77,0.0,0.0,0.0,0.0,0.0,0.0,0.0,0.4112912,488.83002,0.0,0.0,0.0,0.0,0.0,0.0,inf,inf,inf,inf,1,1,1,1,0,0,0,0,1,1,0
658600000,0,47.3977508,8.5456074,0.011119493,-0.022580516,-0.40200806,0.0,0.0,0.0,0.0,0.049999997,-1.78,0.0,0.0,0.0,0.0,0.0,0.0,0.0,0.4113507,488.83002,0.0,0.0,0.0,0.0,0.0,0.0,inf,inf,inf,inf,1,1,1,1,0,0,0,0,1,1,0
658700000,0,47.3977508,8.5456074,0.011119493,-0.015053677,-0.57199097,0.0,0.0,0.0,0.0,0.049999997,-1.75,0.0,0.0,0.0,0.0,0.0,0.0,0.0,0.41141757,488.83002,0.0,0.0,0.0,0.0,0.0,0.0,inf,inf,inf,inf,1,1,1,1,0,0,0,0,1,1,0
658800000,0,47.3977508,8.5456074,0.011119493,-0.0075268387,-0.7470093,0.0,0.0,0.0,-0.01,0.04,-1.73,0.0,0.0,0.0,0.0,0.0,0.0,0.0,0.4114172,488.83002,0.0,0.0,0.0,0.0,0.0,0.0,inf,inf,inf,inf,1,1,1,1,0,0,0,0,1,1,0
658900000,0,47.3977508,8.5456074,0.011119493,-0.0075268387,-0.9259949,0.0,0.0,0.0,-0.01,0.04,-1.7099999,0.0,0.0,0.0,0.0,0.0,0.0,0.0,0.4112475,488.83002,0.0,0.0,0.0,0.0,0.0,0.0,inf,inf,inf,inf,1,1,1,1,0,0,0,0,1,1,0
659000000,0,47.3977508,8.5456074,0.0,0.0,-1.0970154,0.0,0.0,0.0,-0.01,0.03,-1.6999999,0.0,0.0,0.0,0.0,0.0,0.0,0.0,0.4109987,488.83002,0.0,0.0,0.0,0.0,0.0,0.0,inf,inf,inf,inf,1,1,1,1,0,0,0,0,1,1,0
659100000,0,47.3977508,8.5456074,0.0,0.0,-1.2669983,0.0,0.0,0.0,-0.01,0.03,-1.6899999,0.0,0.0,0.0,0.0,0.0,0.0,0.0,0.41078895,488.83002,0.0,0.0,0.0,0.0,0.0,0.0,inf,inf,inf,inf,1,1,1,1,0,0,0,0,1,1,0
659200000,0,47.3977508,8.5456074,0.0,0.0075268387,-1.4349976,0.0,0.0,0.0,-0.01,0.02,-1.67,0.0,0.0,0.0,0.0,0.0,0.0,0.0,0.4103584,488.83002,0.0,0.0,0.0,0.0,0.0,0.0,inf,inf,inf,inf,1,1,1,1,0,0,0,0,1,1,0
659300000,0,47.3977508,8.5456074,0.0,0.0075268387,-1.6020203,0.0,0.0,0.0,-0.01,0.02,-1.66,0.0,0.0,0.0,0.0,0.0,0.0,0.0,0.4098846,488.83002,0.0,0.0,0.0,0.0,0.0,0.0,inf,inf,inf,inf,1,1,1,1,0,0,0,0,1,1,0
659400000,0,47.3977508,8.5456074,0.0,0.0075268387,-1.7669983,0.0,0.0,0.0,-0.01,0.01,-1.64,0.0,0.0,0.0,0.0,0.0,0.0,0.0,0.40941793,488.83002,0.0,0.0,0.0,0.0,0.0,0.0,inf,inf,inf,inf,1,1,1,1,0,0,0,0,1,1,0
659500000,0,47.3977508,8.5456074,0.0,0.0075268387,-1.9309998,0.0,0.0,0.0,-0.01,0.01,-1.63,0.0,0.0,0.0,0.0,0.0,0.0,0.0,0.4091913,488.83002,0.0,0.0,0.0,0.0,0.0,0.0,inf,inf,inf,inf,1,1,1,1,0,0,0,0,1,1,0
659600000,0,47.3977508,8.5456074,0.0,0.015053677,-2.0939941,0.0,0.0,0.0,-0.02,0.01,-1.62,0.0,0.0,0.0,0.0,0.0,0.0,0.0,0.4092397,488.83002,0.0,0.0,0.0,0.0,0.0,0.0,inf,inf,inf,inf,1,1,1,1,0,0,0,0,1,1,0
659700000,0,47.3977508,8.5456074,-0.011119492,0.015053677,-2.256012,0.0,0.0,0.0,-0.02,0.0,-1.61,0.0,0.0,0.0,0.0,0.0,0.0,0.0,0.4093419,488.83002,0.0,0.0,0.0,0.0,0.0,0.0,inf,inf,inf,inf,1,1,1,1,0,0,0,0,1,1,0
659800000,0,47.3977508,8.5456074,-0.011119492,0.015053677,-2.4169922,0.0,0.0,0.0,-0.02,0.0,-1.5999999,0.0,0.0,0.0,0.0,0.0,0.0,0.0,0.40958032,488.83002,0.0,0.0,0.0,0.0,0.0,0.0,inf,inf,inf,inf,1,1,1,1,0,0,0,0,1,1,0
659900000,0,47.3977508,8.5456074,-0.011119492,0.015053677,-2.5769958,0.0,0.0,0.0,-0.02,0.0,-1.5899999,0.0,0.0,0.0,0.0,0.0,0.0,0.0,0.40985352,488.83002,0.0,0.0,0.0,0.0,0.0,0.0,inf,inf,inf,inf,1,1,1,1,0,0,0,0,1,1,0
660000000,0,47.3977508,8.5456074,-0.011119492,0.015053677,-2.7359924,0.0,0.0,0.0,-0.02,0.0,-1.5899999,0.0,0.0,0.0,0.0,0.0,0.0,0.0,0.41011408,488.83002,0.0,0.0,0.0,0.0,0.0,0.0,inf,inf,inf,inf,1,1,1,1,0,0,0,0,1,1,0
660100000,0,47.3977508,8.5456074,-0.022238987,0.015053677,-2.8950195,0.0,0.0,0.0,-0.02,0.0,-1.5799999,0.0,0.0,0.0,0.0,0.0,0.0,0.0,0.4102717,488.83002,0.0,0.0,0.0,0.0,0.0,0.0,inf,inf,inf,inf,1,1,1,1,0,0,0,0,1,1,0
660196000,0,47.3977508,8.5456074,-0.022238987,0.015053677,-3.046997,0.0,0.0,0.0,-0.02,0.0,-1.5799999,0.0,0.0,0.0,0.0,0.0,0.0,0.0,0.41033214,488.83002,0.0,0.0,0.0,0.0,0.0,0.0,inf,inf,inf,inf,1,1,1,1,0,0,0,0,1,1,0
660300000,0,47.3977508,8.5456074,-0.022238987,0.015053677,-3.20401,0.0,0.0,0.0,-0.03,0.0,-1.56,0.0,0.0,0.0,0.0,0.0,0.0,0.0,0.41025874,488.83002,0.0,0.0,0.0,0.0,0.0,0.0,inf,inf,inf,inf,1,1,1,1,0,0,0,0,1,1,0
660400000,0,47.3977508,8.5456074,-0.022238987,0.015053677,-3.3670044,0.0,0.0,0.0,-0.03,0.0,-1.56,0.0,0.0,0.0,0.0,0.0,0.0,0.0,0.41010725,488.83002,0.0,0.0,0.0,0.0,0.0,0.0,inf,inf,inf,inf,1,1,1,1,0,0,0,0,1,1,0
660500000,0,47.3977508,8.5456074,-0.033358477,0.015053677,-3.5230103,0.0,0.0,0.0,-0.03,0.0,-1.56,0.0,0.0,0.0,0.0,0.0,0.0,0.0,0.4099229,488.83002,0.0,0.0,0.0,0.0,0.0,0.0,inf,inf,inf,inf,1,1,1,1,0,0,0,0,1,1,0
660600000,0,47.3977508,8.5456074,-0.033358477,0.015053677,-3.679016,0.0,0.0,0.0,-0.03,0.0,-1.55,0.0,0.0,0.0,0.0,0.0,0.0,0.0,0.4098281,488.83002,0.0,0.0,0.0,0.0,0.0,0.0,inf,inf,inf,inf,1,1,1,1,0,0,0,0,1,1,0
660700000,0,47.3977508,8.5456074,-0.033358477,0.0075268387,-3.8349915,0.0,0.0,0.0,-0.03,-0.01,-1.55,0.0,0.0,0.0,0.0,0.0,0.0,0.0,0.4096789,488.83002,0.0,0.0,0.0,0.0,0.0,0.0,inf,inf,inf,inf,1,1,1,1,0,0,0,0,1,1,0
660800000,0,47.3977508,8.5456074,-0.04447797,0.0075268387,-3.9900208,0.0,0.0,0.0,-0.03,-0.01,-1.55,0.0,0.0,0.0,0.0,0.0,0.0,0.0,0.40953076,488.83002,0.0,0.0,0.0,0.0,0.0,0.0,inf,inf,inf,inf,1,1,1,1,0,0,0,0,1,1,0
660900000,0,47.3977508,8.5456074,-0.04447797,0.0075268387,-4.1450195,0.0,0.0,0.0,-0.03,-0.02,-1.55,0.0,0.0,0.0,0.0,0.0,0.0,0.0,0.40935832,488.83002,0.0,0.0,0.0,0.0,0.0,0.0,inf,inf,inf,inf,1,1,1,1,0,0,0,0,1,1,0
661000000,0,47.3977508,8.5456074,-0.04447797,0.0075268387,-4.3000183,0.0,0.0,0.0,-0.03,-0.02,-1.54,0.0,0.0,0.0,0.0,0.0,0.0,0.0,0.40911147,488.83002,0.0,0.0,0.0,0.0,0.0,0.0,inf,inf,inf,inf,1,1,1,1,0,0,0,0,1,1,0
661100000,0,47.3977508,8.5456074,-0.05559746,0.0,-4.45401,0.0,0.0,0.0,-0.03,-0.02,-1.53,0.0,0.0,0.0,0.0,0.0,0.0,0.0,0.40877342,488.83002,0.0,0.0,0.0,0.0,0.0,0.0,inf,inf,inf,inf,1,1,1,1,0,0,0,0,1,1,0
661200000,0,47.3977508,8.5456074,-0.05559746,0.0,-4.605011,0.0,0.0,0.0,-0.03,-0.03,-1.48,0.0,0.0,0.0,0.0,0.0,0.0,0.0,0.40837976,488.83002,0.0,0.0,0.0,0.0,0.0,0.0,inf,inf,inf,inf,1,1,1,1,0,0,0,0,1,1,0
661300000,0,47.3977508,8.5456074,-0.05559746,-0.0075268387,-4.75,0.0,0.0,0.0,-0.03,-0.03,-1.43,0.0,0.0,0.0,0.0,0.0,0.0,0.0,0.4080066,488.83002,0.0,0.0,0.0,0.0,0.0,0.0,inf,inf,inf,inf,1,1,1,1,0,0,0,0,1,1,0
661400000,0,47.3977508,8.5456074,-0.066716954,-0.0075268387,-4.890991,0.0,0.0,0.0,-0.03,-0.03,-1.39,0.0,0.0,0.0,0.0,0.0,0.0,0.0,0.407738,488.83002,0.0,0.0,0.0,0.0,0.0,0.0,inf,inf,inf,inf,1,1,1,1,0,0,0,0,1,1,0
661500000,0,47.3977508,8.5456074,-0.066716954,-0.015053677,-5.028015,0.0,0.0,0.0,-0.03,-0.04,-1.3399999,0.0,0.0,0.0,0.0,0.0,0.0,0.0,0.40755317,488.83002,0.0,0.0,0.0,0.0,0.0,0.0,inf,inf,inf,inf,1,1,1,1,0,0,0,0,1,1,0
661600000,0,47.3977508,8.5456074,-0.066716954,-0.015053677,-5.1600037,0.0,0.0,0.0,-0.03,-0.04,-1.3,0.0,0.0,0.0,0.0,0.0,0.0,0.0,0.40734646,488.83002,0.0,0.0,0.0,0.0,0.0,0.0,inf,inf,inf,inf,1,1,1,1,0,0,0,0,1,1,0
661696000,0,47.3977508,8.5456074,-0.07783645,-0.022580516,-5.28302,0.0,0.0,0.0,-0.03,-0.04,-1.25,0.0,0.0,0.0,0.0,0.0,0.0,0.0,0.40721712,488.83002,0.0,0.0,0.0,0.0,0.0,0.0,inf,inf,inf,inf,1,1,1,1,0,0,0,0,1,1,0
661800000,0,47.3977508,8.5456074,-0.07783645,-0.022580516,-5.412018,0.0,0.0,0.0,-0.03,-0.04,-1.22,0.0,0.0,0.0,0.0,0.0,0.0,0.0,0.4070817,488.83002,0.0,0.0,0.0,0.0,0.0,0.0,inf,inf,inf,inf,1,1,1,1,0,0,0,0,1,1,0
661900000,0,47.3977508,8.5456074,-0.07783645,-0.030107355,-5.53302,0.0,0.0,0.0,-0.03,-0.049999997,-1.18,0.0,0.0,0.0,0.0,0.0,0.0,0.0,0.40701663,488.83002,0.0,0.0,0.0,0.0,0.0,0.0,inf,inf,inf,inf,1,1,1,1,0,0,0,0,1,1,0
662000000,0,47.3977508,8.5456074,-0.08895594,-0.037634194,-5.649994,0.0,0.0,0.0,-0.03,-0.049999997,-1.15,0.0,0.0,0.0,0.0,0.0,0.0,0.0,0.40693825,488.83002,0.0,0.0,0.0,0.0,0.0,0.0,inf,inf,inf,inf,1,1,1,1,0,0,0,0,1,1,0
662100000,0,47.3977508,8.5456074,-0.08895594,-0.037634194,-5.7590027,0.0,0.0,0.0,-0.03,-0.049999997,-1.12,0.0,0.0,0.0,0.0,0.0,0.0,0.0,0.4069437,488.83002,0.0,0.0,0.0,0.0,0.0,0.0,inf,inf,inf,inf,1,1,1,1,0,0,0,0,1,1,0
662196000,0,47.3977508,8.5456074,-0.08895594,-0.04516103,-5.869995,0.0,0.0,0.0,-0.03,-0.049999997,-1.0799999,0.0,0.0,0.0,0.0,0.0,0.0,0.0,0.40694925,488.83002,0.0,0.0,0.0,0.0,0.0,0.0,inf,inf,inf,inf,1,1,1,1,0,0,0,0,1,1,0
662300000,0,47.3977508,8.5456074,-0.10007543,-0.052687872,-5.981018,0.0,0.0,0.0,-0.03,-0.049999997,-1.04,0.0,0.0,0.0,0.0,0.0,0.0,0.0,0.4069798,488.83002,0.0,0.0,0.0,0.0,0.0,0.0,inf,inf,inf,inf,1,1,1,1,0,0,0,0,1,1,0
662400000,0,47.3977508,8.5456074,-0.10007543,-0.06021471,-6.083008,0.0,0.0,0.0,-0.03,-0.049999997,-1.0,0.0,0.0,0.0,0.0,0.0,0.0,0.0,0.40700737,488.83002,0.0,0.0,0.0,0.0,0.0,0.0,inf,inf,inf,inf,1,1,1,1,0,0,0,0,1,1,0
662500000,0,47.3977508,8.5456074,-0.10007543,-0.06021471,-6.182007,0.0,0.0,0.0,-0.03,-0.049999997,-0.96,0.0,0.0,0.0,0.0,0.0,0.0,0.0,0.4070955,488.83002,0.0,0.0,0.0,0.0,0.0,0.0,inf,inf,inf,inf,1,1,1,1,0,0,0,0,1,1,0
662600000,0,47.3977508,8.5456074,-0.11119492,-0.06774155,-6.277008,0.0,0.0,0.0,-0.02,-0.049999997,-0.93,0.0,0.0,0.0,0.0,0.0,0.0,0.0,0.40722546,488.83002,0.0,0.0,0.0,0.0,0.0,0.0,inf,inf,inf,inf,1,1,1,1,0,0,0,0,1,1,0
662700000,0,47.3977508,8.5456074,-0.11119492,-0.07526839,-6.3690186,0.0,0.0,0.0,-0.02,-0.06,-0.9,0.0,0.0,0.0,0.0,0.0,0.0,0.0,0.40725553,488.83002,0.0,0.0,0.0,0.0,0.0,0.0,inf,inf,inf,inf,1,1,1,1,0,0,0,0,1,1,0
662800000,0,47.3977508,8.5456074,-0.11119492,-0.082795225,-6.45401,0.0,0.0,0.0,-0.02,-0.06,-0.87,0.0,0.0,0.0,0.0,0.0,0.0,0.0,0.4072397,488.83002,0.0,0.0,0.0,0.0,0.0,0.0,inf,inf,inf,inf,1,1,1,1,0,0,0,0,1,1,0
662900000,0,47.3977508,8.5456074,-0.11119492,-0.09032206,-6.5440063,0.0,0.0,0.0,-0.02,-0.06,-0.84,0.0,0.0,0.0,0.0,0.0,0.0,0.0,0.4073313,488.83002,0.0,0.0,0.0,0.0,0.0,0.0,inf,inf,inf,inf,1,1,1,1,0,0,0,0,1,1,0
663000000,0,47.3977508,8.5456074,-0.11119492,-0.09032206,-6.623993,0.0,0.0,0.0,-0.01,-0.06,-0.81,0.0,0.0,0.0,0.0,0.0,0.0,0.0,0.4073401,488.83002,0.0,0.0,0.0,0.0,0.0,0.0,inf,inf,inf,inf,1,1,1,1,0,0,0,0,1,1,0
663100000,0,47.3977508,8.5456074,-0.122314416,-0.09784891,-6.7070007,0.0,0.0,0.0,-0.01,-0.06,-0.78999996,0.0,0.0,0.0,0.0,0.0,0.0,0.0,0.40731218,488.83002,0.0,0.0,0.0,0.0,0.0,0.0,inf,inf,inf,inf,1,1,1,1,0,0,0,0,1,1,0
663200000,0,47.3977508,8.5456074,-0.122314416,-0.105375744,-6.7850037,0.0,0.0,0.0,-0.01,-0.06,-0.76,0.0,0.0,0.0,0.0,0.0,0.0,0.0,0.40727478,488.83002,0.0,0.0,0.0,0.0,0.0,0.0,inf,inf,inf,inf,1,1,1,1,0,0,0,0,1,1,0
663300000,0,47.3977508,8.5456074,-0.122314416,-0.11290258,-6.8609924,0.0,0.0,0.0,0.0,-0.049999997,-0.74,0.0,0.0,0.0,0.0,0.0,0.0,0.0,0.40724686,488.83002,0.0,0.0,0.0,0.0,0.0,0.0,inf,inf,inf,inf,1,1,1,1,0,0,0,0,1,1,0
663400000,0,47.3977508,8.5456074,-0.122314416,-0.12042942,-6.932007,0.0,0.0,0.0,0.0,-0.049999997,-0.71999997,0.0,0.0,0.0,0.0,0.0,0.0,0.0,0.40719792,488.83002,0.0,0.0,0.0,0.0,0.0,0.0,inf,inf,inf,inf,1,1,1,1,0,0,0,0,1,1,0
663500000,0,47.3977508,8.5456074,-0.122314416,-0.12042942,-7.006012,0.0,0.0,0.0,0.0,-0.049999997,-0.7,0.0,0.0,0.0,0.0,0.0,0.0,0.0,0.4071463,488.83002,0.0,0.0,0.0,0.0,0.0,0.0,inf,inf,inf,inf,1,1,1,1,0,0,0,0,1,1,0
663600000,0,47.3977508,8.5456074,-0.122314416,-0.12795626,-7.075012,0.0,0.0,0.0,0.0,-0.049999997,-0.66999996,0.0,0.0,0.0,0.0,0.0,0.0,0.0,0.40707338,488.83002,0.0,0.0,0.0,0.0,0.0,0.0,inf,inf,inf,inf,1,1,1,1,0,0,0,0,1,1,0
663700000,0,47.3977508,8.5456074,-0.122314416,-0.1354831,-7.1419983,0.0,0.0,0.0,0.0,-0.049999997,-0.65,0.0,0.0,0.0,0.0,0.0,0.0,0.0,0.40696916,488.83002,0.0,0.0,0.0,0.0,0.0,0.0,inf,inf,inf,inf,1,1,1,1,0,0,0,0,1,1,0
663800000,0,47.3977508,8.5456074,-0.122314416,-0.14300993,-7.2059937,0.0,0.0,0.0,0.0,-0.04,-0.63,0.0,0.0,0.0,0.0,0.0,0.0,0.0,0.4069008,488.83002,0.0,0.0,0.0,0.0,0.0,0.0,inf,inf,inf,inf,1,1,1,1,0,0,0,0,1,1,0
663900000,0,47.3977508,8.5456074,-0.122314416,-0.14300993,-7.2690125,0.0,0.0,0.0,0.0,-0.04,-0.61,0.0,0.0,0.0,0.0,0.0,0.0,0.0,0.4067919,488.83002,0.0,0.0,0.0,0.0,0.0,0.0,inf,inf,inf,inf,1,1,1,1,0,0,0,0,1,1,0
664000000,0,47.3977508,8.5456074,-0.122314416,-0.15053678,-7.330017,0.0,0.0,0.0,0.0,-0.04,-0.59999996,0.0,0.0,0.0,0.0,0.0,0.0,0.0,0.40673226,488.83002,0.0,0.0,0.0,0.0,0.0,0.0,inf,inf,inf,inf,1,1,1,1,0,0,0,0,1,1,0
664100000,0,47.3977508,8.5456074,-0.122314416,-0.15053678,-7.3890076,0.0,0.0,0.0,0.0,-0.04,-0.58,0.0,0.0,0.0,0.0,0.0,0.0,0.0,0.4067005,488.83002,0.0,0.0,0.0,0.0,0.0,0.0,inf,inf,inf,inf,1,1,1,1,0,0,0,0,1,1,0
664200000,0,47.3977508,8.5456074,-0.122314416,-0.15806362,-7.4470215,0.0,0.0,0.0,0.01,-0.04,-0.56,0.0,0.0,0.0,0.0,0.0,0.0,0.0,0.40670803,488.83002,0.0,0.0,0.0,0.0,0.0,0.0,inf,inf,inf,inf,1,1,1,1,0,0,0,0,1,1,0
664300000,0,47.3977508,8.5456074,-0.11119492,-0.15806362,-7.5030212,0.0,0.0,0.0,0.01,-0.03,-0.55,0.0,0.0,0.0,0.0,0.0,0.0,0.0,0.4068706,488.83002,0.0,0.0,0.0,0.0,0.0,0.0,inf,inf,inf,inf,1,1,1,1,0,0,0,0,1,1,0
664400000,0,47.3977508,8.5456074,-0.11119492,-0.16559045,-7.557007,0.0,0.0,0.0,0.01,-0.03,-0.53,0.0,0.0,0.0,0.0,0.0,0.0,0.0,0.40707216,488.83002,0.0,0.0,0.0,0.0,0.0,0.0,inf,inf,inf,inf,1,1,1,1,0,0,0,0,1,1,0
664500000,0,47.3977508,8.5456074,-0.11119492,-0.16559045,-7.610016,0.0,0.0,0.0,0.01,-0.03,-0.51,0.0,0.0,0.0,0.0,0.0,0.0,0.0,0.40712443,488.83002,0.0,0.0,0.0,0.0,0.0,0.0,inf,inf,inf,inf,1,1,1,1,0,0,0,0,1,1,0
664600000,0,47.3977508,8.5456074,-0.11119492,-0.1731173,-7.6610107,0.0,0.0,0.0,0.02,-0.03,-0.5,0.0,0.0,0.0,0.0,0.0,0.0,0.0,0.4071477,488.83002,0.0,0.0,0.0,0.0,0.0,0.0,inf,inf,inf,inf,1,1,1,1,0,0,0,0,1,1,0
664696000,0,47.3977508,8.5456074,-0.11119492,-0.1731173,-7.708008,0.0,0.0,0.0,0.02,-0.02,-0.48,0.0,0.0,0.0,0.0,0.0,0.0,0.0,0.40710592,488.83002,0.0,0.0,0.0,0.0,0.0,0.0,inf,inf,inf,inf,1,1,1,1,0,0,0,0,1,1,0
664800000,0,47.3977508,8.5456074,-0.11119492,-0.18064412,-7.7579956,0.0,0.0,0.0,0.02,-0.02,-0.47,0.0,0.0,0.0,0.0,0.0,0.0,0.0,0.40707254,488.83002,0.0,0.0,0.0,0.0,0.0,0.0,inf,inf,inf,inf,1,1,1,1,0,0,0,0,1,1,0
664900000,0,47.3977508,8.5456074,-0.10007543,-0.18064412,-7.8049927,0.0,0.0,0.0,0.02,-0.02,-0.45,0.0,0.0,0.0,0.0,0.0,0.0,0.0,0.40711546,488.83002,0.0,0.0,0.0,0.0,0.0,0.0,inf,inf,inf,inf,1,1,1,1,0,0,0,0,1,1,0
665000000,0,47.3977508,8.5456074,-0.10007543,-0.18064412,-7.847992,0.0,0.0,0.0,0.03,-0.01,-0.44,0.0,0.0,0.0,0.0,0.0,0.0,0.0,0.40716332,488.83002,0.0,0.0,0.0,0.0,0.0,0.0,inf,inf,inf,inf,1,1,1,1,0,0,0,0,1,1,0
665100000,0,47.3977508,8.5456074,-0.10007543,-0.18064412,-7.8930054,0.0,0.0,0.0,0.03,-0.01,-0.42,0.0,0.0,0.0,0.0,0.0,0.0,0.0,0.4071967,488.83002,0.0,0.0,0.0,0.0,0.0,0.0,inf,inf,inf,inf,1,1,1,1,0,0,0,0,1,1,0
665200000,0,47.3977508,8.5456074,-0.08895594,-0.18817097,-7.933014,0.0,0.0,0.0,0.03,-0.01,-0.41,0.0,0.0,0.0,0.0,0.0,0.0,0.0,0.40724966,488.83002,0.0,0.0,0.0,0.0,0.0,0.0,inf,inf,inf,inf,1,1,1,1,0,0,0,0,1,1,0
665300000,0,47.3977508,8.5456074,-0.08895594,-0.18817097,-7.976013,0.0,0.0,0.0,0.03,0.0,-0.39999998,0.0,0.0,0.0,0.0,0.0,0.0,0.0,0.40735927,488.83002,0.0,0.0,0.0,0.0,0.0,0.0,inf,inf,inf,inf,1,1,1,1,0,0,0,0,1,1,0
665400000,0,47.3977508,8.5456074,-0.08895594,-0.18817097,-8.015015,0.0,0.0,0.0,0.04,0.0,-0.39,0.0,0.0,0.0,0.0,0.0,0.0,0.0,0.4074189,488.83002,0.0,0.0,0.0,0.0,0.0,0.0,inf,inf,inf,inf,1,1,1,1,0,0,0,0,1,1,0
665500000,0,47.3977508,8.5456074,-0.07783645,-0.18817097,-8.054016,0.0,0.0,0.0,0.04,0.0,-0.37,0.0,0.0,0.0,0.0,0.0,0.0,0.0,0.4074284,488.83002,0.0,0.0,0.0,0.0,0.0,0.0,inf,inf,inf,inf,1,1,1,1,0,0,0,0,1,1,0
665600000,0,47.3977508,8.5456074,-0.07783645,-0.18817097,-8.091003,0.0,0.0,0.0,0.04,0.0,-0.35999998,0.0,0.0,0.0,0.0,0.0,0.0,0.0,0.40742493,488.83002,0.0,0.0,0.0,0.0,0.0,0.0,inf,inf,inf,inf,1,1,1,1,0,0,0,0,1,1,0
665696000,0,47.3977508,8.5456074,-0.07783645,-0.18817097,-8.125,0.0,0.0,0.0,0.04,0.0,-0.35,0.0,0.0,0.0,0.0,0.0,0.0,0.0,0.40743378,488.83002,0.0,0.0,0.0,0.0,0.0,0.0,inf,inf,inf,inf,1,1,1,1,0,0,0,0,1,1,0
665800000,0,47.3977508,8.5456074,-0.066716954,-0.18817097,-8.161011,0.0,0.0,0.0,0.04,0.0,-0.34,0.0,0.0,0.0,0.0,0.0,0.0,0.0,0.4074364,488.83002,0.0,0.0,0.0,0.0,0.0,0.0,inf,inf,inf,inf,1,1,1,1,0,0,0,0,1,1,0
665900000,0,47.3977508,8.5456074,-0.066716954,-0.18817097,-8.194,0.0,0.0,0.0,0.04,0.0,-0.32,0.0,0.0,0.0,0.0,0.0,0.0,0.0,0.40741736,488.83002,0.0,0.0,0.0,0.0,0.0,0.0,inf,inf,inf,inf,1,1,1,1,0,0,0,0,1,1,0
666000000,0,47.3977508,8.5456074,-0.05559746,-0.18817097,-8.226013,0.0,0.0,0.0,0.04,0.0,-0.31,0.0,0.0,0.0,0.0,0.0,0.0,0.0,0.4073369,488.83002,0.0,0.0,0.0,0.0,0.0,0.0,inf,inf,inf,inf,1,1,1,1,0,0,0,0,1,1,0
666100000,0,47.3977508,8.5456074,-0.05559746,-0.18817097,-8.257996,0.0,0.0,0.0,0.04,0.0,-0.29999998,0.0,0.0,0.0,0.0,0.0,0.0,0.0,0.40730953,488.83002,0.0,0.0,0.0,0.0,0.0,0.0,inf,inf,inf,inf,1,1,1,1,0,0,0,0,1,1,0
666200000,0,47.3977508,8.5456074,-0.05559746,-0.18817097,-8.287994,0.0,0.0,0.0,0.04,0.01,-0.29,0.0,0.0,0.0,0.0,0.0,0.0,0.0,0.4073113,488.83002,0.0,0.0,0.0,0.0,0.0,0.0,inf,inf,inf,inf,1,1,1,1,0,0,0,0,1,1,0
666300000,0,47.3977508,8.5456074,-0.044477966,-0.18064412,-8.317993,0.0,0.0,0.0,0.04,0.01,-0.29,0.0,0.0,0.0,0.0,0.0,0.0,0.0,0.4072364,488.83002,0.0,0.0,0.0,0.0,0.0,0.0,inf,inf,inf,inf,1,1,1,1,0,0,0,0,1,1,0
666400000,0,47.3977508,8.5456074,-0.044477966,-0.18064412,-8.346008,0.0,0.0,0.0,0.04,0.01,-0.26999998,0.0,0.0,0.0,0.0,0.0,0.0,0.0,0.4071456,488.83002,0.0,0.0,0.0,0.0,0.0,0.0,inf,inf,inf,inf,1,1,1,1,0,0,0,0,1,1,0
666500000,0,47.3977508,8.5456074,-0.044477966,-0.18064412,-8.373016,0.0,0.0,0.0,0.04,0.01,-0.26,0.0,0.0,0.0,0.0,0.0,0.0,0.0,0.40712675,488.83002,0.0,0.0,0.0,0.0,0.0,0.0,inf,inf,inf,inf,1,1,1,1,0,0,0,0,1,1,0
666600000,0,47.3977508,8.5456074,-0.033358473,-0.18064412,-8.399017,0.0,0.0,0.0,0.04,0.01,-0.26,0.0,0.0,0.0,0.0,0.0,0.0,0.0,0.4070248,488.83002,0.0,0.0,0.0,0.0,0.0,0.0,inf,inf,inf,inf,1,1,1,1,0,0,0,0,1,1,0
666700000,0,47.3977508,8.5456074,-0.033358473,-0.18064412,-8.425995,0.0,0.0,0.0,0.04,0.01,-0.25,0.0,0.0,0.0,0.0,0.0,0.0,0.0,0.40697464,488.83002,0.0,0.0,0.0,0.0,0.0,0.0,inf,inf,inf,inf,1,1,1,1,0,0,0,0,1,1,0
666800000,0,47.3977508,8.5456074,-0.022238983,-0.1731173,-8.450012,0.0,0.0,0.0,0.03,0.02,-0.24,0.0,0.0,0.0,0.0,0.0,0.0,0.0,0.40690836,488.83002,0.0,0.0,0.0,0.0,0.0,0.0,inf,inf,inf,inf,1,1,1,1,0,0,0,0,1,1,0
666900000,0,47.3977508,8.5456074,-0.022238983,-0.1731173,-8.475006,0.0,0.0,0.0,0.03,0.02,-0.22999999,0.0,0.0,0.0,0.0,0.0,0.0,0.0,0.40686023,488.83002,0.0,0.0,0.0,0.0,0.0,0.0,inf,inf,inf,inf,1,1,1,1,0,0,0,0,1,1,0
667000000,0,47.3977508,8.5456074,-0.022238983,-0.1731173,-8.498016,0.0,0.0,0.0,0.03,0.02,-0.22,0.0,0.0,0.0,0.0,0.0,0.0,0.0,0.4067162,488.83002,0.0,0.0,0.0,0.0,0.0,0.0,inf,inf,inf,inf,1,1,1,1,0,0,0,0,1,1,0
667100000,0,47.3977508,8.5456074,-0.01111949,-0.16559045,-8.520996,0.0,0.0,0.0,0.03,0.02,-0.22,0.0,0.0,0.0,0.0,0.0,0.0,0.0,0.40624526,488.83002,0.0,0.0,0.0,0.0,0.0,0.0,inf,inf,inf,inf,1,1,1,1,0,0,0,0,1,1,0
667200000,0,47.3977508,8.5456074,-0.01111949,-0.16559045,-8.544006,0.0,0.0,0.0,0.03,0.02,-0.25,0.0,0.0,0.0,0.0,0.0,0.0,0.0,0.3999991,488.83002,0.0,0.0,0.0,0.0,0.0,0.0,inf,inf,inf,inf,1,1,1,1,0,0,0,0,1,1,0
667300000,0,47.3977508,8.5456074,-0.01111949,-0.16559045,-8.569,0.0,0.0,0.0,0.01,0.0,-0.24,0.0,0.0,0.0,0.0,0.0,0.0,0.0,0.3821302,488.83002,0.0,0.0,0.0,0.0,0.0,0.0,inf,inf,inf,inf,1,1,1,1,0,0,0,0,1,1,0
667400000,0,47.3977508,8.5456074,-0.01111949,-0.16559045,-8.595001,0.0,0.0,0.0,-0.03,-0.06,-0.25,0.0,0.0,0.0,0.0,0.0,0.0,0.0,0.34887943,488.83002,0.0,0.0,0.0,0.0,0.0,0.0,inf,inf,inf,inf,1,1,1,1,0,0,0,0,1,1,0
667500000,0,47.3977508,8.5456074,-0.022238983,-0.18064412,-8.621002,0.0,0.0,0.0,-0.14,-0.19999999,-0.25,0.0,0.0,0.0,0.0,0.0,0.0,0.0,0.29840672,488.83002,0.0,0.0,0.0,0.0,0.0,0.0,inf,inf,inf,inf,1,1,1,1,0,0,0,0,1,1,0
667600000,0,47.3977508,8.5456074,-0.033358473,-0.21075149,-8.64502,0.0,0.0,0.0,-0.29,-0.39,-0.24,0.0,0.0,0.0,0.0,0.0,0.0,0.0,0.23399551,488.83002,0.0,0.0,0.0,0.0,0.0,0.0,inf,inf,inf,inf,1,1,1,1,0,0,0,0,1,1,0
667700000,0,47.3977508,8.5456074,-0.07783644,-0.26343936,-8.669006,0.0,0.0,0.0,-0.47,-0.62,-0.21,0.0,0.0,0.0,0.0,0.0,0.0,0.0,0.16287914,488.83002,0.0,0.0,0.0,0.0,0.0,0.0,inf,inf,inf,inf,1,1,1,1,0,0,0,0,1,1,0
667800000,0,47.3977508,8.5456074,-0.13343391,-0.33870775,-8.688995,0.0,0.0,0.0,-0.65999997,-0.85999995,-0.19,0.0,0.0,0.0,0.0,0.0,0.0,0.0,0.090249985,488.83002,0.0,0.0,0.0,0.0,0.0,0.0,inf,inf,inf,inf,1,1,1,1,0,0,0,0,1,1,0
667900000,0,47.3977508,8.5456074,-0.21127035,-0.43655667,-8.707001,0.0,0.0,0.0,-0.84,-1.09,-0.17,0.0,0.0,0.0,0.0,0.0,0.0,0.0,0.016239136,488.83002,0.0,0.0,0.0,0.0,0.0,0.0,inf,inf,inf,inf,1,1,1,1,0,0,0,0,1,1,0
667996000,0,47.3977508,8.5456074,-0.30022627,-0.5494593,-8.723999,0.0,0.0,0.0,-0.98999995,-1.3,-0.16,0.0,0.0,0.0,0.0,0.0,0.0,0.0,-0.05691369,488.83002,0.0,0.0,0.0,0.0,0.0,0.0,inf,inf,inf,inf,1,1,1,1,0,0,0,0,1,1,0
668100000,0,47.3977508,8.5456074,-0.41142118,-0.69999605,-8.740997,0.0,0.0,0.0,-1.15,-1.51,-0.16,0.0,0.0,0.0,0.0,0.0,0.0,0.0,-0.13886513,488.83002,0.0,0.0,0.0,0.0,0.0,0.0,inf,inf,inf,inf,1,1,1,1,0,0,0,0,1,1,0
668200000,0,47.3977508,8.5456074,-0.5337356,-0.8580597,-8.757019,0.0,0.0,0.0,-1.29,-1.7099999,-0.14999999,0.0,0.0,0.0,0.0,0.0,0.0,0.0,-0.21973781,488.83002,0.0,0.0,0.0,0.0,0.0,0.0,inf,inf,inf,inf,1,1,1,1,0,0,0,0,1,1,0
668300000,0,47.3977508,8.5456074,-0.67828894,-1.0462307,-8.772003,0.0,0.0,0.0,-1.43,-1.89,-0.14999999,0.0,0.0,0.0,0.0,0.0,0.0,0.0,-0.30164084,488.83002,0.0,0.0,0.0,0.0,0.0,0.0,inf,inf,inf,inf,1,1,1,1,0,0,0,0,1,1,0
668400000,0,47.3977508,8.5456074,-0.8228423,-1.2344017,-8.786011,0.0,0.0,0.0,-1.5699999,-2.07,-0.14,0.0,0.0,0.0,0.0,0.0,0.0,0.0,-0.38290238,488.83002,0.0,0.0,0.0,0.0,0.0,0.0,inf,inf,inf,inf,1,1,1,1,0,0,0,0,1,1,0
668500000,0,47.3977508,8.5456074,-0.9896347,-1.460207,-8.800995,0.0,0.0,0.0,-1.6999999,-2.23,-0.13,0.0,0.0,0.0,0.0,0.0,0.0,0.0,-0.4628547,488.83002,0.0,0.0,0.0,0.0,0.0,0.0,inf,inf,inf,inf,1,1,1,1,0,0,0,0,1,1,0
668600000,0,47.3977508,8.5456074,-1.1675465,-1.693539,-8.813995,0.0,0.0,0.0,-1.8299999,-2.3899999,-0.13,0.0,0.0,0.0,0.0,0.0,0.0,0.0,-0.542246,488.83002,0.0,0.0,0.0,0.0,0.0,0.0,inf,inf,inf,inf,1,1,1,1,0,0,0,0,1,1,0
668700000,0,47.3977508,8.5456074,-1.3454583,-1.9268712,-8.826019,0.0,0.0,0.0,-1.9499999,-2.54,-0.12,0.0,0.0,0.0,0.0,0.0,0.0,0.0,-0.6216301,488.83002,0.0,0.0,0.0,0.0,0.0,0.0,inf,inf,inf,inf,1,1,1,1,0,0,0,0,1,1,0
668800000,0,47.3977508,8.5456074,-1.5567286,-2.2053642,-8.839996,0.0,0.0,0.0,-2.07,-2.69,-0.12,0.0,0.0,0.0,0.0,0.0,0.0,0.0,-0.7015165,488.83002,0.0,0.0,0.0,0.0,0.0,0.0,inf,inf,inf,inf,1,1,1,1,0,0,0,0,1,1,0
668900000,0,47.3977508,8.5456074,-1.7791183,-2.4838576,-8.85202,0.0,0.0,0.0,-2.18,-2.82,-0.11,0.0,0.0,0.0,0.0,0.0,0.0,0.0,-0.78302926,488.83002,0.0,0.0,0.0,0.0,0.0,0.0,inf,inf,inf,inf,1,1,1,1,0,0,0,0,1,1,0
669000000,0,47.3977508,8.5456074,-2.001508,-2.7698777,-8.863007,0.0,0.0,0.0,-2.29,-2.9299998,-0.099999994,0.0,0.0,0.0,0.0,0.0,0.0,0.0,-0.8653677,488.83002,0.0,0.0,0.0,0.0,0.0,0.0,inf,inf,inf,inf,1,1,1,1,0,0,0,0,1,1,0
669100000,0,47.3977508,8.5456074,-2.2350173,-3.0709515,-8.873016,0.0,0.0,0.0,-2.3899999,-3.02,-0.089999996,0.0,0.0,0.0,0.0,0.0,0.0,0.0,-0.9473324,488.83002,0.0,0.0,0.0,0.0,0.0,0.0,inf,inf,inf,inf,1,1,1,1,0,0,0,0,1,1,0
669200000,0,47.3977508,8.5456074,-2.479646,-3.379552,-8.882019,0.0,0.0,0.0,-2.47,-3.09,-0.08,0.0,0.0,0.0,0.0,0.0,0.0,0.0,-1.0287691,488.83002,0.0,0.0,0.0,0.0,0.0,0.0,inf,inf,inf,inf,1,1,1,1,0,0,0,0,1,1,0
669300000,0,47.3977508,8.5456074,-2.735394,-3.6881528,-8.890015,0.0,0.0,0.0,-2.53,-3.1399999,-0.07,0.0,0.0,0.0,0.0,0.0,0.0,0.0,-1.1109703,488.83002,0.0,0.0,0.0,0.0,0.0,0.0,inf,inf,inf,inf,1,1,1,1,0,0,0,0,1,1,0
669400000,0,47.3977508,8.5456074,-2.9911423,-4.00428,-8.897003,0.0,0.0,0.0,-2.55,-3.1499999,-0.06,0.0,0.0,0.0,0.0,0.0,0.0,0.0,-1.1953601,488.83002,0.0,0.0,0.0,0.0,0.0,0.0,inf,inf,inf,inf,1,1,1,1,0,0,0,0,1,1,0
669496000,0,47.3977508,8.5456074,-3.2357707,-4.305354,-8.903015,0.0,0.0,0.0,-2.54,-3.1299999,-0.06,0.0,0.0,0.0,0.0,0.0,0.0,0.0,-1.2778008,488.83002,0.0,0.0,0.0,0.0,0.0,0.0,inf,inf,inf,inf,1,1,1,1,0,0,0,0,1,1,0
669600000,0,47.3977508,8.5456074,-3.491519,-4.636535,-8.911011,0.0,0.0,0.0,-2.51,-3.08,-0.08,0.0,0.0,0.0,0.0,0.0,0.0,0.0,-1.3653166,488.83002,0.0,0.0,0.0,0.0,0.0,0.0,inf,inf,inf,inf,1,1,1,1,0,0,0,0,1,1,0
669700000,0,47.3977508,8.5456074,-3.747267,-4.937609,-8.921997,0.0,0.0,0.0,-2.48,-3.02,-0.11,0.0,0.0,0.0,0.0,0.0,0.0,0.0,-1.4444876,488.83002,0.0,0.0,0.0,0.0,0.0,0.0,inf,inf,inf,inf,1,1,1,1,0,0,0,0,1,1,0
669800000,0,47.3977508,8.5456074,-3.9918954,-5.238683,-8.934021,0.0,0.0,0.0,-2.45,-2.97,-0.12,0.0,0.0,0.0,0.0,0.0,0.0,0.0,-1.51899,488.83002,0.0,0.0,0.0,0.0,0.0,0.0,inf,inf,inf,inf,1,1,1,1,0,0,0,0,1,1,0
669900000,0,47.3977508,8.5456074,-4.236524,-5.5397573,-8.9470215,0.0,0.0,0.0,-2.44,-2.9399998,-0.12,0.0,0.0,0.0,0.0,0.0,0.0,0.0,-1.5928698,488.83002,0.0,0.0,0.0,0.0,0.0,0.0,inf,inf,inf,inf,1,1,1,1,0,0,0,0,1,1,0
670000000,0,47.3977508,8.5456074,-4.4811525,-5.8182507,-8.958008,0.0,0.0,0.0,-2.44,-2.9399998,-0.11,0.0,0.0,0.0,0.0,0.0,0.0,0.0,-1.6697111,488.83002,0.0,0.0,0.0,0.0,0.0,0.0,inf,inf,inf,inf,1,1,1,1,0,0,0,0,1,1,0
670100000,0,47.3977508,8.5456074,-4.725781,-6.1268516,-8.970001,0.0,0.0,0.0,-2.44,-2.95,-0.11,0.0,0.0,0.0,0.0,0.0,0.0,0.0,-1.749742,488.83002,0.0,0.0,0.0,0.0,0.0,0.0,inf,inf,inf,inf,1,1,1,1,0,0,0,0,1,1,0
670200000,0,47.3977508,8.5456074,-4.97041,-6.4279256,-8.981995,0.0,0.0,0.0,-2.4299998,-2.95,-0.11,0.0,0.0,0.0,0.0,0.0,0.0,0.0,-1.8305808,488.83002,0.0,0.0,0.0,0.0,0.0,0.0,inf,inf,inf,inf,1,1,1,1,0,0,0,0,1,1,0
670300000,0,47.3977508,8.5456074,-5.2150383,-6.7214727,-8.994019,0.0,0.0,0.0,-2.4199998,-2.9399998,-0.13,0.0,0.0,0.0,0.0,0.0,0.0,0.0,-1.9104645,488.83002,0.0,0.0,0.0,0.0,0.0,0.0,inf,inf,inf,inf,1,1,1,1,0,0,0,0,1,1,0
670400000,0,47.3977508,8.5456074,-5.4596667,-7.0150204,-9.007996,0.0,0.0,0.0,-2.3999999,-2.9299998,-0.14,0.0,0.0,0.0,0.0,0.0,0.0,0.0,-1.9892701,488.83002,0.0,0.0,0.0,0.0,0.0,0.0,inf,inf,inf,inf,1,1,1,1,0,0,0,0,1,1,0
670500000,0,47.3977508,8.5456074,-5.704295,-7.3085675,-9.022003,0.0,0.0,0.0,-2.3899999,-2.9199998,-0.14,0.0,0.0,0.0,0.0,0.0,0.0,0.0,-2.0647964,488.83002,0.0,0.0,0.0,0.0,0.0,0.0,inf,inf,inf,inf,1,1,1,1,0,0,0,0,1,1,0
670600000,0,47.3977508,8.5456074,-5.926685,-7.587061,-9.037018,0.0,0.0,0.0,-2.3799999,-2.9199998,-0.14999999,0.0,0.0,0.0,0.0,0.0,0.0,0.0,-2.1301014,488.83002,0.0,0.0,0.0,0.0,0.0,0.0,inf,inf,inf,inf,1,1,1,1,0,0,0,0,1,1,0
670700000,0,47.3977508,8.5456074,-6.1824327,-7.8956623,-9.053009,0.0,0.0,0.0,-2.37,-2.9299998,-0.14999999,0.0,0.0,0.0,0.0,0.0,0.0,0.0,-2.1812763,488.83002,0.0,0.0,0.0,0.0,0.0,0.0,inf,inf,inf,inf,1,1,1,1,0,0,0,0,1,1,0
670800000,0,47.3977508,8.5456074,-6.4159417,-8.189209,-9.067993,0.0,0.0,0.0,-2.35,-2.9399998,-0.14999999,0.0,0.0,0.0,0.0,0.0,0.0,0.0,-2.218162,488.83002,0.0,0.0,0.0,0.0,0.0,0.0,inf,inf,inf,inf,1,1,1,1,0,0,0,0,1,1,0
670900000,0,47.3977508,8.5456074,-6.6494503,-8.482757,-9.083008,0.0,0.0,0.0,-2.35,-2.95,-0.14999999,0.0,0.0,0.0,0.0,0.0,0.0,0.0,-2.2427173,488.83002,0.0,0.0,0.0,0.0,0.0,0.0,inf,inf,inf,inf,1,1,1,1,0,0,0,0,1,1,0
671000000,0,47.3977508,8.5456074,-6.8829594,-8.783831,-9.098999,0.0,0.0,0.0,-2.34,-2.95,-0.16,0.0,0.0,0.0,0.0,0.0,0.0,0.0,-2.2578106,488.83002,0.0,0.0,0.0,0.0,0.0,0.0,inf,inf,inf,inf,1,1,1,1,0,0,0,0,1,1,0
671100000,0,47.3977508,8.5456074,-7.127588,-9.077378,-9.115997,0.0,0.0,0.0,-2.33,-2.95,-0.16,0.0,0.0,0.0,0.0,0.0,0.0,0.0,-2.2662745,488.83002,0.0,0.0,0.0,0.0,0.0,0.0,inf,inf,inf,inf,1,1,1,1,0,0,0,0,1,1,0
671200000,0,47.3977508,8.5456074,-7.361097,-9.378453,-9.132996,0.0,0.0,0.0,-2.33,-2.95,-0.17,0.0,0.0,0.0,0.0,0.0,0.0,0.0,-2.2703028,488.83002,0.0,0.0,0.0,0.0,0.0,0.0,inf,inf,inf,inf,1,1,1,1,0,0,0,0,1,1,0
671300000,0,47.3977508,8.5456074,-7.5946054,-9.672,-9.149994,0.0,0.0,0.0,-2.33,-2.96,-0.17,0.0,0.0,0.0,0.0,0.0,0.0,0.0,-2.271317,488.83002,0.0,0.0,0.0,0.0,0.0,0.0,inf,inf,inf,inf,1,1,1,1,0,0,0,0,1,1,0
671400000,0,47.3977508,8.5456074,-7.8281145,-9.965548,-9.166992,0.0,0.0,0.0,-2.32,-2.97,-0.17,0.0,0.0,0.0,0.0,0.0,0.0,0.0,-2.27049,488.83002,0.0,0.0,0.0,0.0,0.0,0.0,inf,inf,inf,inf,1,1,1,1,0,0,0,0,1,1,0
671500000,0,47.3977508,8.5456074,-8.061624,-10.266623,-9.184021,0.0,0.0,0.0,-2.32,-2.98,-0.17,0.0,0.0,0.0,0.0,0.0,0.0,0.0,-2.268602,488.83002,0.0,0.0,0.0,0.0,0.0,0.0,inf,inf,inf,inf,1,1,1,1,0,0,0,0,1,1,0
671600000,0,47.3977508,8.5456074,-8.284013,-10.552643,-9.201019,0.0,0.0,0.0,-2.32,-2.98,-0.16,0.0,0.0,0.0,0.0,0.0,0.0,0.0,-2.2663565,488.83002,0.0,0.0,0.0,0.0,0.0,0.0,inf,inf,inf,inf,1,1,1,1,0,0,0,0,1,1,0
671700000,0,47.3977508,8.5456074,-8.528641,-10.868771,-9.218018,0.0,0.0,0.0,-2.31,-2.99,-0.16,0.0,0.0,0.0,0.0,0.0,0.0,0.0,-2.263985,488.83002,0.0,0.0,0.0,0.0,0.0,0.0,inf,inf,inf,inf,1,1,1,1,0,0,0,0,1,1,0
671800000,0,47.3977508,8.5456074,-8.75103,-11.154792,-9.234009,0.0,0.0,0.0,-2.31,-3.0,-0.16,0.0,0.0,0.0,0.0,0.0,0.0,0.0,-2.2615523,488.83002,0.0,0.0,0.0,0.0,0.0,0.0,inf,inf,inf,inf,1,1,1,1,0,0,0,0,1,1,0
671900000,0,47.3977508,8.5456074,-8.973419,-11.455866,-9.251007,0.0,0.0,0.0,-2.31,-3.01,-0.16,0.0,0.0,0.0,0.0,0.0,0.0,0.0,-2.2593796,488.83002,0.0,0.0,0.0,0.0,0.0,0.0,inf,inf,inf,inf,1,1,1,1,0,0,0,0,1,1,0
672000000,0,47.3977508,8.5456074,-9.206928,-11.764467,-9.266998,0.0,0.0,0.0,-2.31,-3.02,-0.16,0.0,0.0,0.0,0.0,0.0,0.0,0.0,-2.2574286,488.83002,0.0,0.0,0.0,0.0,0.0,0.0,inf,inf,inf,inf,1,1,1,1,0,0,0,0,1,1,0
672100000,0,47.3977508,8.5456074,-9.451556,-12.080596,-9.283997,0.0,0.0,0.0,-2.31,-3.02,-0.16,0.0,0.0,0.0,0.0,0.0,0.0,0.0,-2.25602,488.83002,0.0,0.0,0.0,0.0,0.0,0.0,inf,inf,inf,inf,1,1,1,1,0,0,0,0,1,1,0
672200000,0,47.3977508,8.5456074,-9.685065,-12.38167,-9.300018,0.0,0.0,0.0,-2.31,-3.03,-0.16,0.0,0.0,0.0,0.0,0.0,0.0,0.0,-2.255006,488.83002,0.0,0.0,0.0,0.0,0.0,0.0,inf,inf,inf,inf,1,1,1,1,0,0,0,0,1,1,0
672300000,0,47.3977508,8.5456074,-9.918573,-12.682745,-9.3160095,0.0,0.0,0.0,-2.31,-3.04,-0.14999999,0.0,0.0,0.0,0.0,0.0,0.0,0.0,-2.2540157,488.83002,0.0,0.0,0.0,0.0,0.0,0.0,inf,inf,inf,inf,1,1,1,1,0,0,0,0,1,1,0
672396000,0,47.3977508,8.5456074,-10.129844,-12.968765,-9.330017,0.0,0.0,0.0,-2.32,-3.06,-0.14999999,0.0,0.0,0.0,0.0,0.0,0.0,0.0,-2.253037,488.83002,0.0,0.0,0.0,0.0,0.0,0.0,inf,inf,inf,inf,1,1,1,1,0,0,0,0,1,1,0
672500000,0,47.3977508,8.5456074,-10.3855915,-13.299948,-9.346008,0.0,0.0,0.0,-2.34,-3.08,-0.14,0.0,0.0,0.0,0.0,0.0,0.0,0.0,-2.2522087,488.83002,0.0,0.0,0.0,0.0,0.0,0.0,inf,inf,inf,inf,1,1,1,1,0,0,0,0,1,1,0
672600000,0,47.3977508,8.5456074,-10.60798,-13.601022,-9.360016,0.0,0.0,0.0,-2.35,-3.09,-0.13,0.0,0.0,0.0,0.0,0.0,0.0,0.0,-2.251617,488.83002,0.0,0.0,0.0,0.0,0.0,0.0,inf,inf,inf,inf,1,1,1,1,0,0,0,0,1,1,0
672700000,0,47.3977508,8.5456074,-10.852609,-13.924677,-9.373993,0.0,0.0,0.0,-2.36,-3.11,-0.13,0.0,0.0,0.0,0.0,0.0,0.0,0.0,-2.2510173,488.83002,0.0,0.0,0.0,0.0,0.0,0.0,inf,inf,inf,inf,1,1,1,1,0,0,0,0,1,1,0
672800000,0,47.3977508,8.5456074,-11.097237,-14.233279,-9.386017,0.0,0.0,0.0,-2.37,-3.12,-0.12,0.0,0.0,0.0,0.0,0.0,0.0,0.0,-2.2505133,488.83002,0.0,0.0,0.0,0.0,0.0,0.0,inf,inf,inf,inf,1,1,1,1,0,0,0,0,1,1,0
672896000,0,47.3977508,8.5456074,-11.319626,-14.534353,-9.39801,0.0,0.0,0.0,-2.3799999,-3.1299999,-0.11,0.0,0.0,0.0,0.0,0.0,0.0,0.0,-2.2500992,488.83002,0.0,0.0,0.0,0.0,0.0,0.0,inf,inf,inf,inf,1,1,1,1,0,0,0,0,1,1,0
673000000,0,47.3977508,8.5456074,-11.575373,-14.865536,-9.408997,0.0,0.0,0.0,-2.3899999,-3.1399999,-0.099999994,0.0,0.0,0.0,0.0,0.0,0.0,0.0,-2.2496998,488.83002,0.0,0.0,0.0,0.0,0.0,0.0,inf,inf,inf,inf,1,1,1,1,0,0,0,0,1,1,0
673100000,0,47.3977508,8.5456074,-11.808882,-15.181664,-9.419006,0.0,0.0,0.0,-2.3999999,-3.1499999,-0.089999996,0.0,0.0,0.0,0.0,0.0,0.0,0.0,-2.249229,488.83002,0.0,0.0,0.0,0.0,0.0,0.0,inf,inf,inf,inf,1,1,1,1,0,0,0,0,1,1,0
673200000,0,47.3977508,8.5456074,-12.05351,-15.497793,-9.429016,0.0,0.0,0.0,-2.4099998,-3.1599998,-0.08,0.0,0.0,0.0,0.0,0.0,0.0,0.0,-2.2488263,488.83002,0.0,0.0,0.0,0.0,0.0,0.0,inf,inf,inf,inf,1,1,1,1,0,0,0,0,1,1,0
673300000,0,47.3977508,8.5456074,-12.298138,-15.813921,-9.437012,0.0,0.0,0.0,-2.4199998,-3.1699998,-0.08,0.0,0.0,0.0,0.0,0.0,0.0,0.0,-2.2484448,488.83002,0.0,0.0,0.0,0.0,0.0,0.0,inf,inf,inf,inf,1,1,1,1,0,0,0,0,1,1,0
673400000,0,47.3977508,8.5456074,-12.531646,-16.122522,-9.444,0.0,0.0,0.0,-2.4299998,-3.1799998,-0.07,0.0,0.0,0.0,0.0,0.0,0.0,0.0,-2.248149,488.83002,0.0,0.0,0.0,0.0,0.0,0.0,inf,inf,inf,inf,1,1,1,1,0,0,0,0,1,1,0
673500000,0,47.3977508,8.5456074,-12.787394,-16.453705,-9.451996,0.0,0.0,0.0,-2.44,-3.1899998,-0.07,0.0,0.0,0.0,0.0,0.0,0.0,0.0,-2.2478404,488.83002,0.0,0.0,0.0,0.0,0.0,0.0,inf,inf,inf,inf,1,1,1,1,0,0,0,0,1,1,0
673600000,0,47.3977508,8.5456074,-13.0320215,-16.77736,-9.459991,0.0,0.0,0.0,-2.45,-3.1899998,-0.07,0.0,0.0,0.0,0.0,0.0,0.0,0.0,-2.247649,488.83002,0.0,0.0,0.0,0.0,0.0,0.0,inf,inf,inf,inf,1,1,1,1,0,0,0,0,1,1,0
673700000,0,47.3977508,8.5456074,-13.26553,-17.085962,-9.4670105,0.0,0.0,0.0,-2.46,-3.1999998,-0.07,0.0,0.0,0.0,0.0,0.0,0.0,0.0,-2.2475781,488.83002,0.0,0.0,0.0,0.0,0.0,0.0,inf,inf,inf,inf,1,1,1,1,0,0,0,0,1,1,0
673796000,0,47.3977508,8.5456074,-13.521277,-17.402092,-9.473999,0.0,0.0,0.0,-2.47,-3.21,-0.06,0.0,0.0,0.0,0.0,0.0,0.0,0.0,-2.2475643,488.83002,0.0,0.0,0.0,0.0,0.0,0.0,inf,inf,inf,inf,1,1,1,1,0,0,0,0,1,1,0
673900000,0,47.3977508,8.5456074,-13.777024,-17.7408,-9.480011,0.0,0.0,0.0,-2.48,-3.21,-0.049999997,0.0,0.0,0.0,0.0,0.0,0.0,0.0,-2.247412,488.83002,0.0,0.0,0.0,0.0,0.0,0.0,inf,inf,inf,inf,1,1,1,1,0,0,0,0,1,1,0
674000000,0,47.3977508,8.5456074,-14.021652,-18.064457,-9.485016,0.0,0.0,0.0,-2.48,-3.21,-0.04,0.0,0.0,0.0,0.0,0.0,0.0,0.0,-2.2471433,488.83002,0.0,0.0,0.0,0.0,0.0,0.0,inf,inf,inf,inf,1,1,1,1,0,0,0,0,1,1,0
674100000,0,47.3977508,8.5456074,-14.26628,-18.373058,-9.489014,0.0,0.0,0.0,-2.48,-3.1999998,-0.02,0.0,0.0,0.0,0.0,0.0,0.0,0.0,-2.2468467,488.83002,0.0,0.0,0.0,0.0,0.0,0.0,inf,inf,inf,inf,1,1,1,1,0,0,0,0,1,1,0
674200000,0,47.3977508,8.5456074,-14.510908,-18.689186,-9.490997,0.0,0.0,0.0,-2.46,-3.1599998,-0.02,0.0,0.0,0.0,0.0,0.0,0.0,0.0,-2.2468534,488.83002,0.0,0.0,0.0,0.0,0.0,0.0,inf,inf,inf,inf,1,1,1,1,0,0,0,0,1,1,0
674300000,0,47.3977508,8.5456074,-14.766655,-19.020369,-9.494019,0.0,0.0,0.0,-2.4199998,-3.09,-0.02,0.0,0.0,0.0,0.0,0.0,0.0,0.0,-2.2471464,488.83002,0.0,0.0,0.0,0.0,0.0,0.0,inf,inf,inf,inf,1,1,1,1,0,0,0,0,1,1,0
674400000,0,47.3977508,8.5456074,-15.011283,-19.321444,-9.497009,0.0,0.0,0.0,-2.37,-3.02,-0.03,0.0,0.0,0.0,0.0,0.0,0.0,0.0,-2.247472,488.83002,0.0,0.0,0.0,0.0,0.0,0.0,inf,inf,inf,inf,1,1,1,1,0,0,0,0,1,1,0
674500000,0,47.3977508,8.5456074,-15.244792,-19.62252,-9.5,0.0,0.0,0.0,-2.32,-2.9399998,-0.02,0.0,0.0,0.0,0.0,0.0,0.0,0.0,-2.247755,488.83002,0.0,0.0,0.0,0.0,0.0,0.0,inf,inf,inf,inf,1,1,1,1,0,0,0,0,1,1,0
674600000,0,47.3977508,8.5456074,-15.4783,-19.916067,-9.503021,0.0,0.0,0.0,-2.27,-2.87,-0.02,0.0,0.0,0.0,0.0,0.0,0.0,0.0,-2.2477612,488.83002,0.0,0.0,0.0,0.0,0.0,0.0,inf,inf,inf,inf,1,1,1,1,0,0,0,0,1,1,0
674700000,0,47.3977508,8.5456074,-15.700688,-20.20209,-9.503998,0.0,0.0,0.0,-2.21,-2.81,-0.01,0.0,0.0,0.0,0.0,0.0,0.0,0.0,-2.2477415,488.83002,0.0,0.0,0.0,0.0,0.0,0.0,inf,inf,inf,inf,1,1,1,1,0,0,0,0,1,1,0
674800000,0,47.3977508,8.5456074,-15.923078,-20.480583,-9.505005,0.0,0.0,0.0,-2.1599998,-2.75,-0.01,0.0,0.0,0.0,0.0,0.0,0.0,0.0,-2.2476811,488.83002,0.0,0.0,0.0,0.0,0.0,0.0,inf,inf,inf,inf,1,1,1,1,0,0,0,0,1,1,0
674900000,0,47.3977508,8.5456074,-16.134348,-20.75155,-9.507019,0.0,0.0,0.0,-2.11,-2.69,-0.01,0.0,0.0,0.0,0.0,0.0,0.0,0.0,-2.2473888,488.83002,0.0,0.0,0.0,0.0,0.0,0.0,inf,inf,inf,inf,1,1,1,1,0,0,0,0,1,1,0
675000000,0,47.3977508,8.5456074,-16.345617,-21.022518,-9.509003,0.0,0.0,0.0,-2.07,-2.62,-0.01,0.0,0.0,0.0,0.0,0.0,0.0,0.0,-2.2469897,488.83002,0.0,0.0,0.0,0.0,0.0,0.0,inf,inf,inf,inf,1,1,1,1,0,0,0,0,1,1,0
675100000,0,47.3977508,8.5456074,-16.556887,-21.278433,-9.51001,0.0,0.0,0.0,-2.03,-2.56,-0.01,0.0,0.0,0.0,0.0,0.0,0.0,0.0,-2.2468808,488.83002,0.0,0.0,0.0,0.0,0.0,0.0,inf,inf,inf,inf,1,1,1,1,0,0,0,0,1,1,0
675200000,0,47.3977508,8.5456074,-16.745916,-21.52682,-9.511017,0.0,0.0,0.0,-2.0,-2.51,0.0,0.0,0.0,0.0,0.0,0.0,0.0,0.0,-2.2473814,488.83002,0.0,0.0,0.0,0.0,0.0,0.0,inf,inf,inf,inf,1,1,1,1,0,0,0,0,1,1,0
675300000,0,47.3977508,8.5456074,-16.957186,-21.782734,-9.511017,0.0,0.0,0.0,-1.9599999,-2.45,0.0,0.0,0.0,0.0,0.0,0.0,0.0,0.0,-2.2481184,488.83002,0.0,0.0,0.0,0.0,0.0,0.0,inf,inf,inf,inf,1,1,1,1,0,0,0,0,1,1,0
675400000,0,47.3977508,8.5456074,-17.146215,-22.023594,-9.511017,0.0,0.0,0.0,-1.92,-2.3899999,0.0,0.0,0.0,0.0,0.0,0.0,0.0,0.0,-2.2488003,488.83002,0.0,0.0,0.0,0.0,0.0,0.0,inf,inf,inf,inf,1,1,1,1,0,0,0,0,1,1,0
675500000,0,47.3977508,8.5456074,-17.335247,-22.264454,-9.51001,0.0,0.0,0.0,-1.87,-2.34,0.0,0.0,0.0,0.0,0.0,0.0,0.0,0.0,-2.2491522,488.83002,0.0,0.0,0.0,0.0,0.0,0.0,inf,inf,inf,inf,1,1,1,1,0,0,0,0,1,1,0
675596000,0,47.3977508,8.5456074,-17.513157,-22.490261,-9.511017,0.0,0.0,0.0,-1.8199999,-2.29,0.0,0.0,0.0,0.0,0.0,0.0,0.0,0.0,-2.248794,488.83002,0.0,0.0,0.0,0.0,0.0,0.0,inf,inf,inf,inf,1,1,1,1,0,0,0,0,1,1,0
675700000,0,47.3977508,8.5456074,-17.702188,-22.723595,-9.511017,0.0,0.0,0.0,-1.78,-2.23,0.0,0.0,0.0,0.0,0.0,0.0,0.0,0.0,-2.2480576,488.83002,0.0,0.0,0.0,0.0,0.0,0.0,inf,inf,inf,inf,1,1,1,1,0,0,0,0,1,1,0
675800000,0,47.3977508,8.5456074,-17.8801,-22.934347,-9.511017,0.0,0.0,0.0,-1.74,-2.18,0.0,0.0,0.0,0.0,0.0,0.0,0.0,0.0,-2.247715,488.83002,0.0,0.0,0.0,0.0,0.0,0.0,inf,inf,inf,inf,1,1,1,1,0,0,0,0,1,1,0
675900000,0,47.3977508,8.5456074,-18.05801,-23.160154,-9.51001,0.0,0.0,0.0,-1.7099999,-2.1399999,0.0,0.0,0.0,0.0,0.0,0.0,0.0,0.0,-2.2478533,488.83002,0.0,0.0,0.0,0.0,0.0,0.0,inf,inf,inf,inf,1,1,1,1,0,0,0,0,1,1,0
676000000,0,47.3977508,8.5456074,-18.224802,-23.378433,-9.51001,0.0,0.0,0.0,-1.68,-2.09,0.0,0.0,0.0,0.0,0.0,0.0,0.0,0.0,-2.24824,488.83002,0.0,0.0,0.0,0.0,0.0,0.0,inf,inf,inf,inf,1,1,1,1,0,0,0,0,1,1,0
676100000,0,47.3977508,8.5456074,-18.391594,-23.58166,-9.509003,0.0,0.0,0.0,-1.63,-2.04,0.0,0.0,0.0,0.0,0.0,0.0,0.0,0.0,-2.248432,488.83002,0.0,0.0,0.0,0.0,0.0,0.0,inf,inf,inf,inf,1,1,1,1,0,0,0,0,1,1,0
676200000,0,47.3977508,8.5456074,-18.558386,-23.784885,-9.509003,0.0,0.0,0.0,-1.5899999,-1.99,0.0,0.0,0.0,0.0,0.0,0.0,0.0,0.0,-2.2481742,488.83002,0.0,0.0,0.0,0.0,0.0,0.0,inf,inf,inf,inf,1,1,1,1,0,0,0,0,1,1,0
676300000,0,47.3977508,8.5456074,-18.714058,-23.980585,-9.507996,0.0,0.0,0.0,-1.55,-1.9399999,0.01,0.0,0.0,0.0,0.0,0.0,0.0,0.0,-2.247683,488.83002,0.0,0.0,0.0,0.0,0.0,0.0,inf,inf,inf,inf,1,1,1,1,0,0,0,0,1,1,0
676400000,0,47.3977508,8.5456074,-18.85861,-24.168756,-9.507019,0.0,0.0,0.0,-1.52,-1.9,0.01,0.0,0.0,0.0,0.0,0.0,0.0,0.0,-2.247511,488.83002,0.0,0.0,0.0,0.0,0.0,0.0,inf,inf,inf,inf,1,1,1,1,0,0,0,0,1,1,0
676500000,0,47.3977508,8.5456074,-19.014282,-24.364456,-9.503998,0.0,0.0,0.0,-1.49,-1.86,0.01,0.0,0.0,0.0,0.0,0.0,0.0,0.0,-2.2476563,488.83002,0.0,0.0,0.0,0.0,0.0,0.0,inf,inf,inf,inf,1,1,1,1,0,0,0,0,1,1,0
676600000,0,47.3977508,8.5456074,-19.158834,-24.545101,-9.503021,0.0,0.0,0.0,-1.4599999,-1.8199999,0.01,0.0,0.0,0.0,0.0,0.0,0.0,0.0,-2.2477307,488.83002,0.0,0.0,0.0,0.0,0.0,0.0,inf,inf,inf,inf,1,1,1,1,0,0,0,0,1,1,0
676700000,0,47.3977508,8.5456074,-19.314507,-24.725746,-9.501007,0.0,0.0,0.0,-1.42,-1.77,0.01,0.0,0.0,0.0,0.0,0.0,0.0,0.0,-2.2475693,488.83002,0.0,0.0,0.0,0.0,0.0,0.0,inf,inf,inf,inf,1,1,1,1,0,0,0,0,1,1,0
676800000,0,47.3977508,8.5456074,-19.447939,-24.906391,-9.498993,0.0,0.0,0.0,-1.39,-1.73,0.01,0.0,0.0,0.0,0.0,0.0,0.0,0.0,-2.2473257,488.83002,0.0,0.0,0.0,0.0,0.0,0.0,inf,inf,inf,inf,1,1,1,1,0,0,0,0,1,1,0
676900000,0,47.3977508,8.5456074,-19.592493,-25.07951,-9.497009,0.0,0.0,0.0,-1.36,-1.6899999,0.02,0.0,0.0,0.0,0.0,0.0,0.0,0.0,-2.247266,488.83002,0.0,0.0,0.0,0.0,0.0,0.0,inf,inf,inf,inf,1,1,1,1,0,0,0,0,1,1,0
677000000,0,47.3977508,8.5456074,-19.725925,-25.245102,-9.494995,0.0,0.0,0.0,-1.3299999,-1.65,0.02,0.0,0.0,0.0,0.0,0.0,0.0,0.0,-2.2473145,488.83002,0.0,0.0,0.0,0.0,0.0,0.0,inf,inf,inf,inf,1,1,1,1,0,0,0,0,1,1,0
677100000,0,47.3977508,8.5456074,-19.85936,-25.410694,-9.490997,0.0,0.0,0.0,-1.3,-1.61,0.03,0.0,0.0,0.0,0.0,0.0,0.0,0.0,-2.2473512,488.83002,0.0,0.0,0.0,0.0,0.0,0.0,inf,inf,inf,inf,1,1,1,1,0,0,0,0,1,1,0
677200000,0,47.3977508,8.5456074,-19.992792,-25.568758,-9.488007,0.0,0.0,0.0,-1.27,-1.5699999,0.03,0.0,0.0,0.0,0.0,0.0,0.0,0.0,-2.2472749,488.83002,0.0,0.0,0.0,0.0,0.0,0.0,inf,inf,inf,inf,1,1,1,1,0,0,0,0,1,1,0
677300000,0,47.3977508,8.5456074,-20.115107,-25.726824,-9.484009,0.0,0.0,0.0,-1.24,-1.53,0.03,0.0,0.0,0.0,0.0,0.0,0.0,0.0,-2.2470148,488.83002,0.0,0.0,0.0,0.0,0.0,0.0,inf,inf,inf,inf,1,1,1,1,0,0,0,0,1,1,0
677400000,0,47.3977508,8.5456074,-20.23742,-25.877361,-9.481018,0.0,0.0,0.0,-1.1999999,-1.49,0.03,0.0,0.0,0.0,0.0,0.0,0.0,0.0,-2.246651,488.83002,0.0,0.0,0.0,0.0,0.0,0.0,inf,inf,inf,inf,1,1,1,1,0,0,0,0,1,1,0
677500000,0,47.3977508,8.5456074,-20.359734,-26.027899,-9.47702,0.0,0.0,0.0,-1.17,-1.4599999,0.03,0.0,0.0,0.0,0.0,0.0,0.0,0.0,-2.246267,488.83002,0.0,0.0,0.0,0.0,0.0,0.0,inf,inf,inf,inf,1,1,1,1,0,0,0,0,1,1,0
677600000,0,47.3977508,8.5456074,-20.470928,-26.163383,-9.472992,0.0,0.0,0.0,-1.15,-1.42,0.04,0.0,0.0,0.0,0.0,0.0,0.0,0.0,-2.2460074,488.83002,0.0,0.0,0.0,0.0,0.0,0.0,inf,inf,inf,inf,1,1,1,1,0,0,0,0,1,1,0
677700000,0,47.3977508,8.5456074,-20.58212,-26.313921,-9.468018,0.0,0.0,0.0,-1.12,-1.38,0.04,0.0,0.0,0.0,0.0,0.0,0.0,0.0,-2.2458396,488.83002,0.0,0.0,0.0,0.0,0.0,0.0,inf,inf,inf,inf,1,1,1,1,0,0,0,0,1,1,0
677800000,0,47.3977508,8.5456074,-20.693316,-26.441877,-9.463013,0.0,0.0,0.0,-1.1,-1.35,0.049999997,0.0,0.0,0.0,0.0,0.0,0.0,0.0,-2.2457063,488.83002,0.0,0.0,0.0,0.0,0.0,0.0,inf,inf,inf,inf,1,1,1,1,0,0,0,0,1,1,0
677900000,0,47.3977508,8.5456074,-20.80451,-26.584888,-9.458008,0.0,0.0,0.0,-1.0699999,-1.3199999,0.049999997,0.0,0.0,0.0,0.0,0.0,0.0,0.0,-2.2455597,488.83002,0.0,0.0,0.0,0.0,0.0,0.0,inf,inf,inf,inf,1,1,1,1,0,0,0,0,1,1,0
678000000,0,47.3977508,8.5456074,-20.915705,-26.705318,-9.453003,0.0,0.0,0.0,-1.05,-1.29,0.049999997,0.0,0.0,0.0,0.0,0.0,0.0,0.0,-2.2453952,488.83002,0.0,0.0,0.0,0.0,0.0,0.0,inf,inf,inf,inf,1,1,1,1,0,0,0,0,1,1,0
678100000,0,47.3977508,8.5456074,-21.01578,-26.840803,-9.4470215,0.0,0.0,0.0,-1.02,-1.26,0.049999997,0.0,0.0,0.0,0.0,0.0,0.0,0.0,-2.2452965,488.83002,0.0,0.0,0.0,0.0,0.0,0.0,inf,inf,inf,inf,1,1,1,1,0,0,0,0,1,1,0
678200000,0,47.3977508,8.5456074,-21.126974,-26.96876,-9.4410095,0.0,0.0,0.0,-1.0,-1.23,0.06,0.0,0.0,0.0,0.0,0.0,0.0,0.0,-2.2452772,488.83002,0.0,0.0,0.0,0.0,0.0,0.0,inf,inf,inf,inf,1,1,1,1,0,0,0,0,1,1,0
678300000,0,47.3977508,8.5456074,-21.215929,-27.089191,-9.434998,0.0,0.0,0.0,-0.97999996,-1.1899999,0.06,0.0,0.0,0.0,0.0,0.0,0.0,0.0,-2.2454486,488.83002,0.0,0.0,0.0,0.0,0.0,0.0,inf,inf,inf,inf,1,1,1,1,0,0,0,0,1,1,0
678400000,0,47.3977508,8.5456074,-21.316004,-27.209621,-9.428009,0.0,0.0,0.0,-0.96,-1.16,0.06,0.0,0.0,0.0,0.0,0.0,0.0,0.0,-2.2456026,488.83002,0.0,0.0,0.0,0.0,0.0,0.0,inf,inf,inf,inf,1,1,1,1,0,0,0,0,1,1,0
678500000,0,47.3977508,8.5456074,-21.416079,-27.322525,-9.421997,0.0,0.0,0.0,-0.93,-1.14,0.06,0.0,0.0,0.0,0.0,0.0,0.0,0.0,-2.2456748,488.83002,0.0,0.0,0.0,0.0,0.0,0.0,inf,inf,inf,inf,1,1,1,1,0,0,0,0,1,1,0
678600000,0,47.3977508,8.5456074,-21.505035,-27.435429,-9.415009,0.0,0.0,0.0,-0.90999997,-1.11,0.06,0.0,0.0,0.0,0.0,0.0,0.0,0.0,-2.245803,488.83002,0.0,0.0,0.0,0.0,0.0,0.0,inf,inf,inf,inf,1,1,1,1,0,0,0,0,1,1,0
678700000,0,47.3977508,8.5456074,-21.59399,-27.54833,-9.408997,0.0,0.0,0.0,-0.89,-1.0799999,0.06,0.0,0.0,0.0,0.0,0.0,0.0,0.0,-2.245901,488.83002,0.0,0.0,0.0,0.0,0.0,0.0,inf,inf,inf,inf,1,1,1,1,0,0,0,0,1,1,0
678800000,0,47.3977508,8.5456074,-21.682945,-27.653708,-9.403015,0.0,0.0,0.0,-0.87,-1.05,0.06,0.0,0.0,0.0,0.0,0.0,0.0,0.0,-2.245908,488.83002,0.0,0.0,0.0,0.0,0.0,0.0,inf,inf,inf,inf,1,1,1,1,0,0,0,0,1,1,0
678900000,0,47.3977508,8.5456074,-21.7719,-27.759085,-9.395996,0.0,0.0,0.0,-0.84999996,-1.02,0.06,0.0,0.0,0.0,0.0,0.0,0.0,0.0,-2.24584,488.83002,0.0,0.0,0.0,0.0,0.0,0.0,inf,inf,inf,inf,1,1,1,1,0,0,0,0,1,1,0
679000000,0,47.3977508,8.5456074,-21.860857,-27.856934,-9.390015,0.0,0.0,0.0,-0.83,-0.98999995,0.049999997,0.0,0.0,0.0,0.0,0.0,0.0,0.0,-2.2456903,488.83002,0.0,0.0,0.0,0.0,0.0,0.0,inf,inf,inf,inf,1,1,1,1,0,0,0,0,1,1,0
679100000,0,47.3977508,8.5456074,-21.938692,-27.954784,-9.38501,0.0,0.0,0.0,-0.81,-0.96999997,0.049999997,0.0,0.0,0.0,0.0,0.0,0.0,0.0,-2.2455554,488.83002,0.0,0.0,0.0,0.0,0.0,0.0,inf,inf,inf,inf,1,1,1,1,0,0,0,0,1,1,0
679200000,0,47.3977508,8.5456074,-22.01653,-28.052633,-9.378998,0.0,0.0,0.0,-0.78999996,-0.94,0.049999997,0.0,0.0,0.0,0.0,0.0,0.0,0.0,-2.2453375,488.83002,0.0,0.0,0.0,0.0,0.0,0.0,inf,inf,inf,inf,1,1,1,1,0,0,0,0,1,1,0
679300000,0,47.3977508,8.5456074,-22.094364,-28.150482,-9.373016,0.0,0.0,0.0,-0.77,-0.91999996,0.049999997,0.0,0.0,0.0,0.0,0.0,0.0,0.0,-2.2452056,488.83002,0.0,0.0,0.0,0.0,0.0,0.0,inf,inf,inf,inf,1,1,1,1,0,0,0,0,1,1,0
679400000,0,47.3977508,8.5456074,-22.172201,-28.233278,-9.368011,0.0,0.0,0.0,-0.75,-0.89,0.049999997,0.0,0.0,0.0,0.0,0.0,0.0,0.0,-2.245113,488.83002,0.0,0.0,0.0,0.0,0.0,0.0,inf,inf,inf,inf,1,1,1,1,0,0,0,0,1,1,0
679500000,0,47.3977508,8.5456074,-22.250036,-28.33113,-9.363007,0.0,0.0,0.0,-0.72999996,-0.85999995,0.049999997,0.0,0.0,0.0,0.0,0.0,0.0,0.0,-2.2449787,488.83002,0.0,0.0,0.0,0.0,0.0,0.0,inf,inf,inf,inf,1,1,1,1,0,0,0,0,1,1,0
679600000,0,47.3977508,8.5456074,-22.316753,-28.413925,-9.356995,0.0,0.0,0.0,-0.71,-0.84,0.049999997,0.0,0.0,0.0,0.0,0.0,0.0,0.0,-2.2448177,488.83002,0.0,0.0,0.0,0.0,0.0,0.0,inf,inf,inf,inf,1,1,1,1,0,0,0,0,1,1,0
679700000,0,47.3977508,8.5456074,-22.394588,-28.49672,-9.351013,0.0,0.0,0.0,-0.69,-0.81,0.06,0.0,0.0,0.0,0.0,0.0,0.0,0.0,-2.244631,488.83002,0.0,0.0,0.0,0.0,0.0,0.0,inf,inf,inf,inf,1,1,1,1,0,0,0,0,1,1,0
679800000,0,47.3977508,8.5456074,-22.461306,-28.579515,-9.346008,0.0,0.0,0.0,-0.66999996,-0.78999996,0.049999997,0.0,0.0,0.0,0.0,0.0,0.0,0.0,-2.2443266,488.83002,0.0,0.0,0.0,0.0,0.0,0.0,inf,inf,inf,inf,1,1,1,1,0,0,0,0,1,1,0
679900000,0,47.3977508,8.5456074,-22.528023,-28.654785,-9.339996,0.0,0.0,0.0,-0.65,-0.77,0.049999997,0.0,0.0,0.0,0.0,0.0,0.0,0.0,-2.2437832,488.83002,0.0,0.0,0.0,0.0,0.0,0.0,inf,inf,inf,inf,1,1,1,1,0,0,0,0,1,1,0
679996000,0,47.3977508,8.5456074,-22.594738,-28.730055,-9.334015,0.0,0.0,0.0,-0.63,-0.75,0.049999997,0.0,0.0,0.0,0.0,0.0,0.0,0.0,-2.2432494,488.83002,0.0,0.0,0.0,0.0,0.0,0.0,inf,inf,inf,inf,1,1,1,1,0,0,0,0,1,1,0
680100000,0,47.3977508,8.5456074,-22.650335,-28.805323,-9.328003,0.0,0.0,0.0,-0.61,-0.71999997,0.049999997,0.0,0.0,0.0,0.0,0.0,0.0,0.0,-2.2426655,488.83002,0.0,0.0,0.0,0.0,0.0,0.0,inf,inf,inf,inf,1,1,1,1,0,0,0,0,1,1,0
680200000,0,47.3977508,8.5456074,-22.717052,-28.880592,-9.3220215,0.0,0.0,0.0,-0.59,-0.7,0.049999997,0.0,0.0,0.0,0.0,0.0,0.0,0.0,-2.2420764,488.83002,0.0,0.0,0.0,0.0,0.0,0.0,inf,inf,inf,inf,1,1,1,1,0,0,0,0,1,1,0
680300000,0,47.3977508,8.5456074,-22.77265,-28.948334,-9.3160095,0.0,0.0,0.0,-0.58,-0.68,0.049999997,0.0,0.0,0.0,0.0,0.0,0.0,0.0,-2.241569,488.83002,0.0,0.0,0.0,0.0,0.0,0.0,inf,inf,inf,inf,1,1,1,1,0,0,0,0,1,1,0
680400000,0,47.3977508,8.5456074,-22.828247,-29.016077,-9.311005,0.0,0.0,0.0,-0.56,-0.65999997,0.049999997,0.0,0.0,0.0,0.0,0.0,0.0,0.0,-2.2410033,488.83002,0.0,0.0,0.0,0.0,0.0,0.0,inf,inf,inf,inf,1,1,1,1,0,0,0,0,1,1,0
680500000,0,47.3977508,8.5456074,-22.883844,-29.083818,-9.304993,0.0,0.0,0.0,-0.55,-0.64,0.049999997,0.0,0.0,0.0,0.0,0.0,0.0,0.0,-2.2404337,488.83002,0.0,0.0,0.0,0.0,0.0,0.0,inf,inf,inf,inf,1,1,1,1,0,0,0,0,1,1,0
680600000,0,47.3977508,8.5456074,-22.939442,-29.144033,-9.300018,0.0,0.0,0.0,-0.53,-0.62,0.049999997,0.0,0.0,0.0,0.0,0.0,0.0,0.0,-2.2399457,488.83002,0.0,0.0,0.0,0.0,0.0,0.0,inf,inf,inf,inf,1,1,1,1,0,0,0,0,1,1,0
680700000,0,47.3977508,8.5456074,-22.995039,-29.204248,-9.294006,0.0,0.0,0.0,-0.52,-0.59999996,0.049999997,0.0,0.0,0.0,0.0,0.0,0.0,0.0,-2.2380223,488.83002,0.0,0.0,0.0,0.0,0.0,0.0,inf,inf,inf,inf,1,1,1,1,0,0,0,0,1,1,0
680800000,0,47.3977508,8.5456074,-23.050634,-29.264463,-9.289001,0.0,0.0,0.0,-0.5,-0.59,0.04,0.0,0.0,0.0,0.0,0.0,0.0,0.0,-2.2281234,488.83002,0.0,0.0,0.0,0.0,0.0,0.0,inf,inf,inf,inf,1,1,1,1,0,0,0,0,1,1,0
680900000,0,47.3977508,8.5456074,-23.095114,-29.324678,-9.283997,0.0,0.0,0.0,-0.45,-0.59,0.04,0.0,0.0,0.0,0.0,0.0,0.0,0.0,-2.2056718,488.83002,0.0,0.0,0.0,0.0,0.0,0.0,inf,inf,inf,inf,1,1,1,1,0,0,0,0,1,1,0
681000000,0,47.3977508,8.5456074,-23.139591,-29.384893,-9.281006,0.0,0.0,0.0,-0.35,-0.62,0.03,0.0,0.0,0.0,0.0,0.0,0.0,0.0,-2.1682098,488.83002,0.0,0.0,0.0,0.0,0.0,0.0,inf,inf,inf,inf,1,1,1,1,0,0,0,0,1,1,0
681100000,0,47.3977508,8.5456074,-23.161829,-29.452637,-9.277008,0.0,0.0,0.0,-0.19999999,-0.65,0.02,0.0,0.0,0.0,0.0,0.0,0.0,0.0,-2.1159103,488.83002,0.0,0.0,0.0,0.0,0.0,0.0,inf,inf,inf,inf,1,1,1,1,0,0,0,0,1,1,0
681200000,0,47.3977508,8.5456074,-23.172949,-29.520378,-9.274994,0.0,0.0,0.0,0.0,-0.66999996,0.03,0.0,0.0,0.0,0.0,0.0,0.0,0.0,-2.0525327,488.83002,0.0,0.0,0.0,0.0,0.0,0.0,inf,inf,inf,inf,1,1,1,1,0,0,0,0,1,1,0
681300000,0,47.3977508,8.5456074,-23.161829,-29.58812,-9.270996,0.0,0.0,0.0,0.22,-0.69,0.04,0.0,0.0,0.0,0.0,0.0,0.0,0.0,-1.983366,488.83002,0.0,0.0,0.0,0.0,0.0,0.0,inf,inf,inf,inf,1,1,1,1,0,0,0,0,1,1,0
681400000,0,47.3977508,8.5456074,-23.12847,-29.65586,-9.266998,0.0,0.0,0.0,0.44,-0.7,0.04,0.0,0.0,0.0,0.0,0.0,0.0,0.0,-1.9110128,488.83002,0.0,0.0,0.0,0.0,0.0,0.0,inf,inf,inf,inf,1,1,1,1,0,0,0,0,1,1,0
681500000,0,47.3977508,8.5456074,-23.072872,-29.723602,-9.261993,0.0,0.0,0.0,0.64,-0.71,0.04,0.0,0.0,0.0,0.0,0.0,0.0,0.0,-1.8358476,488.83002,0.0,0.0,0.0,0.0,0.0,0.0,inf,inf,inf,inf,1,1,1,1,0,0,0,0,1,1,0
681600000,0,47.3977508,8.5456074,-22.995035,-29.798872,-9.257019,0.0,0.0,0.0,0.81,-0.71999997,0.04,0.0,0.0,0.0,0.0,0.0,0.0,0.0,-1.7571677,488.83002,0.0,0.0,0.0,0.0,0.0,0.0,inf,inf,inf,inf,1,1,1,1,0,0,0,0,1,1,0
681700000,0,47.3977508,8.5456074,-22.906078,-29.87414,-9.253021,0.0,0.0,0.0,0.97999996,-0.71999997,0.04,0.0,0.0,0.0,0.0,0.0,0.0,0.0,-1.6755992,488.83002,0.0,0.0,0.0,0.0,0.0,0.0,inf,inf,inf,inf,1,1,1,1,0,0,0,0,1,1,0
681800000,0,47.3977508,8.5456074,-22.806004,-29.941881,-9.248016,0.0,0.0,0.0,1.14,-0.71,0.04,0.0,0.0,0.0,0.0,0.0,0.0,0.0,-1.592932,488.83002,0.0,0.0,0.0,0.0,0.0,0.0,inf,inf,inf,inf,1,1,1,1,0,0,0,0,1,1,0
681900000,0,47.3977508,8.5456074,-22.683687,-30.017149,-9.243011,0.0,0.0,0.0,1.29,-0.69,0.04,0.0,0.0,0.0,0.0,0.0,0.0,0.0,-1.5104125,488.83002,0.0,0.0,0.0,0.0,0.0,0.0,inf,inf,inf,inf,1,1,1,1,0,0,0,0,1,1,0
682000000,0,47.3977508,8.5456074,-22.539135,-30.08489,-9.238007,0.0,0.0,0.0,1.4399999,-0.66999996,0.049999997,0.0,0.0,0.0,0.0,0.0,0.0,0.0,-1.428704,488.83002,0.0,0.0,0.0,0.0,0.0,0.0,inf,inf,inf,inf,1,1,1,1,0,0,0,0,1,1,0
682096000,0,47.3977508,8.5456074,-22.4057,-30.145103,-9.233002,0.0,0.0,0.0,1.56,-0.64,0.049999997,0.0,0.0,0.0,0.0,0.0,0.0,0.0,-1.3502558,488.83002,0.0,0.0,0.0,0.0,0.0,0.0,inf,inf,inf,inf,1,1,1,1,0,0,0,0,1,1,0
682200000,0,47.3977508,8.5456074,-22.238907,-30.212845,-9.22702,0.0,0.0,0.0,1.68,-0.61,0.06,0.0,0.0,0.0,0.0,0.0,0.0,0.0,-1.2645752,488.83002,0.0,0.0,0.0,0.0,0.0,0.0,inf,inf,inf,inf,1,1,1,1,0,0,0,0,1,1,0
682296000,0,47.3977508,8.5456074,-22.060995,-30.27306,-9.221008,0.0,0.0,0.0,1.76,-0.57,0.06,0.0,0.0,0.0,0.0,0.0,0.0,0.0,-1.1850696,488.83002,0.0,0.0,0.0,0.0,0.0,0.0,inf,inf,inf,inf,1,1,1,1,0,0,0,0,1,1,0
682400000,0,47.3977508,8.5456074,-21.883083,-30.325747,-9.21402,0.0,0.0,0.0,1.8199999,-0.52,0.06,0.0,0.0,0.0,0.0,0.0,0.0,0.0,-1.099274,488.83002,0.0,0.0,0.0,0.0,0.0,0.0,inf,inf,inf,inf,1,1,1,1,0,0,0,0,1,1,0
682500000,0,47.3977508,8.5456074,-21.682932,-30.378433,-9.208008,0.0,0.0,0.0,1.86,-0.47,0.049999997,0.0,0.0,0.0,0.0,0.0,0.0,0.0,-1.0177841,488.83002,0.0,0.0,0.0,0.0,0.0,0.0,inf,inf,inf,inf,1,1,1,1,0,0,0,0,1,1,0
682600000,0,47.3977508,8.5456074,-21.50502,-30.423594,-9.201996,0.0,0.0,0.0,1.86,-0.41,0.06,0.0,0.0,0.0,0.0,0.0,0.0,0.0,-0.9374609,488.83002,0.0,0.0,0.0,0.0,0.0,0.0,inf,inf,inf,inf,1,1,1,1,0,0,0,0,1,1,0
682700000,0,47.3977508,8.5456074,-21.315989,-30.461227,-9.196014,0.0,0.0,0.0,1.8499999,-0.35999998,0.049999997,0.0,0.0,0.0,0.0,0.0,0.0,0.0,-0.8582928,488.83002,0.0,0.0,0.0,0.0,0.0,0.0,inf,inf,inf,inf,1,1,1,1,0,0,0,0,1,1,0
682796000,0,47.3977508,8.5456074,-21.138077,-30.498861,-9.192017,0.0,0.0,0.0,1.81,-0.32999998,0.04,0.0,0.0,0.0,0.0,0.0,0.0,0.0,-0.7826467,488.83002,0.0,0.0,0.0,0.0,0.0,0.0,inf,inf,inf,inf,1,1,1,1,0,0,0,0,1,1,0
682900000,0,47.3977508,8.5456074,-20.949045,-30.528967,-9.187012,0.0,0.0,0.0,1.75,-0.31,0.04,0.0,0.0,0.0,0.0,0.0,0.0,0.0,-0.70109224,488.83002,0.0,0.0,0.0,0.0,0.0,0.0,inf,inf,inf,inf,1,1,1,1,0,0,0,0,1,1,0
683000000,0,47.3977508,8.5456074,-20.782251,-30.559074,-9.183014,0.0,0.0,0.0,1.67,-0.29,0.03,0.0,0.0,0.0,0.0,0.0,0.0,0.0,-0.623313,488.83002,0.0,0.0,0.0,0.0,0.0,0.0,inf,inf,inf,inf,1,1,1,1,0,0,0,0,1,1,0
683100000,0,47.3977508,8.5456074,-20.61546,-30.58918,-9.181,0.0,0.0,0.0,1.5899999,-0.28,0.02,0.0,0.0,0.0,0.0,0.0,0.0,0.0,-0.5460105,488.83002,0.0,0.0,0.0,0.0,0.0,0.0,inf,inf,inf,inf,1,1,1,1,0,0,0,0,1,1,0
683200000,0,47.3977508,8.5456074,-20.470905,-30.619287,-9.178009,0.0,0.0,0.0,1.51,-0.26999998,0.02,0.0,0.0,0.0,0.0,0.0,0.0,0.0,-0.46843672,488.83002,0.0,0.0,0.0,0.0,0.0,0.0,inf,inf,inf,inf,1,1,1,1,0,0,0,0,1,1,0
683296000,0,47.3977508,8.5456074,-20.326353,-30.641867,-9.175995,0.0,0.0,0.0,1.4499999,-0.26,0.01,0.0,0.0,0.0,0.0,0.0,0.0,0.0,-0.3934491,488.83002,0.0,0.0,0.0,0.0,0.0,0.0,inf,inf,inf,inf,1,1,1,1,0,0,0,0,1,1,0
683400000,0,47.3977508,8.5456074,-20.17068,-30.671974,-9.174011,0.0,0.0,0.0,1.39,-0.24,0.01,0.0,0.0,0.0,0.0,0.0,0.0,0.0,-0.3118647,488.83002,0.0,0.0,0.0,0.0,0.0,0.0,inf,inf,inf,inf,1,1,1,1,0,0,0,0,1,1,0
683500000,0,47.3977508,8.5456074,-20.026125,-30.694553,-9.173004,0.0,0.0,0.0,1.3399999,-0.22,0.01,0.0,0.0,0.0,0.0,0.0,0.0,0.0,-0.23328091,488.83002,0.0,0.0,0.0,0.0,0.0,0.0,inf,inf,inf,inf,1,1,1,1,0,0,0,0,1,1,0
683600000,0,47.3977508,8.5456074,-19.90381,-30.717133,-9.171997,0.0,0.0,0.0,1.3,-0.21,0.01,0.0,0.0,0.0,0.0,0.0,0.0,0.0,-0.15838873,488.83002,0.0,0.0,0.0,0.0,0.0,0.0,inf,inf,inf,inf,1,1,1,1,0,0,0,0,1,1,0
683700000,0,47.3977508,8.5456074,-19.770378,-30.739714,-9.1710205,0.0,0.0,0.0,1.26,-0.19999999,0.0,0.0,0.0,0.0,0.0,0.0,0.0,0.0,-0.09387795,488.83002,0.0,0.0,0.0,0.0,0.0,0.0,inf,inf,inf,inf,1,1,1,1,0,0,0,0,1,1,0
683800000,0,47.3977508,8.5456074,-19.648064,-30.754766,-9.170013,0.0,0.0,0.0,1.22,-0.19999999,0.0,0.0,0.0,0.0,0.0,0.0,0.0,0.0,-0.0426227,488.83002,0.0,0.0,0.0,0.0,0.0,0.0,inf,inf,inf,inf,1,1,1,1,0,0,0,0,1,1,0
683900000,0,47.3977508,8.5456074,-19.52575,-30.777346,-9.169006,0.0,0.0,0.0,1.18,-0.19999999,0.0,0.0,0.0,0.0,0.0,0.0,0.0,0.0,-0.004349741,488.83002,0.0,0.0,0.0,0.0,0.0,0.0,inf,inf,inf,inf,1,1,1,1,0,0,0,0,1,1,0
684000000,0,47.3977508,8.5456074,-19.414553,-30.799927,-9.169006,0.0,0.0,0.0,1.15,-0.19,0.0,0.0,0.0,0.0,0.0,0.0,0.0,0.0,0.02274852,488.83002,0.0,0.0,0.0,0.0,0.0,0.0,inf,inf,inf,inf,1,1,1,1,0,0,0,0,1,1,0
684100000,0,47.3977508,8.5456074,-19.292238,-30.81498,-9.169006,0.0,0.0,0.0,1.11,-0.17999999,0.0,0.0,0.0,0.0,0.0,0.0,0.0,0.0,0.041059084,488.83002,0.0,0.0,0.0,0.0,0.0,0.0,inf,inf,inf,inf,1,1,1,1,0,0,0,0,1,1,0
684200000,0,47.3977508,8.5456074,-19.181044,-30.837559,-9.167999,0.0,0.0,0.0,1.0799999,-0.17,0.0,0.0,0.0,0.0,0.0,0.0,0.0,0.0,0.05288629,488.83002,0.0,0.0,0.0,0.0,0.0,0.0,inf,inf,inf,inf,1,1,1,1,0,0,0,0,1,1,0
684300000,0,47.3977508,8.5456074,-19.069849,-30.852612,-9.167999,0.0,0.0,0.0,1.05,-0.16,0.0,0.0,0.0,0.0,0.0,0.0,0.0,0.0,0.05996279,488.83002,0.0,0.0,0.0,0.0,0.0,0.0,inf,inf,inf,inf,1,1,1,1,0,0,0,0,1,1,0
684400000,0,47.3977508,8.5456074,-18.969772,-30.867666,-9.167999,0.0,0.0,0.0,1.02,-0.14999999,0.0,0.0,0.0,0.0,0.0,0.0,0.0,0.0,0.06386023,488.83002,0.0,0.0,0.0,0.0,0.0,0.0,inf,inf,inf,inf,1,1,1,1,0,0,0,0,1,1,0
684500000,0,47.3977508,8.5456074,-18.869698,-30.882719,-9.169006,0.0,0.0,0.0,1.0,-0.14999999,0.0,0.0,0.0,0.0,0.0,0.0,0.0,0.0,0.06575339,488.83002,0.0,0.0,0.0,0.0,0.0,0.0,inf,inf,inf,inf,1,1,1,1,0,0,0,0,1,1,0
684596000,0,47.3977508,8.5456074,-18.769623,-30.897772,-9.170013,0.0,0.0,0.0,0.96999997,-0.14999999,-0.01,0.0,0.0,0.0,0.0,0.0,0.0,0.0,0.06652917,488.83002,0.0,0.0,0.0,0.0,0.0,0.0,inf,inf,inf,inf,1,1,1,1,0,0,0,0,1,1,0
684700000,0,47.3977508,8.5456074,-18.669546,-30.912825,-9.1710205,0.0,0.0,0.0,0.95,-0.14,-0.01,0.0,0.0,0.0,0.0,0.0,0.0,0.0,0.066897124,488.83002,0.0,0.0,0.0,0.0,0.0,0.0,inf,inf,inf,inf,1,1,1,1,0,0,0,0,1,1,0
684800000,0,47.3977508,8.5456074,-18.580591,-30.927877,-9.173004,0.0,0.0,0.0,0.93,-0.14,-0.02,0.0,0.0,0.0,0.0,0.0,0.0,0.0,0.0672499,488.83002,0.0,0.0,0.0,0.0,0.0,0.0,inf,inf,inf,inf,1,1,1,1,0,0,0,0,1,1,0
684900000,0,47.3977508,8.5456074,-18.480515,-30.942932,-9.175018,0.0,0.0,0.0,0.90999997,-0.13,-0.02,0.0,0.0,0.0,0.0,0.0,0.0,0.0,0.06778937,488.83002,0.0,0.0,0.0,0.0,0.0,0.0,inf,inf,inf,inf,1,1,1,1,0,0,0,0,1,1,0
685000000,0,47.3977508,8.5456074,-18.39156,-30.957985,-9.178009,0.0,0.0,0.0,0.89,-0.13,-0.02,0.0,0.0,0.0,0.0,0.0,0.0,0.0,0.068585634,488.83002,0.0,0.0,0.0,0.0,0.0,0.0,inf,inf,inf,inf,1,1,1,1,0,0,0,0,1,1,0
685100000,0,47.3977508,8.5456074,-18.302603,-30.965511,-9.179993,0.0,0.0,0.0,0.87,-0.12,-0.02,0.0,0.0,0.0,0.0,0.0,0.0,0.0,0.069715,488.83002,0.0,0.0,0.0,0.0,0.0,0.0,inf,inf,inf,inf,1,1,1,1,0,0,0,0,1,1,0
685200000,0,47.3977508,8.5456074,-18.224766,-30.980564,-9.183014,0.0,0.0,0.0,0.84999996,-0.12,-0.02,0.0,0.0,0.0,0.0,0.0,0.0,0.0,0.07118558,488.83002,0.0,0.0,0.0,0.0,0.0,0.0,inf,inf,inf,inf,1,1,1,1,0,0,0,0,1,1,0
685300000,0,47.3977508,8.5456074,-18.13581,-30.995617,-9.184998,0.0,0.0,0.0,0.83,-0.12,-0.02,0.0,0.0,0.0,0.0,0.0,0.0,0.0,0.073001534,488.83002,0.0,0.0,0.0,0.0,0.0,0.0,inf,inf,inf,inf,1,1,1,1,0,0,0,0,1,1,0
685400000,0,47.3977508,8.5456074,-18.057974,-31.003143,-9.188019,0.0,0.0,0.0,0.81,-0.11,-0.02,0.0,0.0,0.0,0.0,0.0,0.0,0.0,0.075106874,488.83002,0.0,0.0,0.0,0.0,0.0,0.0,inf,inf,inf,inf,1,1,1,1,0,0,0,0,1,1,0
685500000,0,47.3977508,8.5456074,-17.969019,-31.018198,-9.190002,0.0,0.0,0.0,0.79999995,-0.11,-0.02,0.0,0.0,0.0,0.0,0.0,0.0,0.0,0.07742548,488.83002,0.0,0.0,0.0,0.0,0.0,0.0,inf,inf,inf,inf,1,1,1,1,0,0,0,0,1,1,0
685600000,0,47.3977508,8.5456074,-17.891182,-31.025724,-9.192017,0.0,0.0,0.0,0.78,-0.11,-0.02,0.0,0.0,0.0,0.0,0.0,0.0,0.0,0.079908095,488.83002,0.0,0.0,0.0,0.0,0.0,0.0,inf,inf,inf,inf,1,1,1,1,0,0,0,0,1,1,0
685700000,0,47.3977508,8.5456074,-17.813345,-31.040777,-9.194,0.0,0.0,0.0,0.76,-0.11,-0.01,0.0,0.0,0.0,0.0,0.0,0.0,0.0,0.08263076,488.83002,0.0,0.0,0.0,0.0,0.0,0.0,inf,inf,inf,inf,1,1,1,1,0,0,0,0,1,1,0
