timestamp,x,y,z,yaw,yawspeed,vx,vy,vz,acc_x,acc_y,acc_z,jerk_x,jerk_y,jerk_z,thrust[0],thrust[1],thrust[2]
657304000,0.053633492,-0.13198744,-0.017045557,0.390865,nan,0.05530595,-0.06604733,-0.005303977,0.0,0.0,0.0,0.0,0.0,0.0,nan,nan,nan
657500000,0.057536196,-0.13661171,-0.03058445,0.3910393,nan,-0.00967226,0.015830178,-0.19688807,0.079794616,-0.00012178719,-1.9574683,0.0,0.0,-10.0,nan,nan,nan
657692000,0.056661904,-0.13560984,-0.11622312,0.3910393,nan,-0.005208748,0.0036064386,-0.7566762,-0.024093907,-0.096167825,-3.7969377,0.0,6.0104895,10.0,nan,nan,nan
657904000,0.05577848,-0.13493307,-0.3501668,0.3910393,nan,-0.003910531,0.0014266022,-1.3773072,0.016579902,0.012052588,-1.8769376,0.0,2.0000002,10.0,nan,nan,nan
658100000,0.055072464,-0.13439792,-0.64362204,0.3910393,nan,-0.0024570026,0.0027225055,-1.5531068,-0.01873608,0.0074509233,0.08306235,0.0,0.0,10.0,nan,nan,nan
658292000,0.054283265,-0.13392578,-0.9347976,0.3910393,nan,-0.008697302,0.0031835155,-1.498216,-0.16698885,0.01396074,-0.12555008,10.0,0.0,7.84688,nan,nan,nan
658504000,0.052757666,-0.13320854,-1.2527125,0.3910393,nan,-0.0076606344,0.0032017648,-1.4997854,0.030727137,0.011168592,0.020198353,2.0000002,0.0,0.0,nan,nan,nan
658700000,0.051563386,-0.13258225,-1.5467452,0.3910393,nan,-0.005123392,0.0029223417,-1.5011966,0.072465375,-0.023065127,0.023461558,0.0,1.4415706,0.0,nan,nan,nan
658892000,0.05054732,-0.13204908,-1.8346962,0.3910393,nan,-0.0047402577,0.0019206268,-1.4989424,0.046062272,-0.026452102,-0.026707686,0.0,0.0,0.0,nan,nan,nan
659104000,0.049560104,-0.13156512,-2.1526668,0.3910393,nan,-0.0050911666,0.001536285,-1.5013261,-0.03452015,0.016670657,-0.006954331,0.0,2.0000002,2.0000002,nan,nan,nan
659300000,0.04870046,-0.13111351,-2.4466658,0.3910393,nan,-0.003339609,0.002333066,-1.501994,0.0051071085,-0.018663477,0.0024365336,0.0,1.1664673,0.0,nan,nan,nan
659492000,0.04793155,-0.13074768,-2.7347035,0.3910393,nan,-0.004690251,0.0019034873,-1.500668,0.009334842,0.0173243,0.029407507,0.0,0.0,-1.8379692,nan,nan,nan
659704000,0.047218774,-0.13034333,-3.0527408,0.3910393,nan,-0.0021471137,0.0017771691,-1.5005198,-0.0019405596,-0.01800996,0.07952601,-2.0000002,0.0,2.0000002,nan,nan,nan
659900000,0.046672378,-0.1300196,-3.3467155,0.3910393,nan,-0.0033090785,0.0013679161,-1.5003592,-0.034273572,0.0176589,-0.052082695,0.0,-1.1036813,0.0,nan,nan,nan
660092000,0.046132997,-0.12970392,-3.6347027,0.3910393,nan,-0.003302216,0.0026033036,-1.5021583,0.0052649193,-0.022298306,-0.041666154,0.0,0.0,0.0,nan,nan,nan
660304000,0.0456428,-0.1294457,-3.952766,0.3910393,nan,-0.0013664416,0.00063760276,-1.5021287,-0.004024364,-0.012696734,-0.045866337,-2.0000002,0.0,2.0000002,nan,nan,nan
660500000,0.04525712,-0.12925999,-4.2467184,0.3910393,nan,-0.0021783886,0.0011959953,-1.499624,-0.035219494,0.04947409,0.058645528,0.0,-3.092131,0.0,nan,nan,nan
660692000,0.044851396,-0.1289953,-4.534656,0.3910393,nan,-0.0017294459,0.0011035231,-1.5005244,0.00244762,-0.019536585,-0.05526687,-0.15297627,1.2210366,0.0,nan,nan,nan
660904000,0.044492025,-0.12882167,-4.8527937,0.3910393,nan,-0.0013369008,0.0007637946,-1.5008289,0.0,0.0,0.057429213,-1.6979051,-4.7683713e-08,2.0000002,nan,nan,nan
661100000,0.04423002,-0.12867199,-5.1449203,0.3910393,nan,-0.0013369008,0.0007637946,-1.4619299,0.0,0.0,0.41275465,0.0,0.0,-10.0,nan,nan,nan
661292000,0.043973364,-0.12852536,-5.4176445,0.3910393,nan,-0.0013369008,0.0007637946,-1.378841,0.0,0.0,0.41275465,0.0,0.0,-10.0,nan,nan,nan
661504000,0.043728676,-0.12836346,-5.7002454,0.3910393,nan,-0.0017401008,0.0007637946,-1.2870971,0.0,0.0,0.45275465,2.0000002,0.0,2.0000002,nan,nan,nan
661700000,0.04348768,-0.12825797,-5.9443927,0.3910393,nan,-0.00029562064,0.0011157946,-1.2072372,0.07328001,0.032,0.33275467,0.0,0.0,-10.0,nan,nan,nan
661892000,0.0432763,-0.12811269,-6.1696916,0.3910393,nan,-0.0016151726,9.81942e-05,-1.1395092,0.058624003,-0.0064000012,0.33275467,-3.6640005,0.0,-10.0,nan,nan,nan
662104000,0.04327796,-0.12797344,-6.401563,0.3910393,nan,-0.0014171841,0.001595554,-1.0696329,-0.09506738,0.0011610985,0.3310418,0.0,-2.0000002,2.0000002,nan,nan,nan
662300000,0.04309836,-0.1278752,-6.6023703,0.3910393,nan,-0.002184028,0.00061383337,-1.0096992,-0.0646975,-0.034533687,0.28936365,0.0,2.1583555,-10.0,nan,nan,nan
662492000,0.042988773,-0.12789509,-6.7867684,0.3910393,nan,0.0010236757,0.00028166643,-0.9516055,-0.05808095,0.005466316,0.28936115,0.0,0.0,-10.0,nan,nan,nan
662704000,0.042853657,-0.12780596,-6.9796057,0.3910393,nan,-0.0009715787,0.00031335928,-0.89325154,-0.052091163,0.04912607,0.2877254,0.0,2.0000002,2.0000002,nan,nan,nan
662900000,0.04273166,-0.12774996,-7.1471157,0.3910393,nan,-0.0016824706,0.00076088804,-0.84149504,-0.008875232,0.035125308,0.24773477,0.0,0.0,-10.0,nan,nan,nan
663092000,0.042657036,-0.12769926,-7.301993,0.3910393,nan,-0.0022716303,0.0006135231,-0.7970005,0.004633948,-0.006920684,0.20774247,0.0,0.0,-10.0,nan,nan,nan
663304000,0.042535372,-0.12761785,-7.463752,0.3910393,nan,-0.00066972093,0.00030860235,-0.74930197,0.0067295134,-0.053671144,0.24774057,0.0,-2.0000002,2.0000002,nan,nan,nan
663500000,0.04249256,-0.12756982,-7.605594,0.3910393,nan,-0.00086768233,-0.0011831016,-0.704859,-0.027962238,-0.008700378,0.20774461,0.0,0.0,-10.0,nan,nan,nan
663692000,0.04240947,-0.12755568,-7.736769,0.3910393,nan,-0.00032778294,0.00039628916,-0.6626521,0.039443336,0.029631756,0.1677446,-2.4652088,0.0,-10.0,nan,nan,nan
663904000,0.04232461,-0.12756684,-7.871301,0.3910393,nan,0.0005151149,0.000575316,-0.6233216,0.03282401,0.065300316,0.20773125,0.0,2.0000002,2.0000002,nan,nan,nan
664100000,0.042328466,-0.12747087,-7.9875145,0.3910393,nan,0.00033231959,8.799799e-05,-0.5870532,0.03549964,0.031929813,0.17079982,0.0,-1.9766531,-10.0,nan,nan,nan
664292000,0.042285975,-0.12743574,-8.095078,0.3910393,nan,-7.784486e-05,0.000789607,-0.55529696,-0.038320888,-0.0042260326,0.1493378,0.0,0.0,-9.333613,nan,nan,nan
664504000,0.042197075,-0.12745589,-8.207493,0.3910393,nan,-0.00036371173,-0.0007970015,-0.52039886,0.044839103,0.0073673055,0.17356788,2.0000002,2.0000002,2.0000002,nan,nan,nan
664700000,0.0422198,-0.12751846,-8.304655,0.3910393,nan,-0.0006297862,-0.0010008703,-0.49146527,0.0141672585,0.05049299,0.13861229,0.0,0.0,-8.663269,nan,nan,nan
664892000,0.0421626,-0.12740755,-8.395323,0.3910393,nan,-0.00013612477,-0.0008581422,-0.46379524,0.012986271,-0.05936298,0.117117584,0.0,10.0,-7.319849,nan,nan,nan
665104000,0.04217514,-0.12751907,-8.488757,0.3910393,nan,-0.00013789142,-0.0014140666,-0.43496057,0.018755715,0.016829476,0.12857006,0.0,2.0000002,0.0,nan,nan,nan
665300000,0.042199105,-0.12756363,-8.569583,0.3910393,nan,2.3979548e-05,-0.0005129341,-0.41092828,-0.013258366,0.041697875,0.12332329,0.8286479,-2.6061172,-7.7077065,nan,nan,nan
665492000,0.042174354,-0.12734279,-8.643578,0.3910393,nan,0.00076048746,0.0014900524,-0.3886925,-0.018121023,0.077248774,0.110130005,0.0,0.0,-6.815711,nan,nan,nan
665704000,0.042153466,-0.12736309,-8.721693,0.3910393,nan,0.00032009778,0.0004101555,-0.36494586,-0.016903235,-0.061598647,0.10881156,0.0,-2.0000002,2.0000002,nan,nan,nan
665900000,0.04212148,-0.12731387,-8.789815,0.3910393,nan,0.00033054757,0.0010188777,-0.343948,-0.013098394,-0.04794222,0.10107934,0.81128687,2.96944,0.0,nan,nan,nan
666092000,0.042108968,-0.12748177,-8.8531685,0.3910393,nan,0.0007088655,-0.0010445559,-0.32479686,-0.014995173,-0.07601446,0.10107934,0.0,0.0,0.0,nan,nan,nan
666304000,0.042149898,-0.12751076,-8.91871,0.3910393,nan,0.00012180384,0.000118077616,-0.30513212,-0.05482364,-0.08868301,0.10109761,-2.0000002,-2.0000002,2.0000002,nan,nan,nan
666500000,0.04208434,-0.1276039,-8.976267,0.3910393,nan,0.00016126547,0.00026893645,-0.2879065,-0.008187491,-0.048794433,0.062302176,0.5079435,3.0271564,0.0,nan,nan,nan
666692000,0.04208865,-0.1275267,-9.029198,0.3910393,nan,0.00033804946,0.0011860756,-0.27160758,-0.011907991,-0.059619743,0.08089682,0.0,0.0,0.0,nan,nan,nan
666904000,0.042105153,-0.12751812,-9.08417,0.3910393,nan,-0.00086490466,-0.0020908453,-0.25567517,0.0018726401,0.020073093,0.08089682,0.0,2.0000002,2.0000002,nan,nan,nan
667100000,0.040504232,-0.129108,-9.133649,0.31228775,nan,-0.049125824,-0.04981479,-0.27130225,-0.9995962,-1.0120076,-0.11030336,-10.0,-10.0,10.0,nan,nan,nan
667292000,0.0014933428,-0.16910313,-9.183844,0.16149126,nan,-0.4003889,-0.42823097,-0.25130174,-2.2395961,-2.8917825,0.06448467,0.0,0.0,0.0,nan,nan,nan
667504000,-0.12592152,-0.31691322,-9.233272,-0.0050131567,nan,-0.85500103,-1.0295796,-0.23630968,-2.2395961,-2.9709659,0.06517537,0.0,0.0,0.0,nan,nan,nan
667700000,-0.3034649,-0.5346624,-9.272381,-0.15895121,nan,-1.2354263,-1.5342375,-0.22422573,-2.2395961,-2.9709659,0.040679354,0.0,0.0,0.0,nan,nan,nan
667892000,-0.5151392,-0.7996891,-9.305446,-0.30974767,nan,-1.5730252,-1.9820836,-0.21439745,-2.2395961,-2.9709659,0.07058805,0.0,0.0,0.0,nan,nan,nan
668104000,-0.78268623,-1.1385618,-9.337566,-0.47625205,nan,-1.9164556,-2.4376655,-0.20461814,-2.2395961,-2.9709659,0.04103489,0.0,0.0,-2.0000002,nan,nan,nan
668300000,-1.0595236,-1.4917864,-9.364444,-0.63019,nan,-2.2164857,-2.8356743,-0.19691017,-2.2395961,-2.9709659,0.05442229,0.0,0.0,-3.135128,nan,nan,nan
668492000,-1.3617967,-1.8793687,-9.38914,-0.7809864,nan,-2.5033474,-3.216214,-0.18922226,-2.2395961,-2.9709659,0.053369552,0.0,0.0,-3.0676877,nan,nan,nan
668704000,-1.7374126,-2.3626838,-9.415278,-0.9474908,nan,-2.8194332,-3.623832,-0.1814044,-2.2395961,-2.4916594,0.06866169,0.0,10.0,2.0000002,nan,nan,nan
668900000,-2.127186,-2.858836,-9.4386835,-1.1014291,nan,-3.0856981,-3.894009,-0.1741243,-1.7286892,-1.6853901,0.035454154,10.0,0.0,0.0,nan,nan,nan
669092000,-2.5447276,-3.3845007,-9.461183,-1.252226,nan,-3.2266386,-4.0642185,-0.16762723,-0.41178176,-0.6681331,0.053913005,10.0,10.0,-3.1168852,nan,nan,nan
669304000,-3.028127,-3.9961898,-9.485736,-1.4187309,nan,-3.1898363,-4.0519047,-0.16006468,0.5737039,0.83227515,0.046485215,0.0,10.0,0.0,nan,nan,nan
669500000,-3.483289,-4.571782,-9.508385,-1.5726694,nan,-3.1050892,-3.9209325,-0.15301172,0.42236513,0.52588,0.03955225,0.0,-10.0,0.0,nan,nan,nan
669692000,-3.9395814,-5.1484575,-9.53046,-1.7234663,nan,-3.1071312,-3.9234197,-0.14704795,-0.03503877,-0.11170617,0.032766063,10.0,0.0,-1.9306186,nan,nan,nan
669904000,-4.454343,-5.7989063,-9.5542145,-1.8899711,nan,-3.102392,-3.9213104,-0.13939455,0.052872572,-0.061716013,0.09561336,2.0000002,0.0,2.0000002,nan,nan,nan
670100000,-4.933705,-6.404895,-9.575257,-2.0439095,nan,-3.1026626,-3.9207015,-0.13273719,0.03811953,0.0043934844,0.06890638,-2.2535558,0.0,0.0,nan,nan,nan
670292000,-5.406644,-7.0026855,-9.595074,-2.1947064,nan,-3.1023183,-3.9204185,-0.12712803,0.007370446,0.0024124756,0.058458373,-0.43617758,0.0,0.0,nan,nan,nan
670504000,-5.9310284,-7.6655374,-9.616036,-2.2411764,nan,-3.1033134,-3.9206533,-0.12119082,0.011139721,-0.004115384,0.038870037,2.0000002,0.0,2.0000002,nan,nan,nan
670700000,-6.415292,-8.277616,-9.634468,-2.2407408,nan,-3.103227,-3.9205074,-0.11514146,0.014273964,-0.008009732,0.02068121,0.0,0.0,0.0,nan,nan,nan
670892000,-6.8893356,-8.876788,-9.651678,-2.2403836,nan,-3.1030443,-3.9205832,-0.10954604,0.021895066,-0.006430609,0.03530205,0.0,0.0,0.0,nan,nan,nan
671104000,-7.412634,-9.538141,-9.669789,-2.2399936,nan,-3.10248,-3.9212813,-0.104499094,0.024020746,-0.031501044,0.020234179,0.0,0.0,-2.0000002,nan,nan,nan
671300000,-7.8952894,-10.14808,-9.685688,-2.239628,nan,-3.103045,-3.9213216,-0.099634945,-0.004763872,0.0009304788,0.03503632,0.0,0.0,0.0,nan,nan,nan
671492000,-8.367484,-10.744803,-9.700535,-2.2393324,nan,-3.1020832,-3.920882,-0.095481664,0.03443743,0.0069782287,0.03259124,0.0,-0.4125494,-1.926778,nan,nan,nan
671704000,-8.888421,-11.403095,-9.716151,-2.2391117,nan,-3.1024368,-3.9219203,-0.09052816,0.011405423,0.010685034,0.012747612,0.0,2.0000002,-2.0000002,nan,nan,nan
671900000,-9.370655,-12.012491,-9.72991,-2.2390695,nan,-3.1014862,-3.9211946,-0.08632376,0.01456207,-0.0013658814,0.007768318,0.0,0.0,0.0,nan,nan,nan
672092000,-9.843437,-12.609978,-9.742797,-2.2390647,nan,-3.1027603,-3.9210098,-0.08247244,-0.029887054,-0.0001648888,0.027557679,1.767022,0.0,0.0,nan,nan,nan
672304000,-10.359444,-13.261937,-9.756196,-2.239234,nan,-3.1037073,-3.9202106,-0.07799378,0.0064787585,-0.004274862,0.03144842,2.0000002,-2.0000002,-2.0000002,nan,nan,nan
672500000,-10.82996,-13.856418,-9.767851,-2.2395544,nan,-3.1033595,-3.9199545,-0.07382755,0.0149825085,-0.008405967,0.021688648,0.0,0.0,0.0,nan,nan,nan
672692000,-11.288043,-14.435174,-9.77866,-2.2398872,nan,-3.1029222,-3.9205413,-0.07049615,-0.012301501,-0.032072928,0.018621754,0.72359127,1.886574,0.0,nan,nan,nan
672904000,-11.793237,-15.073494,-9.790031,-2.2402277,nan,-3.103151,-3.9206595,-0.0675239,-0.04602173,-0.0093090385,-0.014484283,-2.0000002,0.0,-2.0000002,nan,nan,nan
673100000,-12.260716,-15.66409,-9.800135,-2.2406325,nan,-3.1037788,-3.9208074,-0.06554276,0.018811021,0.0203957,-0.027609464,0.0,0.0,0.0,nan,nan,nan
673292000,-12.720972,-16.245543,-9.809628,-2.2411554,nan,-3.1033814,-3.9202187,-0.06292799,0.01724411,0.018011458,0.017304702,-1.015823,0.0,-1.0193924,nan,nan,nan
673504000,-13.232419,-16.891682,-9.81968,-2.2417562,nan,-3.1026778,-3.920139,-0.059485108,-0.010948585,-0.012937188,0.0017601629,-2.0000002,0.0,-0.40906304,nan,nan,nan
673700000,-13.708127,-17.492687,-9.828581,-2.2422936,nan,-3.1031687,-3.9201143,-0.0569444,-0.038832735,-0.015534454,-0.0005491283,2.2936032,0.9175216,0.0,nan,nan,nan
673892000,-14.177462,-18.08531,-9.836991,-2.242848,nan,-3.0747323,-3.8772821,-0.05444809,0.62594676,0.9036671,0.003992443,0.0,0.0,-0.23617847,nan,nan,nan
674104000,-14.687323,-18.727158,-9.845972,-2.243519,nan,-2.9261158,-3.6807127,-0.051737107,0.9775733,1.2255393,0.0041258913,0.0,0.0,0.0,nan,nan,nan
674300000,-15.144459,-19.302874,-9.8540535,-2.244061,nan,-2.7691844,-3.4948277,-0.049277313,0.9775733,1.1022102,0.003726062,0.0,-10.0,-0.22244333,nan,nan,nan
674492000,-15.578291,-19.852396,-9.86179,-2.2445164,nan,-2.611547,-3.3225234,-0.046635583,0.9775733,1.0077015,0.005641654,0.0,-10.0,0.0,nan,nan,nan
674704000,-16.037642,-20.440216,-9.8700695,-2.2449913,nan,-2.4419036,-3.1372738,-0.0441277,0.66829914,1.0109755,0.004567826,-10.0,0.0,-1.7682323,nan,nan,nan
674900000,-16.449352,-20.964155,-9.8774605,-2.2455049,nan,-2.369959,-2.9857755,-0.042150825,0.46127886,0.8754528,0.0032196527,10.0,0.0,-0.19463031,nan,nan,nan
675092000,-16.841728,-21.457449,-9.884407,-2.2461014,nan,-2.245932,-2.826738,-0.04006161,0.81563705,0.9152906,0.0035314835,0.0,-10.0,-0.21393318,nan,nan,nan
675304000,-17.252966,-21.977665,-9.891741,-2.2462797,nan,-2.0912597,-2.6624913,-0.037232712,0.81563705,0.84960973,-0.03984364,0.0,2.0000002,-2.0000002,nan,nan,nan
675500000,-17.613935,-22.438787,-9.898315,-2.246169,nan,-1.9922093,-2.529355,-0.036147993,0.23710176,0.70651996,0.01679429,0.0,-10.0,-1.0241181,nan,nan,nan
675692000,-17.958736,-22.872402,-9.904412,-2.246138,nan,-1.9071798,-2.3888345,-0.033500154,0.6779289,0.7816857,-0.016573511,0.0,-10.0,1.0125887,nan,nan,nan
675904000,-18.319582,-23.327303,-9.910873,-2.2461016,nan,-1.7681525,-2.2455127,-0.031678487,0.6789479,0.7113499,-0.064916834,0.0,2.0000002,-2.0000002,nan,nan,nan
676100000,-18.63506,-23.729273,-9.916652,-2.2460215,nan,-1.6815038,-2.131731,-0.030109722,0.26895213,0.60076535,0.0021408796,0.0,-10.0,0.0,nan,nan,nan
676292000,-18.934658,-24.106174,-9.92203,-2.2461638,nan,-1.5974325,-2.0123875,-0.02802693,0.6100347,0.60326904,0.07082884,0.0,-10.0,0.0,nan,nan,nan
676504000,-19.246134,-24.501314,-9.927766,-2.246347,nan,-1.4806328,-1.8845222,-0.026483178,0.30354354,0.6441829,0.10306761,-10.0,0.0,2.0000002,nan,nan,nan
676700000,-19.521624,-24.848904,-9.932689,-2.2463646,nan,-1.4217188,-1.7867932,-0.024869211,0.45986265,0.53080136,0.016214546,0.0,-10.0,0.0,nan,nan,nan
676892000,-19.779335,-25.173271,-9.937311,-2.2462492,nan,-1.3357617,-1.6836524,-0.025769908,0.45986265,0.53398573,-0.022388846,0.0,-10.0,0.0,nan,nan,nan
677104000,-20.04733,-25.512009,-9.942197,-2.2460642,nan,-1.2454274,-1.5814241,-0.022443011,0.34257007,0.41771936,0.0004709419,0.0,2.0000002,-1.5506158,nan,nan,nan
677300000,-20.285025,-25.812843,-9.946501,-2.2456424,nan,-1.1860409,-1.4954244,-0.020480808,0.30333802,0.46173248,0.07247904,0.0,0.0,0.0,nan,nan,nan
677492000,-20.50633,-26.090284,-9.950533,-2.2454267,nan,-1.1144398,-1.3967717,-0.020798113,0.263338,0.4217325,0.06558659,0.0,-10.0,-4.099162,nan,nan,nan
677704000,-20.735151,-26.378004,-9.954616,-2.2452617,nan,-1.0429316,-1.3188039,-0.017529601,0.34333798,0.3817325,0.03646927,0.0,2.0000002,-2.0000002,nan,nan,nan
677900000,-20.933037,-26.629295,-9.958287,-2.245411,nan,-0.9787567,-1.240864,-0.01667344,0.223338,0.50173247,0.06814034,-10.0,0.0,0.0,nan,nan,nan
678092000,-21.116423,-26.859877,-9.961661,-2.2458181,nan,-0.9275558,-1.1679713,-0.017716525,0.303338,0.3017325,0.062809825,0.0,-10.0,-3.925614,nan,nan,nan
678304000,-21.306387,-27.100126,-9.96506,-2.2459815,nan,-0.86788815,-1.0951233,-0.014817846,0.223338,0.4217325,0.01939829,0.0,2.0000002,-2.0000002,nan,nan,nan
678500000,-21.471792,-27.307974,-9.968096,-2.2459602,nan,-0.8182739,-1.0285434,-0.016269973,0.263338,0.3017325,-0.049985085,0.0,-10.0,0.0,nan,nan,nan
678692000,-21.624157,-27.499786,-9.971055,-2.2456553,nan,-0.7706729,-0.9697305,-0.015316446,0.223338,0.26173252,0.036809567,0.0,-10.0,0.0,nan,nan,nan
678904000,-21.782518,-27.69905,-9.973969,-2.2453403,nan,-0.72332513,-0.91000295,-0.0119568985,0.223338,0.3017325,0.00915812,0.0,2.0000002,-2.0000002,nan,nan,nan
679100000,-21.920052,-27.872202,-9.976447,-2.2450814,nan,-0.68155074,-0.8571832,-0.009932115,0.18333799,0.26173252,0.004261188,0.0,-10.0,0.0,nan,nan,nan
679292000,-22.047287,-28.032263,-9.978636,-2.244761,nan,-0.6419497,-0.81037074,-0.011862393,0.223338,0.22173251,-0.060591053,0.0,-10.0,0.0,nan,nan,nan
679504000,-22.179695,-28.198658,-9.9810915,-2.2440774,nan,-0.605553,-0.7548927,-0.012660289,0.2746704,0.28138602,0.014021732,2.0000002,0.0,2.0000002,nan,nan,nan
679700000,-22.294926,-28.34314,-9.983071,-2.2425847,nan,-0.57066894,-0.7205202,-0.010980942,0.20373634,0.17710881,0.01857391,0.0,-10.0,0.0,nan,nan,nan
679892000,-22.400892,-28.477154,-9.984976,-2.2410302,nan,-0.5359513,-0.67299527,-0.009677616,0.16373633,0.2171088,-0.029768128,0.0,-10.0,1.860508,nan,nan,nan
680104000,-22.511114,-28.615686,-9.98705,-2.2398384,nan,-0.50651544,-0.63630587,-0.008906462,0.160953,0.1626797,0.08363873,2.0000002,2.0000002,2.0000002,nan,nan,nan
680300000,-22.607244,-28.736954,-9.988632,-2.2388213,nan,-0.47393358,-0.6000926,-0.0074965917,0.1687624,0.17014377,0.018910982,0.0,-10.0,0.0,nan,nan,nan
680492000,-22.695505,-28.848297,-9.990148,-2.240658,nan,-0.44577116,-0.55934495,-0.0076299696,0.2087624,0.13014375,-0.044077575,0.0,-10.0,2.7548487,nan,nan,nan
680704000,-22.783318,-28.968178,-9.991817,-2.1275604,nan,-0.32495353,-0.5969546,-0.009843,1.5287623,-0.38985625,-0.041009653,10.0,0.0,2.0000002,nan,nan,nan
680900000,-22.805328,-29.09267,-9.993337,-1.9736218,nan,0.1532439,-0.6733665,-0.008072856,2.9687624,-0.38985625,-0.08544619,0.0,0.0,0.0,nan,nan,nan
681092000,-22.731234,-29.218475,-9.994588,-1.822825,nan,0.6807573,-0.74263936,-0.008082308,2.9687624,-0.38985625,-0.007199364,0.0,0.0,0.0,nan,nan,nan
681304000,-22.601147,-29.330374,-9.995493,-1.6563201,nan,1.1116732,-0.799227,-0.00681209,2.9687624,-0.38985625,-0.029987246,0.0,0.0,2.0000002,nan,nan,nan
681500000,-22.440144,-29.432037,-9.99631,-1.5023816,nan,1.4804696,-0.82691205,-0.006663089,2.9687624,-0.0112079475,0.013110626,0.0,0.0,-0.7472093,nan,nan,nan
681692000,-22.249596,-29.527065,-9.997017,-1.3515847,nan,1.8229548,-0.81687015,-0.005935672,2.9687624,0.18131803,0.00729498,0.0,0.0,0.0,nan,nan,nan
681904000,-22.003675,-29.625465,-9.997737,-1.1850798,nan,2.1707513,-0.7799909,-0.005805395,2.3941019,0.4820055,-0.030670928,-10.0,2.0000002,-2.0000002,nan,nan,nan
682100000,-21.748924,-29.708649,-9.998375,-1.0311413,nan,2.3780549,-0.6996589,-0.005771996,1.3924602,1.0059904,-0.006422689,-10.0,0.0,0.0,nan,nan,nan
682292000,-21.482168,-29.77928,-9.998981,-0.8803448,nan,2.4706016,-0.58942276,-0.0052078413,0.29666296,1.0059904,0.013762139,-10.0,0.0,0.0,nan,nan,nan
682504000,-21.181189,-29.844332,-9.999633,-0.7138404,nan,2.4322274,-0.4905575,-0.00533843,-0.924926,0.31280315,-0.0033896873,-10.0,-10.0,0.0,nan,nan,nan
682700000,-20.910038,-29.90028,-10.000231,-0.5599024,nan,2.2637258,-0.48735487,-0.005180522,-1.7909677,-0.0367204,0.015785767,10.0,0.0,-0.8951789,nan,nan,nan
682892000,-20.658184,-29.956726,-10.000808,-0.40910602,nan,2.0820286,-0.4801233,-0.004927828,-1.2573838,0.15711641,-0.008317882,10.0,0.0,0.0,nan,nan,nan
683104000,-20.390848,-30.018362,-10.001444,-0.24260163,nan,1.9545736,-0.44128272,-0.0043496545,-0.7837763,0.4330273,-0.006336881,0.0,0.0,-2.0000002,nan,nan,nan
683300000,-20.14993,-30.070524,-10.002035,-0.08866353,nan,1.8761438,-0.3867289,-0.0044922205,-0.52782416,0.4330273,0.031095106,10.0,0.0,-1.7859575,nan,nan,nan
683492000,-19.91859,-30.117336,-10.002595,0.007933652,nan,1.8049915,-0.36639485,-0.00472883,-0.6065993,0.094450615,0.00870613,0.0,0.0,0.0,nan,nan,nan
683704000,-19.669695,-30.167343,-10.003187,0.01459149,nan,1.7235737,-0.33797228,-0.004246475,-0.55341727,0.25382146,-0.0137662385,0.0,0.0,0.0,nan,nan,nan
683900000,-19.446104,-30.20987,-10.003727,0.02153467,nan,1.6545032,-0.30436462,-0.0037609504,-0.49968275,0.25382146,0.01170603,10.0,0.0,0.0,nan,nan,nan
684092000,-19.233675,-30.247902,-10.0042305,0.028031409,nan,1.5893117,-0.28024673,-0.0038946043,-0.47235453,0.11744466,-0.020351475,10.0,0.0,1.1790513,nan,nan,nan
684304000,-19.0066,-30.287575,-10.004784,0.034709234,nan,1.5218155,-0.26244205,-0.0036616502,-0.38940173,0.14510643,0.0019141505,-2.0000002,0.0,-0.311015,nan,nan,nan
684500000,-18.80316,-30.321985,-10.005265,0.04088893,nan,1.4579223,-0.24096867,-0.0034004604,-0.44462454,0.17297807,0.0019141505,10.0,0.0,0.0,nan,nan,nan
684692000,-18.610504,-30.352907,-10.005735,0.04689837,nan,1.399653,-0.21764325,-0.0036218346,-0.41660708,0.17297807,-0.005204889,10.0,0.0,0.0,nan,nan,nan
684904000,-18.40539,-30.383842,-10.006236,0.053631846,nan,1.3369441,-0.19690825,-0.003174993,-0.41666812,0.116446115,0.0019385386,-2.0000002,0.0,0.0,nan,nan,nan
685100000,-18.22279,-30.41018,-10.006677,0.06013312,nan,1.281072,-0.18066296,-0.0028842748,-0.3597659,0.116446115,0.007484477,10.0,0.0,0.0,nan,nan,nan
685292000,-18.050293,-30.434114,-10.007097,0.066622905,nan,1.2296702,-0.16813865,-0.0028752878,-0.35980514,0.08788454,0.005175313,10.0,0.0,0.0,nan,nan,nan
685504000,-17.867151,-30.458729,-10.007551,0.07386923,nan,1.1728222,-0.15473905,-0.003098115,-0.35985777,0.08788454,0.011854809,0.0,0.0,2.0000002,nan,nan,nan
685700000,-17.704756,-30.479744,-10.007949,0.08133994,nan,1.123654,-0.14201067,-0.0025748163,-0.18637222,0.116803825,0.005712905,10.0,0.0,0.0,nan,nan,nan
685892000,-17.551113,-30.498377,-10.008327,0.08872845,nan,1.0834587,-0.12762375,-0.0026613793,-0.3311417,0.05887457,0.0041584023,10.0,0.0,-0.24314232,nan,nan,nan
686104000,-17.388582,-30.517307,-10.008713,0.09691654,nan,1.0302961,-0.11857012,-0.0026805804,-0.3603056,0.05887457,-0.021272182,-2.0000002,0.0,0.0,nan,nan,nan
686300000,-17.245106,-30.533587,-10.009063,0.10526896,nan,0.9850618,-0.109381594,-0.0024362511,-0.18580592,0.08795595,-0.020305043,10.0,0.0,1.1879654,nan,nan,nan
686492000,-17.109833,-30.548008,-10.00939,0.11356725,nan,0.94928694,-0.09713981,-0.002112587,-0.30227098,0.05886229,0.005542704,0.0,-10.0,0.0,nan,nan,nan
686704000,-16.967075,-30.56261,-10.0097475,0.1219205,nan,0.9009997,-0.09161224,-0.0022439274,-0.24398316,0.05890383,0.010101408,-2.0000002,0.0,0.0,nan,nan,nan
686900000,-16.840757,-30.575068,-10.010055,0.13013008,nan,0.8668647,-0.08235157,-0.0019301941,-0.2479801,0.06426506,-0.0022810772,0.0,0.0,0.0,nan,nan,nan
687092000,-16.72158,-30.586044,-10.0103445,0.13829118,nan,0.8299239,-0.07546782,-0.0019205014,-0.27740335,0.0057103783,0.027347999,0.0,0.0,0.0,nan,nan,nan
687304000,-16.595652,-30.597406,-10.010643,0.14606547,nan,0.79131866,-0.06844812,-0.0016230653,-0.2186973,0.064428434,0.01995228,-2.0000002,0.0,0.0,nan,nan,nan
687500000,-16.483583,-30.60687,-10.010911,0.15383151,nan,0.7564051,-0.064142175,-0.0023489862,-0.3074271,0.034944244,-0.007568842,0.0,0.0,0.0,nan,nan,nan
687692000,-16.37848,-30.615538,-10.011157,0.16217117,nan,0.7255176,-0.058313176,-0.0021614996,-0.2535671,0.03401626,0.021065792,0.0,0.0,-1.236122,nan,nan,nan
687904000,-16.267757,-30.624275,-10.011471,0.17200336,nan,0.68733394,-0.052972145,-0.0023541877,-0.105398,0.03401626,0.05638518,10.0,0.0,2.0000002,nan,nan,nan
688100000,-16.169655,-30.631655,-10.011693,0.18216093,nan,0.6591493,-0.048664525,-0.0013233246,-0.14474708,0.028978556,0.05049169,0.0,0.0,0.0,nan,nan,nan
688292000,-16.077703,-30.63825,-10.011878,0.1927352,nan,0.634293,-0.043398034,-0.0012387475,-0.16799696,0.042551085,-0.007010339,0.0,0.0,0.0,nan,nan,nan
688504000,-15.980435,-30.64481,-10.012138,0.20440759,nan,0.60060513,-0.040622674,-0.0020965936,-0.13899806,0.012895156,0.01839195,10.0,0.0,2.0000002,nan,nan,nan
688700000,-15.894709,-30.650427,-10.012372,0.21477386,nan,0.57519704,-0.03681168,-0.0012341345,-0.09431441,0.022389043,0.009542773,0.0,0.0,0.0,nan,nan,nan
688892000,-15.814025,-30.655468,-10.012581,0.20560609,nan,0.5497705,-0.033670206,-0.0012445311,-0.18613493,0.019045739,0.02166795,0.0,0.0,0.0,nan,nan,nan
689104000,-15.728139,-30.660498,-10.012777,0.13020782,nan,0.5491247,-0.030612335,-0.0016420352,0.5475169,0.0054114554,-0.003627628,10.0,0.0,2.0000002,nan,nan,nan
689300000,-15.635803,-30.664957,-10.012962,0.03652044,nan,0.7387609,-0.029813888,-0.0012372457,2.0229921,0.0054114554,-0.018894974,10.0,0.0,1.1121788,nan,nan,nan
689492000,-15.5032835,-30.669209,-10.013152,0.03678395,nan,1.121417,-0.029032493,-0.0018578279,2.9865105,0.0054114554,0.013921127,0.0,0.0,0.0,nan,nan,nan
689704000,-15.289606,-30.673716,-10.013338,0.037154853,nan,1.5918112,-0.028180158,-0.0012255741,2.9865105,0.0054114554,-0.005878782,0.0,0.0,0.0,nan,nan,nan
689900000,-15.032848,-30.67767,-10.013496,0.037603043,nan,2.0168002,-0.027410086,-0.0008866242,2.9865105,0.0054114554,0.005758074,0.0,0.0,0.0,nan,nan,nan
690092000,-14.730887,-30.681347,-10.013646,0.0382538,nan,2.4230351,-0.026674002,-0.0010259154,2.9865105,0.0054114554,0.01880757,0.0,0.0,-1.092295,nan,nan,nan
690304000,-14.34234,-30.685207,-10.013804,0.039369036,nan,2.856547,-0.025878208,-0.0010665139,2.6562896,0.0054114554,0.036230743,-10.0,0.0,2.0000002,nan,nan,nan
690500000,-13.939305,-30.688463,-10.013939,0.040907882,nan,3.122887,-0.022182511,-0.0013073364,1.314947,0.03289316,0.0086151585,-10.0,0.0,0.0,nan,nan,nan
690692000,-13.520316,-30.691101,-10.01405,0.042788517,nan,3.209341,-0.017849375,-0.0009856783,-0.0023887847,0.03289316,-0.03198151,-10.0,0.0,1.8521066,nan,nan,nan
690904000,-13.048756,-30.69339,-10.014194,0.045043617,nan,3.098506,-0.012959896,-0.00019049231,-1.4888619,0.03289316,0.017720181,-10.0,0.0,-2.0000002,nan,nan,nan
691100000,-12.627271,-30.6949,-10.014285,0.047287077,nan,2.8262672,-0.008287291,2.3747021e-05,-1.828675,0.03289316,-0.008962987,10.0,0.0,0.0,nan,nan,nan
691292000,-12.237403,-30.695957,-10.014405,0.049493987,nan,2.6098566,-0.007083115,-0.001348162,-1.2310553,0.003170129,-0.007187469,10.0,0.0,0.0,nan,nan,nan
691504000,-11.826073,-30.69707,-10.014519,0.051767047,nan,2.4524658,-0.0065668486,-0.0007559243,-0.83388716,0.003170129,0.022364154,-2.0000002,0.0,0.0,nan,nan,nan
691700000,-11.460693,-30.698034,-10.01464,0.053772874,nan,2.3303354,-0.006082304,-0.00058900117,-0.74104273,0.003170129,0.029971037,10.0,0.0,0.0,nan,nan,nan
691892000,-11.116774,-30.69892,-10.014729,0.055644464,nan,2.22258,-0.0056032287,-0.0009804704,-0.6784221,0.003170129,0.00815383,10.0,0.0,0.0,nan,nan,nan
692104000,-10.726892,-30.699879,-10.014903,0.057832807,nan,2.1020355,-0.005031514,0.0007536418,-0.67178077,0.003170129,0.044963732,-2.0000002,0.0,-2.0000002,nan,nan,nan
692300000,-10.374122,-30.700697,-10.014957,0.06015196,nan,1.9936496,-0.004485349,-0.000239483,-0.60095936,0.003170129,0.039947312,10.0,0.0,0.0,nan,nan,nan
692492000,-10.04484,-30.70141,-10.015081,0.06190519,nan,1.8928785,-0.003948164,0.0003168888,-0.5692106,0.003170129,0.0046947077,10.0,0.0,0.0,nan,nan,nan
692704000,-9.709441,-30.702074,-10.015098,0.06405868,nan,1.78996,-0.003370676,-0.00041787513,-0.56073236,0.003170129,-0.06801971,-2.0000002,0.0,-2.0000002,nan,nan,nan
692900000,-9.406539,-30.70261,-10.015258,0.06599863,nan,1.6976781,-0.002819939,-0.0016705141,-0.48693538,0.003170129,0.017010402,10.0,0.0,0.0,nan,nan,nan
693092000,-9.129736,-30.70304,-10.015395,0.06818486,nan,1.6134439,-0.002289838,-0.0013773515,-0.47696257,0.003170129,0.034798786,10.0,0.0,-2.0782988,nan,nan,nan
693304000,-8.829765,-30.7037,-10.015473,0.07052351,nan,1.521587,-0.004327322,-0.0018102265,-0.3280256,0.003170129,0.046489745,10.0,0.0,2.0000002,nan,nan,nan
693500000,-8.564387,-30.704426,-10.015635,0.07277898,nan,1.4415283,-0.0037603797,-0.0027130619,-0.3562267,0.003170129,0.026626132,0.0,0.0,0.0,nan,nan,nan
693692000,-8.312451,-30.70505,-10.015852,0.0749922,nan,1.3696715,-0.0031915067,0.0005336619,-0.34929726,0.003170129,0.08918129,0.0,0.0,0.0,nan,nan,nan
693904000,-8.0431795,-30.705631,-10.016053,0.077606276,nan,1.2810292,-0.0025475447,-0.0022456131,-0.41635427,0.003170129,-0.011196829,-2.0000002,0.0,2.0000002,nan,nan,nan
694100000,-7.810639,-30.706053,-10.016267,0.08078936,nan,1.2107564,-0.0019557816,-0.0005439545,-0.35622105,0.003170129,0.058145843,10.0,0.0,-3.490493,nan,nan,nan
694292000,-7.5907907,-30.706364,-10.0163555,0.08375439,nan,1.1437265,-0.0013636276,-6.4886066e-05,-0.32830313,0.003170129,-0.023763813,10.0,0.0,1.4277616,nan,nan,nan
694504000,-7.3614497,-30.70658,-10.016435,0.086746275,nan,1.0737214,-0.00070767023,-0.00088555034,-0.33912095,0.003170129,0.05350863,-2.0000002,0.0,2.0000002,nan,nan,nan
694700000,-7.158388,-30.706953,-10.016556,0.089587316,nan,1.012187,-0.0019853506,0.0003106125,-0.3116062,0.003170129,0.08126694,0.0,0.0,0.0,nan,nan,nan
694892000,-6.9695644,-30.707275,-10.016435,0.09239032,nan,0.9553186,-0.0013766857,0.0009770322,-0.2716062,0.003170129,0.01701355,10.0,0.0,0.0,nan,nan,nan
695104000,-6.7733536,-30.707499,-10.016352,0.09549558,nan,0.89773816,-0.00070461817,-0.0007359907,-0.2716062,0.003170129,-0.08504906,-2.0000002,0.0,-2.0000002,nan,nan,nan
695300000,-6.6022196,-30.707575,-10.016369,0.09916232,nan,0.84842336,-8.327286e-05,-0.00076978374,-0.2316062,0.003170129,0.019168593,10.0,0.0,0.0,nan,nan,nan
695492000,-6.4440584,-30.70768,-10.016349,0.1024186,nan,0.797075,-0.0023546084,-0.0006030473,-0.3116062,0.003170129,-0.040000003,0.0,0.0,0.0,nan,nan,nan
695704000,-6.2801623,-30.708109,-10.01638,0.10626435,nan,0.7460544,-0.0016825414,9.135279e-05,-0.15160623,0.003170129,-0.0384,10.0,0.0,-2.0000002,nan,nan,nan
695900000,-6.13774,-30.708378,-10.016397,0.11005816,nan,0.71001965,-0.001061196,6.191278e-05,-0.19160627,0.003170129,-0.032,0.0,0.0,2.0000002,nan,nan,nan
696092000,-6.0058846,-30.708523,-10.016479,0.114251584,nan,0.6625913,-0.00045253107,-4.304733e-05,-0.23160626,0.003170129,0.0,10.0,0.0,0.0,nan,nan,nan
696304000,-5.8694167,-30.70855,-10.016487,0.11623939,nan,0.6216507,-0.00018046377,-4.304733e-05,-0.23160626,-0.036829874,0.0,-2.0000002,-2.0000002,0.0,nan,nan,nan
696500000,-5.745812,-30.705055,-10.016495,0.20264028,nan,0.6937305,0.05844088,-4.304733e-05,1.2867148,0.4831701,0.0,10.0,0.0,0.0,nan,nan,nan
696692000,-5.5771337,-30.68493,-10.016502,0.20318066,nan,1.1217396,0.15120955,-4.304733e-05,2.9667149,0.4831701,0.0,0.0,0.0,0.0,nan,nan,nan
696904000,-5.3061147,-30.646854,-10.016511,0.20360646,nan,1.6930372,0.24425317,-4.304733e-05,2.9667149,0.4831701,0.0,0.0,0.0,0.0,nan,nan,nan
697100000,-4.981927,-30.599312,-10.016519,0.2039999,nan,2.1885874,0.3249603,-4.304733e-05,2.9667149,0.4831701,0.0,0.0,0.0,0.0,nan,nan,nan
697292000,-4.5991793,-30.541578,-10.016526,0.20452589,nan,2.6572413,0.40629947,-4.304733e-05,2.9667149,0.51667833,0.0,0.0,0.0,0.0,nan,nan,nan
697504000,-4.11051,-30.465967,-10.016535,0.20527406,nan,3.1560133,0.49316472,-4.304733e-05,2.9667149,0.51667833,0.0,0.0,0.0,0.0,nan,nan,nan
697700000,-3.6016786,-30.385551,-10.016542,0.20607899,nan,3.602712,0.57531875,-4.304733e-05,2.9667149,0.54787284,0.0,0.0,0.0,0.0,nan,nan,nan
697892000,-3.054978,-30.297337,-10.01655,0.20698382,nan,4.0278215,0.65682256,-4.304733e-05,2.9667149,0.5779658,0.0,0.0,0.0,0.0,nan,nan,nan
698104000,-2.39573,-30.188332,-10.016559,0.20810673,nan,4.4869566,0.75241774,-4.304733e-05,2.9673836,0.6367719,0.0,2.0000002,0.0,0.0,nan,nan,nan
698300000,-1.7345806,-30.07507,-10.016566,0.20933932,nan,4.807136,0.84810823,-4.304733e-05,1.5497628,0.7239504,0.0,-10.0,0.0,0.0,nan,nan,nan
698492000,-1.0526317,-29.949001,-10.016574,0.21063265,nan,4.937723,0.95947987,-4.304733e-05,0.32844424,0.6649253,0.0,-10.0,-10.0,0.0,nan,nan,nan
698704000,-0.27690417,-29.796202,-10.0165825,0.21193749,nan,4.91386,0.95180804,-4.304733e-05,-0.35129985,-0.42857715,0.0,-2.0000002,0.0,0.0,nan,nan,nan
698900000,0.45703468,-29.654434,-10.01659,0.2128993,nan,4.9103475,0.9572982,-4.304733e-05,-0.04344984,0.15447798,0.0,0.0,-10.0,0.0,nan,nan,nan
699092000,1.1939799,-29.51076,-10.016598,0.2137251,nan,4.908481,0.9576938,-4.304733e-05,0.01635592,0.06805319,0.0,0.0,-4.0270576,0.0,nan,nan,nan
699304000,2.0224283,-29.348473,-10.016606,0.21463986,nan,4.9066234,0.9641344,-4.304733e-05,-0.042115603,0.057717368,0.0,-2.0000002,0.0,0.0,nan,nan,nan
699500000,2.799137,-29.195541,-10.016614,0.21547693,nan,4.904949,0.9681769,-4.304733e-05,-0.0031004325,-0.0071031414,0.0,0.0,0.0,0.0,nan,nan,nan
699692000,3.5681987,-29.043447,-10.016622,0.21621943,nan,4.904186,0.97168505,-4.304733e-05,-0.0012795739,-0.011485241,0.0,0.0,0.0,0.0,nan,nan,nan
699904000,4.4247556,-28.873346,-10.01663,0.21689491,nan,4.9048796,0.9761726,-4.304733e-05,-0.0054633133,0.034426466,0.0,-2.0000002,0.0,0.0,nan,nan,nan
700100000,5.2228427,-28.71418,-10.016638,0.21747662,nan,4.903571,0.9794031,-4.304733e-05,0.0009301342,0.0011200085,0.0,0.0,0.0,0.0,nan,nan,nan
700292000,6.0099373,-28.556652,-10.016645,0.21809426,nan,4.902611,0.98379725,-4.304733e-05,-0.023580836,0.0503139,0.0,1.4140248,0.0,0.0,nan,nan,nan
700504000,6.8834906,-28.381144,-10.016654,0.21879123,nan,4.9006014,0.98658735,-4.304733e-05,0.019715186,0.007918134,0.0,2.0000002,0.0,0.0,nan,nan,nan
700700000,7.695038,-28.217546,-10.016662,0.21941893,nan,4.9004216,0.98904914,-4.304733e-05,0.020401318,0.00545123,0.0,0.0,0.0,0.0,nan,nan,nan
700892000,8.493821,-28.056063,-10.016669,0.2200506,nan,4.900686,0.99201614,-4.304733e-05,0.010455707,0.02265261,0.0,-0.6291882,-1.3631555,0.0,nan,nan,nan
701104000,9.379518,-27.87647,-10.016678,0.22085199,nan,4.900891,0.99556357,-4.304733e-05,0.0029148236,0.04534753,0.0,-2.0000002,0.0,0.0,nan,nan,nan
701300000,10.197488,-27.710014,-10.0166855,0.22180474,nan,4.8259134,0.9857423,-4.304733e-05,-1.1509123,-0.15611273,0.0,0.0,0.0,0.0,nan,nan,nan
701492000,10.9873495,-27.547747,-10.016693,0.22285031,nan,4.612645,0.9522727,-4.304733e-05,-1.3282973,-0.22465566,0.0,10.0,0.0,0.0,nan,nan,nan
701704000,11.865189,-27.366156,-10.016702,0.22384813,nan,4.3463736,0.90081424,-4.304733e-05,-1.3918301,-0.26465565,0.0,-2.0000002,0.0,0.0,nan,nan,nan
701900000,12.635051,-27.206234,-10.016709,0.22461638,nan,4.0930114,0.851997,-4.304733e-05,-1.3863212,-0.30465564,0.0,10.0,0.0,0.0,nan,nan,nan
702092000,13.357555,-27.056175,-10.016717,0.22519955,nan,3.8492875,0.79653394,-4.304733e-05,-1.2253847,-0.30465564,0.0,10.0,0.0,0.0,nan,nan,nan
702304000,14.130993,-26.897305,-10.016726,0.22568698,nan,3.6027472,0.73325706,-4.304733e-05,-1.1483785,-0.30465564,0.0,-2.0000002,0.0,0.0,nan,nan,nan
702500000,14.800317,-26.76237,-10.016733,0.22617283,nan,3.3932793,0.6827574,-4.304733e-05,-1.0694013,0.0002194792,0.0,0.0,0.0,0.0,nan,nan,nan
702692000,15.420269,-26.635126,-10.016741,0.22661231,nan,3.199843,0.6631614,-4.304733e-05,-0.98815626,-0.19978054,0.0,10.0,0.0,0.0,nan,nan,nan
702904000,16.065636,-26.501343,-10.016749,0.2271436,nan,2.9994078,0.62155193,-4.304733e-05,-0.9453913,-0.19978054,0.0,-2.0000002,0.0,0.0,nan,nan,nan
703100000,16.624758,-26.385685,-10.016757,0.22750355,nan,2.8264785,0.58319503,-4.304733e-05,-0.8654362,-0.19978054,0.0,10.0,0.0,0.0,nan,nan,nan
703292000,17.147074,-26.278328,-10.016765,0.22779168,nan,2.6654174,0.5451788,-4.304733e-05,-0.8025296,-0.19978054,0.0,10.0,0.0,0.0,nan,nan,nan
703504000,17.694008,-26.16706,-10.016773,0.22809976,nan,2.4962409,0.5065854,-4.304733e-05,-0.8025296,-0.15978053,0.0,-2.0000002,0.0,0.0,nan,nan,nan
703700000,18.16875,-26.07008,-10.016781,0.22826366,nan,2.349184,0.4830284,-4.304733e-05,-0.72252953,-0.119780526,0.0,10.0,0.0,0.0,nan,nan,nan
703892000,18.606781,-25.979553,-10.0167885,0.22840059,nan,2.2139,0.46003056,-4.304733e-05,-0.6825295,-0.119780526,0.0,10.0,0.0,0.0,nan,nan,nan
704104000,19.061165,-25.88506,-10.016797,0.22849508,nan,2.0758436,0.42943713,-4.304733e-05,-0.6425295,-0.15978053,0.0,-2.0000002,0.0,0.0,nan,nan,nan
704300000,19.45608,-25.803942,-10.016805,0.22864029,nan,1.9538275,0.3991602,-4.304733e-05,-0.60252947,-0.119780526,0.0,10.0,0.0,0.0,nan,nan,nan
704492000,19.820255,-25.729362,-10.016812,0.22903363,nan,1.8411822,0.3796023,-4.304733e-05,-0.5225294,-0.07978052,0.0,10.0,0.0,0.0,nan,nan,nan
704704000,20.198265,-25.650753,-10.016821,0.22939827,nan,1.7246463,0.3603688,-4.304733e-05,-0.5225294,-0.119780526,0.0,0.0,0.0,0.0,nan,nan,nan
704900000,20.526566,-25.582424,-10.016829,0.22974375,nan,1.625671,0.3368918,-4.304733e-05,-0.48252943,-0.119780526,0.0,10.0,0.0,0.0,nan,nan,nan
705092000,20.829681,-25.51993,-10.016836,0.22998077,nan,1.5335853,0.31549397,-4.304733e-05,-0.44252944,-0.039780516,0.0,10.0,0.0,0.0,nan,nan,nan
705304000,21.144753,-25.454409,-10.016845,0.23021884,nan,1.446329,0.29858053,-4.304733e-05,-0.36252943,-0.119780526,0.0,-2.0000002,0.0,0.0,nan,nan,nan
705500000,21.420334,-25.397839,-10.016852,0.23066716,nan,1.3645527,0.2824636,-4.304733e-05,-0.4425294,-0.039780516,0.0,0.0,0.0,0.0,nan,nan,nan
705692000,21.673666,-25.344942,-10.01686,0.23156385,nan,1.2777469,0.26506576,-4.304733e-05,-0.40252945,-0.119780526,0.0,10.0,0.0,0.0,nan,nan,nan
705904000,21.936367,-25.29054,-10.016869,0.23272245,nan,1.2044106,0.25247234,-4.304733e-05,-0.40252942,-0.039780516,0.0,-2.0000002,0.0,0.0,nan,nan,nan
706100000,22.164165,-25.242847,-10.016876,0.23427065,nan,1.1246347,0.23211536,-4.304733e-05,-0.36252943,-0.07978052,0.0,0.0,10.0,0.0,nan,nan,nan
706292000,22.374052,-25.199003,-10.016884,0.23509014,nan,1.0667547,0.22166035,-4.304733e-05,-0.17002355,-0.09582442,0.0,0.0,0.0,0.0,nan,nan,nan
706504000,22.592663,-25.15363,-10.016892,0.23591754,nan,0.9951897,0.20902556,-4.304733e-05,-0.17002356,-0.09582442,0.0,10.0,-2.0000002,0.0,nan,nan,nan
706700000,22.783241,-25.11414,-10.0169,0.23676065,nan,0.94318205,0.19396195,-4.304733e-05,-0.29601884,-0.07665953,0.0,10.0,0.0,0.0,nan,nan,nan
706892000,22.958714,-25.077496,-10.016908,0.23759778,nan,0.8899915,0.18613786,-4.304733e-05,-0.22081508,-0.06132762,0.0,10.0,0.0,0.0,nan,nan,nan
707104000,23.14144,-25.039415,-10.016916,0.23818383,nan,0.83229876,0.17313628,-4.304733e-05,-0.30081508,-0.06132762,0.0,-2.0000002,0.0,0.0,nan,nan,nan
707300000,23.299278,-25.006517,-10.016924,0.23834622,nan,0.781979,0.16399601,-4.304733e-05,-0.060815096,-0.06132762,0.0,0.0,0.0,0.0,nan,nan,nan
707492000,23.445393,-24.97613,-10.016932,0.24062295,nan,0.73574257,0.15374103,-4.304733e-05,-0.3008151,-0.021327619,0.0,-10.0,0.0,0.0,nan,nan,nan
707704000,23.578732,-24.942095,-10.01694,0.40712732,nan,0.44724974,0.17057957,-4.304733e-05,-2.4208152,0.09867239,0.0,-10.0,0.0,0.0,nan,nan,nan
707900000,23.613106,-24.908485,-10.016948,0.5610653,nan,-0.0925168,0.18902448,-4.304733e-05,-2.9808152,0.09867239,0.0,0.0,0.0,0.0,nan,nan,nan
708092000,23.579105,-24.88445,-10.016955,0.7118617,nan,-0.45961347,0.20117629,-4.304733e-05,-2.9808152,0.09867239,0.0,0.0,0.0,0.0,nan,nan,nan
708304000,23.498476,-24.85856,-10.016964,0.8783661,nan,-0.83182293,0.21349734,-4.304733e-05,-2.9808152,0.09867239,0.0,0.0,0.0,0.0,nan,nan,nan
708500000,23.390688,-24.834818,-10.016968,1.0323042,nan,-1.1552125,0.22420233,-4.304733e-05,-2.9808152,0.09867239,0.0,0.0,0.0,0.0,nan,nan,nan
708692000,23.256733,-24.811619,-10.016968,1.183101,nan,-1.4605188,0.22692643,-4.304733e-05,-2.9808152,-0.008598115,0.0,0.0,0.0,0.0,nan,nan,nan
708904000,23.07525,-24.786465,-10.016968,1.3496059,nan,-1.7928182,0.22297211,-4.304733e-05,-2.9599426,-0.07185508,0.0,0.0,-2.0000002,0.0,nan,nan,nan
709100000,22.874294,-24.763708,-10.016968,1.5035444,nan,-2.0469236,0.21255292,-4.304733e-05,-1.9181108,-0.13583787,0.0,10.0,0.0,0.0,nan,nan,nan
709292000,22.650465,-24.742317,-10.01697,1.6543413,nan,-2.1933038,0.19318606,-4.304733e-05,-0.86691713,-0.20109414,0.0,10.0,0.0,0.0,nan,nan,nan
709504000,22.380642,-24.720333,-10.016978,1.8208462,nan,-2.2248356,0.16876003,-4.304733e-05,0.34773868,-0.20109414,0.0,10.0,0.0,0.0,nan,nan,nan
709700000,22.122025,-24.701735,-10.016986,1.9747847,nan,-2.1132824,0.1449127,-4.304733e-05,1.5336175,-0.20109414,0.0,10.0,0.0,0.0,nan,nan,nan
709892000,21.873611,-24.68507,-10.0169935,2.1255815,nan,-1.9303826,0.12992616,-4.304733e-05,1.1418589,-0.020785967,0.0,-10.0,0.0,0.0,nan,nan,nan
710104000,21.605728,-24.666384,-10.017002,2.2920864,nan,-1.8009257,0.1277252,-4.304733e-05,0.5965066,-0.07710268,0.0,-10.0,-2.0000002,0.0,nan,nan,nan
710300000,21.360779,-24.649342,-10.01701,2.446025,nan,-1.7184172,0.11698773,-4.304733e-05,0.59659654,-0.07710268,0.0,0.0,0.0,0.0,nan,nan,nan
710492000,21.124228,-24.633656,-10.017017,2.5968218,nan,-1.6472397,0.10614764,-4.304733e-05,0.45039904,-0.07710268,0.0,0.0,0.0,0.0,nan,nan,nan
710704000,20.869066,-24.617777,-10.017026,2.7633266,nan,-1.567185,0.093907714,-4.304733e-05,0.51154035,-0.07710268,0.0,2.0000002,0.0,0.0,nan,nan,nan
710900000,20.640247,-24.60456,-10.017034,2.9172652,nan,-1.4970764,0.08473886,-4.304733e-05,0.45302686,-0.015818633,0.0,-10.0,0.0,0.0,nan,nan,nan
711092000,20.423134,-24.592274,-10.017041,3.068062,nan,-1.4298677,0.07975766,-4.304733e-05,0.45302686,-0.046737533,0.0,0.0,0.0,0.0,nan,nan,nan
711304000,20.191156,-24.579689,-10.01705,-3.1285043,nan,-1.3623908,0.072005525,-4.304733e-05,0.3590557,-0.046737533,0.0,-10.0,0.0,0.0,nan,nan,nan
711500000,19.985092,-24.569101,-10.017057,-3.1266859,nan,-1.3014457,0.06476915,-4.304733e-05,0.3587712,-0.046737533,0.0,0.0,0.0,0.0,nan,nan,nan
711692000,19.791006,-24.559757,-10.017065,-3.1249263,nan,-1.239842,0.057631865,-4.304733e-05,0.3920089,-0.046737533,0.0,-10.0,0.0,0.0,nan,nan,nan
711904000,19.58645,-24.550491,-10.017074,-3.1230924,nan,-1.1760054,0.053038742,-4.304733e-05,0.3612749,-0.014754567,0.0,0.0,0.0,0.0,nan,nan,nan
712100000,19.405891,-24.542517,-10.017081,-3.121128,nan,-1.1217449,0.04726344,-4.304733e-05,0.29774484,-0.0468659,0.0,-10.0,0.0,0.0,nan,nan,nan
712292000,19.2362,-24.53558,-10.017089,-3.119243,nan,-1.0730588,0.043495767,-4.304733e-05,0.33134362,-0.014641661,0.0,0.0,0.0,0.0,nan,nan,nan
712504000,19.057276,-24.528355,-10.017097,-3.1175199,nan,-1.0160155,0.040093757,-4.304733e-05,0.36377758,-0.04705365,0.0,0.0,0.0,0.0,nan,nan,nan
712700000,18.89878,-24.52249,-10.017105,-3.115935,nan,-0.9746687,0.03487938,-4.304733e-05,0.26738444,-0.014541563,0.0,-10.0,0.0,0.0,nan,nan,nan
712892000,18.750154,-24.517208,-10.017113,-3.1147296,nan,-0.92391443,0.03260436,-4.304733e-05,0.2350263,-0.014541563,0.0,0.0,0.0,0.0,nan,nan,nan
713104000,18.594158,-24.511778,-10.017121,-3.1136656,nan,-0.87817425,0.030084772,-4.304733e-05,0.30047914,-0.014541563,0.0,2.0000002,0.0,0.0,nan,nan,nan
713300000,18.456575,-24.50732,-10.017129,-3.1123395,nan,-0.8387269,0.025173854,-4.304733e-05,0.23541743,-0.014505092,0.0,-10.0,0.0,0.0,nan,nan,nan
713492000,18.327532,-24.503532,-10.017137,-3.1108103,nan,-0.798957,0.022888089,-4.304733e-05,0.23658538,-0.014505092,0.0,-10.0,0.0,0.0,nan,nan,nan
713704000,18.192028,-24.499765,-10.017145,-3.1092649,nan,-0.75472414,0.020358205,-4.304733e-05,0.27066657,-0.014505092,0.0,2.0000002,0.0,0.0,nan,nan,nan
713900000,18.073217,-24.496538,-10.017153,-3.1075845,nan,-0.7177442,0.019973136,-4.304733e-05,0.073201016,-0.014543399,0.0,0.0,0.0,0.0,nan,nan,nan
714092000,17.961277,-24.493547,-10.01716,-3.1059847,nan,-0.6854077,0.017663112,-4.304733e-05,0.2720591,-0.014543399,0.0,-10.0,0.0,0.0,nan,nan,nan
714304000,17.843664,-24.49065,-10.017169,-3.104441,nan,-0.65280426,0.015388135,-4.304733e-05,0.26048675,-0.012139071,0.0,2.0000002,0.0,0.0,nan,nan,nan
714500000,17.7403,-24.488297,-10.017177,-3.1035326,nan,-0.6156752,0.013790858,-4.304733e-05,0.16311535,0.017716896,0.0,-9.784051,-1.0627018,0.0,nan,nan,nan
714692000,17.643766,-24.486061,-10.017184,-3.1030207,nan,-0.58698404,0.01304516,-4.304733e-05,0.1461238,-0.0090895295,0.0,-8.773538,0.5457518,0.0,nan,nan,nan
714904000,17.541594,-24.483852,-10.017193,-3.102154,nan,-0.5610536,0.011845042,-4.304733e-05,0.18632737,-0.00630107,0.0,2.0000002,0.0,0.0,nan,nan,nan
715100000,17.451557,-24.481976,-10.0172,-3.1007314,nan,-0.5290767,0.010801521,-4.304733e-05,0.05066125,-0.00630107,0.0,0.0,0.0,0.0,nan,nan,nan
715292000,17.36702,-24.480297,-10.017208,-3.1164353,nan,-0.5080209,0.009773479,-4.304733e-05,-0.15422381,-0.00630107,0.0,-10.0,0.0,0.0,nan,nan,nan
715504000,17.262796,-24.47863,-10.017217,-3.139127,nan,-0.6993568,0.008634215,-4.304733e-05,-1.9622703,-0.00630107,0.0,-10.0,0.0,0.0,nan,nan,nan
715700000,17.11417,-24.477293,-10.017224,-3.139176,nan,-1.1319361,0.0075959372,-4.304733e-05,-2.9425428,-0.00630107,0.0,0.0,0.0,0.0,nan,nan,nan
715892000,16.903389,-24.476192,-10.017232,-3.1392257,nan,-1.5921791,0.0066207466,-4.304733e-05,-2.9755616,-0.00630107,0.0,0.0,0.0,0.0,nan,nan,nan
716104000,16.607788,-24.475204,-10.017241,-3.1393025,nan,-2.0722408,0.0056041647,-4.304733e-05,-2.9755616,-0.00630107,0.0,0.0,0.0,0.0,nan,nan,nan
716300000,16.284037,-24.474468,-10.017248,-3.1393552,nan,-2.4941664,0.0047106915,-4.304733e-05,-2.9755616,-0.00630107,0.0,0.0,0.0,0.0,nan,nan,nan
716492000,15.921859,-24.47389,-10.017256,-3.139409,nan,-2.8941689,0.0038636439,-4.304733e-05,-2.9755616,-0.00630107,0.0,0.0,0.0,0.0,nan,nan,nan
716704000,15.468115,-24.473394,-10.017264,-3.1394925,nan,-3.3281372,0.0029446697,-4.304733e-05,-2.9755616,-0.00630107,0.0,0.0,0.0,0.0,nan,nan,nan
716900000,14.994167,-24.473055,-10.017272,-3.1394925,nan,-3.7278705,0.0020981901,-4.304733e-05,-2.9755616,-0.00630107,0.0,0.0,0.0,0.0,nan,nan,nan
717092000,14.473772,-24.472832,-10.01728,-3.1394925,nan,-4.122373,0.0012627895,-4.304733e-05,-2.9755616,-0.00630107,0.0,0.0,0.0,0.0,nan,nan,nan
717304000,13.830347,-24.472712,-10.017288,-3.1395211,nan,-4.5630045,0.0003292259,-4.304733e-05,-2.9763494,-0.00630107,0.0,-2.0000002,0.0,0.0,nan,nan,nan
717500000,13.173116,-24.472729,-10.017296,-3.1396093,nan,-4.8796887,-0.0005449402,-4.304733e-05,-1.5890197,-0.00630107,0.0,10.0,0.0,0.0,nan,nan,nan
717692000,12.4839945,-24.472727,-10.017303,-3.1396704,nan,-5.011017,0.0013948502,-4.304733e-05,-0.31255797,0.022621319,0.0,10.0,0.0,0.0,nan,nan,nan
717904000,11.688562,-24.472229,-10.017312,-3.1397657,nan,-4.999445,0.00419784,-4.304733e-05,-0.082401484,-0.007903038,0.0,-2.0000002,0.0,0.0,nan,nan,nan
718100000,10.931445,-24.471733,-10.01732,-3.139937,nan,-5.002337,0.004151441,-4.304733e-05,-0.018936189,0.029304696,0.0,0.0,0.0,0.0,nan,nan,nan
718292000,10.1840105,-24.471228,-10.017327,-3.139937,nan,-4.9995675,0.0029328454,-4.304733e-05,-0.05237186,0.010337222,0.0,3.0872428,-0.6093638,0.0,nan,nan,nan
718504000,9.357167,-24.470737,-10.017336,-3.140128,nan,-5.000171,0.0025608423,-4.304733e-05,-0.032856893,0.043628264,0.0,0.0,2.0000002,0.0,nan,nan,nan
718700000,8.589121,-24.470282,-10.0173435,-3.1402116,nan,-4.999902,0.0029704408,-4.304733e-05,-0.0051540425,0.04456286,0.0,0.30436227,0.0,0.0,nan,nan,nan
718892000,7.832032,-24.469912,-10.017351,-3.1403008,nan,-5.000215,0.003124902,-4.304733e-05,-0.030587211,0.044484433,0.0,0.0,0.0,0.0,nan,nan,nan
719104000,6.991193,-24.469503,-10.01736,-3.1404476,nan,-5.0003037,0.0031142526,-4.304733e-05,-0.030349419,0.012813427,0.0,0.0,-2.0000002,0.0,nan,nan,nan
719300000,6.208357,-24.469105,-10.017367,-3.1405008,nan,-5.0008025,0.0026329022,-4.304733e-05,0.0019974932,-0.011286963,0.0,0.0,0.0,0.0,nan,nan,nan
719492000,5.434846,-24.468744,-10.017375,-3.1406791,nan,-4.9997625,0.0021915336,-4.304733e-05,-0.0032604244,-0.040587053,0.0,0.0,0.0,0.0,nan,nan,nan
719704000,4.5735183,-24.468441,-10.017384,-3.1406791,nan,-5.000064,0.001501422,-4.304733e-05,-0.0056199348,0.02352715,0.0,0.0,2.0000002,0.0,nan,nan,nan
719900000,3.7715929,-24.468105,-10.017391,-3.1408205,nan,-4.9999003,0.001946491,-4.304733e-05,-0.007090472,0.022925887,0.0,0.42217308,0.0,0.0,nan,nan,nan
720092000,2.97941,-24.467817,-10.017399,-3.1409945,nan,-5.0000114,0.0030187655,-4.304733e-05,-0.007978577,0.030032936,0.0,0.47574407,0.0,0.0,nan,nan,nan
720304000,2.0979965,-24.467588,-10.017407,-3.140902,nan,-5.000108,0.002647945,-4.304733e-05,-0.045684367,0.075141646,0.0,-2.0000002,0.0,0.0,nan,nan,nan
720500000,1.2790138,-24.467436,-10.017415,-3.140902,nan,-4.999652,0.0032790627,-4.304733e-05,0.053237766,0.056922354,0.0,10.0,0.0,0.0,nan,nan,nan
720692000,0.47839034,-24.466856,-10.017423,-3.140902,nan,-4.8748612,0.0028241854,-4.304733e-05,1.4388744,-0.010542218,0.0,0.0,0.0,0.0,nan,nan,nan
720904000,-0.38079652,-24.466516,-10.017431,-3.1408205,nan,-4.60488,0.00091339985,-4.304733e-05,1.5142727,-0.010542218,0.0,2.0000002,0.0,0.0,nan,nan,nan
721100000,-1.1486017,-24.466516,-10.017439,-3.1409945,nan,-4.3505135,-0.0008947034,-4.304733e-05,1.417007,-0.010542218,0.0,-10.0,0.0,0.0,nan,nan,nan
721292000,-1.8748279,-24.466824,-10.0174465,-3.140902,nan,-4.1162643,-0.0027038432,-4.304733e-05,1.280518,-0.010542218,0.0,-10.0,0.0,0.0,nan,nan,nan
721504000,-2.6441216,-24.467066,-10.01744,-3.1408205,nan,-3.8824542,0.0011350329,-9.4156596e-05,1.212439,0.025739506,0.04325886,2.0000002,0.0,2.0000002,nan,nan,nan
721700000,-3.3236666,-24.466562,-10.0174,-3.1409945,nan,-3.665873,0.0028441476,-0.0011865634,1.0682977,-0.011165071,-0.024186842,0.0,0.0,0.0,nan,nan,nan
721892000,-3.9602919,-24.466228,-10.017259,-3.140902,nan,-3.462859,0.0008500015,-0.0008220592,1.0715443,-0.011165071,-0.09569958,-10.0,0.0,0.0,nan,nan,nan
722104000,-4.6301503,-24.466284,-10.017154,-3.1407468,nan,-3.2530375,-0.0013782328,-0.0019745422,1.0399808,-0.011165071,0.013444249,2.0000002,0.0,2.0000002,nan,nan,nan
722300000,-5.2185817,-24.466524,-10.0172205,-3.1406162,nan,-3.0699196,0.000532411,-0.002479533,0.93143207,0.026941247,-0.0017677397,-10.0,0.0,0.0,nan,nan,nan
722492000,-5.767762,-24.466188,-10.017246,-3.1405008,nan,-2.9034693,0.0014323487,-0.0022055088,0.7413385,-0.011492785,-0.04423196,-10.0,0.0,0.0,nan,nan,nan
722704000,-6.3465333,-24.466137,-10.017446,-3.1402116,nan,-2.7418718,-0.00092294323,0.00025601208,0.8616786,-0.011492785,0.06964046,2.0000002,0.0,2.0000002,nan,nan,nan
722900000,-6.853963,-24.46645,-10.017454,-3.139937,nan,-2.5778856,-0.0007524311,4.6119618e-05,0.90518045,0.027578719,0.06392258,-10.0,0.0,-3.9598134,nan,nan,nan
723092000,-7.3236713,-24.466175,-10.017394,-3.1396396,nan,-2.4185145,0.0020414796,-8.9691035e-05,0.7901067,-0.011777174,-0.00708828,0.0,0.0,0.0,nan,nan,nan
723304000,-7.8146257,-24.466003,-10.017296,-3.139009,nan,-2.2824023,-0.0004183792,0.0011855674,0.67457896,-0.011777174,-0.052935563,2.0000002,0.0,-2.0000002,nan,nan,nan
723500000,-8.243033,-24.466278,-10.017376,-3.138245,nan,-2.1516747,-0.0012154909,0.0017375465,0.7558734,0.027690697,-0.017926142,0.0,0.0,0.0,nan,nan,nan
723692000,-8.637722,-24.466084,-10.017309,-3.137364,nan,-2.0162187,0.0016073204,8.2905e-05,0.47835165,-0.011742733,-0.061585784,0.0,0.0,3.8316832,nan,nan,nan
723908000,-9.059634,-24.466007,-10.017306,-3.1364253,nan,-1.9005929,-0.00092172227,0.0012559321,0.56324655,-0.011742733,0.01343466,0.0,0.0,0.0,nan,nan,nan
724100000,-9.412731,-24.466158,-10.017202,-3.1356626,nan,-1.7816471,0.0012201316,0.0008052599,0.6460381,0.02825727,-0.042786613,-10.0,0.0,2.6741633,nan,nan,nan
724292000,-9.744837,-24.465902,-10.017298,-3.134748,nan,-1.6819279,0.0003255268,0.0020874722,0.48603812,-0.011742733,-0.018229295,-10.0,0.0,0.0,nan,nan,nan
724504000,-10.090003,-24.46603,-10.017367,-3.1338491,nan,-1.5728078,0.00015606749,0.0018077444,0.56603813,0.02825727,-0.021266747,2.0000002,0.0,-2.0000002,nan,nan,nan
724700000,-10.388862,-24.465816,-10.017268,-3.1329265,nan,-1.486344,0.00033449195,0.0011021375,0.32603812,-0.011742733,-0.039210714,0.0,0.0,2.4506698,nan,nan,nan
724892000,-10.666676,-24.465965,-10.017348,-3.1321244,nan,-1.4032648,-0.0013601128,8.014745e-05,0.4860381,0.02825727,-0.044294853,0.0,0.0,2.7684286,nan,nan,nan
725104000,-10.9536085,-24.465845,-10.017339,-3.131229,nan,-1.3143842,0.00039042815,0.00030535384,0.3660381,-0.011742733,-0.048000004,2.0000002,0.0,-2.0000002,nan,nan,nan
725300000,-11.2039995,-24.465963,-10.017286,-3.130204,nan,-1.2386413,-0.0003911475,0.00026055382,0.4460381,0.02825727,-0.032,0.0,0.0,2.0000002,nan,nan,nan
725492000,-11.434008,-24.465763,-10.017318,-3.128591,nan,-1.1642816,0.0006342481,0.00030535384,0.3260381,-0.011742733,0.0,-10.0,0.0,0.0,nan,nan,nan
725704000,-11.673029,-24.465822,-10.017292,-3.1269808,nan,-1.0890814,0.00046478875,0.0007085539,0.40603808,0.02825727,0.0,2.0000002,0.0,-2.0000002,nan,nan,nan
725900000,-11.880668,-24.46569,-10.017278,-3.1249874,nan,-1.032298,-0.0003167868,1.7353828e-05,0.2860381,-0.011742733,0.0384,-10.0,0.0,-2.4000003,nan,nan,nan
726092000,-12.073079,-24.465818,-10.017301,-3.1227856,nan,-0.96857846,0.00086860865,-0.00011064616,0.36603808,0.02825727,0.032,-10.0,0.0,-2.0000002,nan,nan,nan
726304000,-12.272151,-24.465637,-10.017261,-3.1205394,nan,-0.9086583,-0.00026085062,0.00020935386,0.3260381,-0.011742733,0.0,2.0000002,0.0,0.0,nan,nan,nan
726500000,-12.444573,-24.46563,-10.017221,-3.1185625,nan,-0.8559222,0.00037863592,0.00020935386,0.22883047,-0.009394187,0.0,-10.0,0.0,0.0,nan,nan,nan
726692000,-12.6043215,-24.4657,-10.017222,-3.1165774,nan,-0.80710655,9.495216e-05,0.00027335383,0.26883048,0.030605815,0.041600004,-10.0,0.0,0.0,nan,nan,nan
726904000,-12.770289,-24.465626,-10.017207,-3.1140265,nan,-0.7592345,-0.0005366155,-0.00010168619,0.2688305,-0.0093941875,0.0,2.0000002,0.0,0.0,nan,nan,nan
727100000,-12.914223,-24.465626,-10.017222,-3.1142986,nan,-0.71406364,0.00050212396,-0.00010168619,0.10883053,-0.0093941875,0.0,0.0,0.0,0.0,nan,nan,nan
727292000,-13.053555,-24.465702,-10.017238,-3.1362886,nan,-0.78908813,-0.0013015601,-0.00010168619,-1.2911694,-0.0093941875,0.0,-10.0,0.0,0.0,nan,nan,nan
727504000,-13.265576,-24.46619,-10.017255,-3.13609,nan,-1.2773762,-0.0032931285,-0.00010168619,-2.9711695,-0.0093941875,0.0,0.0,0.0,0.0,nan,nan,nan
727700000,-13.573013,-24.467014,-10.017229,-3.1357946,nan,-1.859726,-0.0051343874,-0.0001656862,-2.9711695,-0.0093941875,-0.041600004,0.0,0.0,0.0,nan,nan,nan
727892000,-13.984486,-24.468174,-10.017224,-3.135397,nan,-2.4297504,-0.006936676,0.00020935384,-2.9711695,-0.0093941875,0.0,0.0,0.0,0.0,nan,nan,nan
728104000,-14.526102,-24.469559,-10.017221,-3.1350873,nan,-2.9986596,-0.005124226,1.4112447e-06,-2.3120594,0.028271694,0.03341965,10.0,0.0,2.0000002,nan,nan,nan
728300000,-15.066811,-24.470022,-10.017213,-3.1349602,nan,-3.2482715,-0.0002682787,-0.00059416523,-0.5944588,0.028271694,-0.00578022,10.0,0.0,0.0,nan,nan,nan
728492000,-15.590856,-24.469702,-10.017218,-3.1346614,nan,-3.2142725,0.004286304,-6.58936e-05,1.0165457,0.028271694,-0.0011346419,10.0,0.0,0.0,nan,nan,nan
728704000,-16.135086,-24.468702,-10.0171995,-3.1341553,nan,-2.8992786,0.005656249,5.7351222e-05,2.183692,-0.005116429,-0.007951979,0.0,0.0,0.0,nan,nan,nan
728900000,-16.596373,-24.467823,-10.017196,-3.133659,nan,-2.6170988,0.0047965664,0.0013011828,1.1864028,-0.005116429,0.02308184,0.0,0.0,0.0,nan,nan,nan
729092000,-17.026491,-24.46708,-10.01728,-3.1332345,nan,-2.4438477,0.0039250082,0.00061860593,0.7581229,-0.005116429,0.05634595,0.0,0.0,0.0,nan,nan,nan
729304000,-17.485107,-24.466413,-10.017186,-3.1329334,nan,-2.296852,0.0029348156,0.0014890983,0.7951202,-0.005116429,-0.012343522,0.0,0.0,-2.0000002,nan,nan,nan
729500000,-17.894154,-24.46596,-10.017286,-3.132629,nan,-2.1719947,0.0019979137,0.0014929153,0.60832024,-0.005116429,0.021020725,0.0,0.0,0.0,nan,nan,nan
729692000,-18.280066,-24.465681,-10.017198,-3.1320806,nan,-2.0552323,0.0010631336,0.0015669235,0.64618796,-0.005116429,-0.012654118,0.0,0.0,0.0,nan,nan,nan
729904000,-18.686798,-24.465572,-10.017278,-3.1315086,nan,-1.9307257,1.8054641e-05,0.0016420214,0.6084748,-0.005116429,-0.017191332,2.0000002,0.0,-2.0000002,nan,nan,nan
730100000,-19.050758,-24.465664,-10.017159,-3.1312232,nan,-1.8154403,-0.00097600336,0.0010873206,0.57781655,-0.005116429,-0.041482467,-10.0,0.0,2.5926545,nan,nan,nan
730292000,-19.388868,-24.46587,-10.0172825,-3.1311429,nan,-1.7089796,0.0005216423,-0.0003593722,0.49781653,0.034883574,-0.057185974,-10.0,0.0,0.0,nan,nan,nan
730504000,-19.740496,-24.46561,-10.017319,-3.1312346,nan,-1.6102426,0.0007969594,0.00032648435,0.5378165,-0.005116429,0.010368627,2.0000002,0.0,0.0,nan,nan,nan
730700000,-20.045614,-24.465551,-10.017283,-3.1316755,nan,-1.5089105,-0.00020586069,0.00018357727,0.41781655,-0.005116429,0.0,-10.0,0.0,0.0,nan,nan,nan
730892000,-20.327267,-24.465685,-10.017245,-3.1321309,nan,-1.4248499,-0.0011882151,0.00018357727,0.41781655,-0.005116429,0.0,-10.0,0.0,0.0,nan,nan,nan
731104000,-20.619701,-24.465712,-10.017203,-3.1324642,nan,-1.3399527,0.00060710195,0.00018357727,0.33781654,-0.005116429,0.0,2.0000002,0.0,0.0,nan,nan,nan
731300000,-20.87519,-24.465693,-10.017164,-3.1325693,nan,-1.2650201,-0.00039571812,0.00018357727,0.37781653,-0.005116429,0.0,-10.0,0.0,0.0,nan,nan,nan
731492000,-21.11075,-24.465864,-10.017151,-3.1326091,nan,-1.1886384,-0.0013780724,-0.0007764228,0.37781653,-0.005116429,0.0,-10.0,0.0,0.0,nan,nan,nan
731704000,-21.354336,-24.465794,-10.017117,-3.1325233,nan,-1.1179812,0.00041724477,-0.00012746276,0.29781654,-0.005116429,0.0,2.0000002,0.0,1.5360001,nan,nan,nan
731900000,-21.567081,-24.465809,-10.017148,-3.132824,nan,-1.0508891,-0.00058557536,-0.00012746276,0.33781654,-0.005116429,0.0,-10.0,0.0,0.0,nan,nan,nan
732092000,-21.7626,-24.465874,-10.017153,-3.1332774,nan,-0.9927665,0.0015232346,0.0008325373,0.22225325,0.027906857,0.0,0.0,0.0,0.0,nan,nan,nan
732304000,-21.965906,-24.465736,-10.017175,-3.1339576,nan,-0.9237288,-0.0006405121,0.00018357727,0.30225325,-0.012093145,0.0,2.0000002,0.0,-1.5360001,nan,nan,nan
732500000,-22.141636,-24.465673,-10.017136,-3.13461,nan,-0.87040716,-0.00013076834,0.00018357727,0.22225325,-0.012093145,0.0,-10.0,0.0,0.0,nan,nan,nan
732692000,-22.30405,-24.465641,-10.017141,-3.135124,nan,-0.8205344,0.000427348,0.00024757726,0.22225325,-0.012093145,0.041600004,-10.0,0.0,0.0,nan,nan,nan
732904000,-22.472658,-24.465553,-10.017139,-3.1363451,nan,-0.77461666,0.0007436013,-0.00012746276,0.10225327,-0.012093145,0.0,2.0000002,0.0,0.0,nan,nan,nan
733100000,-22.619703,-24.465565,-10.017171,-3.1357443,nan,-0.7304187,0.0007082293,-0.00012746276,0.089802615,0.022325486,0.0,0.0,0.0,0.0,nan,nan,nan
733292000,-22.760452,-24.460114,-10.017153,3.0312018,nan,-0.78677654,0.108194724,-0.00019146276,-1.1901973,1.4623253,-0.041600004,-10.0,10.0,0.0,nan,nan,nan
733504000,-22.958082,-24.388962,-10.017146,2.864697,nan,-1.0794984,0.62108773,0.00018357727,-1.3901973,2.9823253,0.0,0.0,2.0000002,0.0,nan,nan,nan
733700000,-23.19637,-24.209946,-10.017133,2.7107584,nan,-1.3519764,1.2055432,1.0777236e-05,-1.3901973,2.9423254,-0.0384,0.0,-10.0,2.4000003,nan,nan,nan
733892000,-23.440107,-23.970572,-10.017114,2.5599616,nan,-1.5351844,1.6444179,0.00056549214,-0.39893454,2.4708846,0.006389521,10.0,-10.0,0.0,nan,nan,nan
734104000,-23.688084,-23.67873,-10.017105,2.3934567,nan,-1.5029336,1.9135301,-3.0131836e-05,0.46685183,0.8503106,0.032249887,2.0000002,-10.0,2.0000002,nan,nan,nan
734300000,-23.897427,-23.400991,-10.017103,2.2395182,nan,-1.412109,1.932794,-0.00014652818,0.81737477,-0.58116364,-0.0054025473,0.0,-10.0,0.0,nan,nan,nan
734492000,-24.08313,-23.144983,-10.017101,2.0887213,nan,-1.2804687,1.7582703,-6.8135196e-05,1.161278,-1.9565849,0.007302292,0.0,-10.0,-0.4257732,nan,nan,nan
734704000,-24.261808,-22.902063,-10.017098,1.9222164,nan,-1.0561599,1.448654,-5.5423e-05,1.6486735,-1.7260036,0.021468444,2.0000002,0.0,2.0000002,nan,nan,nan
734900000,-24.401241,-22.704857,-10.017092,1.8606529,nan,-0.8588872,1.25826,0.00023294987,1.1297797,-0.77681637,0.034841135,0.0,10.0,0.0,nan,nan,nan
