timestamp,roll,pitch,yaw,thrust_body[0],thrust_body[1],thrust_body[2]
657300000,0.011782905,-0.108937055,0.08467984,0.0,0.0,-0.0
657332000,0.2766664,0.024482628,-0.00027376413,0.0,0.0,-0.49838805
657360000,0.17036138,-0.017762769,9.995699e-05,0.0,0.0,-0.49888414
657396000,0.15457699,-0.029888308,8.583069e-05,0.0,0.0,-0.5000956
657428000,0.20319623,-0.029820872,0.00019598007,0.0,0.0,-0.5055586
657456000,0.22728309,-0.01676816,0.00019794703,0.0,0.0,-0.5113002
657488000,0.24199162,-0.012827885,0.00015950203,0.0,0.0,-0.5177499
657520000,0.22809541,-0.019840898,0.00015825033,0.0,0.0,-0.5333014
657556000,0.20159546,-0.023343462,0.00015807152,0.0,0.0,-0.54690987
657584000,0.18537168,-0.024248175,-5.4180622e-05,0.0,0.0,-0.5614216
657616000,0.17355634,-0.024772402,0.00014859438,0.0,0.0,-0.5911592
657644000,0.14540274,-0.023641191,3.951788e-05,0.0,0.0,-0.6068833
657676000,0.11958095,-0.02678321,0.0001552105,0.0,0.0,-0.6221732
657712000,0.06877441,-0.026169866,0.00018364191,0.0,0.0,-0.64084446
657744000,0.030491559,-0.019764416,0.00014734268,0.0,0.0,-0.6422119
657776000,-0.002549103,-0.017834915,0.00016075373,0.0,0.0,-0.6469187
657808000,-0.030587722,-0.013932304,0.00010192394,0.0,0.0,-0.6634531
657840000,-0.05897578,-0.0076514985,4.953146e-05,0.0,0.0,-0.6654153
657876000,-0.07326411,-0.0033635208,3.951788e-05,0.0,0.0,-0.67195797
657904000,-0.07483585,0.00072460016,0.000107467175,0.0,0.0,-0.6776843
657940000,-0.072867714,0.002360186,-8.940697e-07,0.0,0.0,-0.68580484
657972000,-0.06601064,-6.6244975e-06,-0.0002696514,0.0,0.0,-0.68958753
658000000,-0.05736009,0.0031251402,-9.655952e-06,0.0,0.0,-0.7036111
658032000,-0.048022717,0.002204319,-6.0796738e-06,0.0,0.0,-0.69927615
658064000,-0.044952903,0.0003856374,2.002716e-05,0.0,0.0,-0.70125324
658096000,-0.034072895,-0.004805562,-4.6133995e-05,0.0,0.0,-0.6616955
658128000,-0.030717619,0.008090508,-1.180172e-05,0.0,0.0,-0.59290004
658160000,-0.018512964,0.02261287,-0.00020885468,0.0,0.0,-0.55669266
658192000,-0.014955364,0.03356915,-8.010864e-05,0.0,0.0,-0.53856736
658228000,-0.018156959,0.00030572747,-3.6478043e-05,0.0,0.0,-0.7911328
658260000,-0.019596657,-0.0043528746,-0.0002835989,0.0,0.0,-0.8045091
658288000,-0.011701176,-0.007303591,-8.8870525e-05,0.0,0.0,-0.7493216
658320000,-0.0016528271,0.014067379,0.00011533499,0.0,0.0,-0.57350576
658352000,0.0041833394,0.027882576,0.00013840199,0.0,0.0,-0.5172507
658384000,0.0020683971,0.03593625,0.00028073788,0.0,0.0,-0.5002832
658416000,0.0048738145,0.044447746,0.00014644861,0.0,0.0,-0.52187175
658448000,0.0005964828,0.038090166,0.00012820959,0.0,0.0,-0.54805607
658480000,-0.014006425,0.030320384,-2.4497509e-05,0.0,0.0,-0.58636016
658516000,-0.017520858,0.026371468,-4.2021275e-05,0.0,0.0,-0.5918151
658544000,-0.023757918,0.013137624,-3.2007694e-05,0.0,0.0,-0.59060395
658576000,-0.023650017,0.0063077463,-7.492304e-05,0.0,0.0,-0.58574295
658608000,-0.018585723,-0.00089799904,0.00013893843,0.0,0.0,-0.5771743
658640000,-0.017796356,-0.006798667,-0.00031775236,0.0,0.0,-0.574485
658668000,-0.024165345,-0.0017924798,-0.00036799908,0.0,0.0,-0.5740258
658704000,-0.033282742,-0.0050577926,-0.000451684,0.0,0.0,-0.57710046
658740000,-0.025097348,-0.008345589,-0.0006149411,0.0,0.0,-0.5772838
658768000,-0.023494726,-0.002631527,-0.0009280443,0.0,0.0,-0.5814205
658796000,-0.018827958,-0.00033156853,-0.0009391308,0.0,0.0,-0.5826736
658832000,-0.009441432,0.009123892,-0.0010843277,0.0,0.0,-0.5801575
658868000,-0.012269866,-0.001139561,-0.0011191964,0.0,0.0,-0.58171314
658896000,-0.014819794,-0.0003051418,-0.0008842349,0.0,0.0,-0.57835597
658924000,-0.018105097,5.478901e-05,-0.0009863377,0.0,0.0,-0.5798388
658956000,-0.018253308,-0.0006856198,-0.0007941127,0.0,0.0,-0.58081293
658988000,-0.014178948,0.01244633,-0.0003504753,0.0,0.0,-0.5832008
659024000,-0.0073284125,0.014540722,-0.00031203032,0.0,0.0,-0.5793866
659056000,-0.010326907,0.008352466,-0.008695185,0.0,0.0,-0.583114
659088000,-0.010895739,0.0052469745,-0.008440018,0.0,0.0,-0.57895774
659120000,-0.0077587646,0.011569282,-0.008014441,0.0,0.0,-0.57933384
659156000,-0.001017577,0.007633998,-0.0071868896,0.0,0.0,-0.5818494
659188000,0.00021550152,0.0047026994,-0.0061191916,0.0,0.0,-0.5780726
659216000,-0.0061512636,-0.002236931,-0.004871607,0.0,0.0,-0.57813203
659252000,-0.0007270882,0.003854421,-0.0035734177,0.0,0.0,-0.58303124
659280000,-0.0042460626,0.0036350687,-0.0024286509,0.0,0.0,-0.57971984
659316000,-0.010392993,0.0055498807,-0.0013691783,0.0,0.0,-0.5801393
659344000,-0.014287753,0.0011124965,-0.00039571524,0.0,0.0,-0.5825816
659376000,-0.01109961,0.003938946,0.00090140104,0.0,0.0,-0.57729125
659408000,-0.009980793,0.0015801403,0.0016622543,0.0,0.0,-0.57656956
659440000,-0.01220946,-0.0022613222,0.0028653145,0.0,0.0,-0.58204406
659472000,-0.012787845,0.0056914873,0.0033409595,0.0,0.0,-0.5805327
659508000,-0.008581328,0.006304196,0.0036748052,0.0,0.0,-0.5804714
659540000,-0.01029372,0.007204488,0.004009366,0.0,0.0,-0.58266485
659564000,-0.011961113,0.0042190906,0.0037032366,0.0,0.0,-0.58195966
659600000,-0.005399421,0.005851608,0.004044056,0.0,0.0,-0.57947284
659632000,-0.001913066,0.006999963,0.0043868423,0.0,0.0,-0.5810678
659664000,-0.0051792087,0.0005915514,0.004544735,0.0,0.0,-0.58107656
659700000,-0.014445618,0.0008349989,0.0045068264,0.0,0.0,-0.57912964
659728000,-0.013026226,0.0037780926,0.0045652986,0.0,0.0,-0.57999164
659760000,-0.0057034465,0.007604829,0.004269898,0.0,0.0,-0.57762605
659796000,-0.002849766,0.0071631363,0.003948748,0.0,0.0,-0.58015454
659824000,-0.0009989943,0.0077451733,0.0036578178,0.0,0.0,-0.58264405
659856000,-0.0035188124,0.0009940944,0.0027762651,0.0,0.0,-0.58194685
659888000,-0.005112159,0.006298935,0.0022736192,0.0,0.0,-0.58182806
659920000,0.0005187923,0.009754933,0.0018602014,0.0,0.0,-0.5855463
659952000,-0.003585644,0.0086569935,0.0015900135,0.0,0.0,-0.5812427
659984000,-0.0027499348,0.0044358503,0.0008175373,0.0,0.0,-0.57984155
660020000,5.1487237e-05,0.0032209684,0.00026983023,0.0,0.0,-0.5825378
660048000,-0.0004942501,0.009101584,-0.0001745224,0.0,0.0,-0.579646
660080000,-0.0057084896,0.008185669,-0.00041770935,0.0,0.0,-0.5805625
660112000,-0.004653451,0.0024055461,-0.0005981326,0.0,0.0,-0.5860389
660148000,-0.011759777,0.001195645,-0.000936985,0.0,0.0,-0.5822512
660176000,-0.014099079,0.0013219931,-0.0013974309,0.0,0.0,-0.5805388
660208000,-0.010692383,0.0051910765,-0.0014782548,0.0,0.0,-0.5814443
660240000,-0.012065244,0.008107606,-0.0016009212,0.0,0.0,-0.5773887
660276000,-0.013546768,0.008305471,-0.0015429854,0.0,0.0,-0.5787996
660304000,-0.015324427,-0.0019413431,-0.0016642213,0.0,0.0,-0.58557385
660340000,-0.01962823,0.005296272,-0.0014054775,0.0,0.0,-0.58223873
660372000,-0.019468926,0.008832417,-0.0016227365,0.0,0.0,-0.5806601
660400000,-0.014415488,0.011375546,-0.0015449524,0.0,0.0,-0.5841993
660432000,-0.017166644,0.016254315,-0.0012581348,0.0,0.0,-0.5821462
660464000,-0.021947328,0.013612121,-0.0012797713,0.0,0.0,-0.583446
660496000,-0.018077804,0.009294813,-0.0011252761,0.0,0.0,-0.5862156
660532000,-0.015609596,0.011186976,-0.0008055568,0.0,0.0,-0.5804349
660560000,-0.01965468,0.004433546,-0.0008402467,0.0,0.0,-0.57976305
660596000,-0.017501665,0.0051868237,-0.0012483001,0.0,0.0,-0.5846564
660624000,-0.017186232,0.0040837517,-0.0011383295,0.0,0.0,-0.58126414
660656000,-0.016826876,-0.0022790534,-0.0011973381,0.0,0.0,-0.58089465
660688000,-0.009633145,-0.0047278395,-0.0012452602,0.0,0.0,-0.58469325
660724000,-0.015321979,-0.0013080009,-0.0015631914,0.0,0.0,-0.5817493
660752000,-0.013279561,0.0011055332,-0.0016669035,0.0,0.0,-0.582439
660784000,-0.008838971,-0.002839501,-0.001762569,0.0,0.0,-0.5845254
660816000,-0.011623048,0.002141181,-0.0018639565,0.0,0.0,-0.5810846
660848000,-0.013605402,-0.0013299845,-0.0020336509,0.0,0.0,-0.58209175
660880000,-0.015090709,-0.00820645,-0.00209409,0.0,0.0,-0.5859406
660916000,-0.0058850823,-0.0039673154,-0.0025078654,0.0,0.0,-0.5806642
660944000,-0.004959681,-0.0070169885,-0.0027261972,0.0,0.0,-0.5804385
660980000,-0.007636073,-0.006556861,-0.0029228926,0.0,0.0,-0.584319
661008000,-0.0025465563,0.00017005764,-0.0029947758,0.0,0.0,-0.5797425
661044000,-0.00563961,0.0066683823,-0.0030866861,0.0,0.0,-0.5759114
661072000,-0.01165391,0.009411585,-0.0028612018,0.0,0.0,-0.57103556
661108000,-0.0100489715,0.011596734,-0.0030078292,0.0,0.0,-0.5639541
661136000,-0.010205545,0.0144651625,-0.0031523108,0.0,0.0,-0.56245166
661168000,-0.0047518546,0.0109762,-0.0029305816,0.0,0.0,-0.56463265
661200000,-0.0039821723,0.017907988,-0.002827406,0.0,0.0,-0.56422395
661232000,-0.0029228507,0.017256383,-0.002858162,0.0,0.0,-0.56509626
661264000,-0.009527712,0.011081338,-0.0026884675,0.0,0.0,-0.5679688
661296000,-0.011094446,0.012072854,-0.002317071,0.0,0.0,-0.5653195
661332000,-0.010469536,0.0024272874,-0.0019478202,0.0,0.0,-0.56647325
661360000,-0.006486104,-0.004652585,-0.0015449524,0.0,0.0,-0.5688816
661396000,-0.010842961,-0.0020555821,-0.001563549,0.0,0.0,-0.5661619
661420000,-0.009057499,0.0031898604,-0.0014623404,0.0,0.0,-0.5654567
661452000,-0.011860868,-0.004346419,-0.0014303327,0.0,0.0,-0.56462824
661488000,-0.021214712,-0.0045360583,-0.0016699433,0.0,0.0,-0.5629435
661520000,-0.02106484,-0.0068560056,-0.001762569,0.0,0.0,-0.5627179
661556000,-0.018947912,-0.00061233295,-0.0016052127,0.0,0.0,-0.5644265
661584000,-0.009266186,0.0043431628,-0.0015740991,0.0,0.0,-0.5629163
661616000,-0.008790342,0.0024402626,-0.0014909506,0.0,0.0,-0.5631894
661652000,-0.0074707037,0.0017495337,-0.001470387,0.0,0.0,-0.5667157
661680000,-0.006202846,-0.0051032365,-0.0013926029,0.0,0.0,-0.5655707
661712000,-0.0075558973,-0.010260653,-0.0014832616,0.0,0.0,-0.56620026
661744000,-0.007946768,-0.007481705,-0.0013198256,0.0,0.0,-0.56887877
661776000,-0.0056988364,-0.005107179,-0.0012275577,0.0,0.0,-0.56675655
661808000,-0.0026922002,0.0003824844,-0.0010693073,0.0,0.0,-0.5670113
661836000,0.00046360306,0.0049786116,-0.0007606745,0.0,0.0,-0.56708574
661876000,0.006120871,0.014110244,-0.00056540966,0.0,0.0,-0.56619567
661908000,0.00022488087,0.020221487,-0.00042110682,0.0,0.0,-0.5662908
661932000,-0.0070598954,0.012263683,-0.00029879808,0.0,0.0,-0.56615436
661972000,-0.007133427,-0.0025930451,-9.959936e-05,0.0,0.0,-0.56481576
662000000,-0.011984034,-0.0004383889,0.0004683137,0.0,0.0,-0.56405663
662036000,-0.012598643,9.656511e-05,0.0006557107,0.0,0.0,-0.566579
662064000,-0.013508135,-0.003924766,0.00067037344,0.0,0.0,-0.5656417
662100000,-0.0054281233,-0.0039318656,0.0005030036,0.0,0.0,-0.5657594
662128000,0.00012421422,0.008165874,0.00067824125,0.0,0.0,-0.56768614
662164000,-0.0021004267,0.00074356,0.00094878674,0.0,0.0,-0.5637605
662196000,-0.008919943,-0.0049140262,0.0009461045,0.0,0.0,-0.56209314
662224000,-0.010345037,-0.0057184305,0.0010399818,0.0,0.0,-0.56320703
662256000,-0.011612892,-0.00567739,0.001257062,0.0,0.0,-0.5612702
662292000,-0.010410832,-0.004362412,0.001018703,0.0,0.0,-0.56202084
662316000,-0.014999949,-0.00013933517,0.00092858076,0.0,0.0,-0.5626924
662356000,-0.01068363,-0.00033050962,0.0014192462,0.0,0.0,-0.5621499
662384000,-0.013776865,-0.009114588,0.0015742779,0.0,0.0,-0.56080985
662412000,-0.023915846,-0.0110244565,0.0017055273,0.0,0.0,-0.5600163
662448000,-0.019904662,-0.018324824,0.0017688274,0.0,0.0,-0.5613624
662484000,-0.020588469,-0.011070044,0.0015358329,0.0,0.0,-0.5620623
662508000,-0.017588943,-0.0055514,0.0018532276,0.0,0.0,-0.56324136
662540000,-0.003943504,0.0064030406,0.0018450022,0.0,0.0,-0.5650264
662576000,-0.008290012,0.001990051,0.0015127659,0.0,0.0,-0.56312025
662608000,-0.003308488,0.0011581667,0.0013402104,0.0,0.0,-0.5650375
662640000,-0.0047383597,-0.0051730536,0.0008137822,0.0,0.0,-0.56391513
662672000,-0.0058511104,-0.00044764252,0.0006968379,0.0,0.0,-0.5640496
662704000,0.0033048978,-0.0020042625,0.0006887913,0.0,0.0,-0.5656095
662736000,-0.0027648713,-0.0060018254,0.00042682886,0.0,0.0,-0.563931
662768000,-0.0049958043,-0.011833037,0.0002528429,0.0,0.0,-0.5636879
662800000,-0.0028106002,-0.020244949,0.0002169013,0.0,0.0,-0.565091
662832000,-0.002148318,-0.020380888,0.00019901991,0.0,0.0,-0.5629946
662864000,-0.0017809854,-0.01124921,0.00024747849,0.0,0.0,-0.561957
662896000,0.0069837235,-0.0051461575,-3.504753e-05,0.0,0.0,-0.56359935
662928000,6.5832864e-05,-0.0038453015,-0.0004709959,0.0,0.0,-0.5625992
662956000,-0.0039321114,-0.009523077,-0.00061136484,0.0,0.0,-0.5626269
662996000,-0.010107435,-0.011419412,-0.0005171299,0.0,0.0,-0.5643682
663024000,-0.009417642,-0.004415409,-0.00038534403,0.0,0.0,-0.56407166
663056000,-0.0066757766,-0.0029975823,-0.0003887415,0.0,0.0,-0.56378347
663092000,-0.0009842506,0.005196604,-0.00058847666,0.0,0.0,-0.56523776
663120000,0.003822655,-0.0032590264,-0.0006106496,0.0,0.0,-0.5645868
663156000,0.00055169966,-0.012025978,-0.00055879354,0.0,0.0,-0.56500655
663184000,-0.0023304792,-0.01341439,-0.00057542324,0.0,0.0,-0.56526905
663216000,-0.007864002,-0.0112423645,-0.0007790923,0.0,0.0,-0.56395173
663252000,-0.008341455,-0.009659241,-0.00062030554,0.0,0.0,-0.5640538
663280000,-0.008469313,-0.006011645,-0.0007946491,0.0,0.0,-0.56616956
663312000,-0.009724591,0.000689948,-0.00070273876,0.0,0.0,-0.56465137
663348000,-0.011039788,-0.0052223336,-0.0008250475,0.0,0.0,-0.5642536
663376000,-0.007702673,-0.006381812,-0.00076013803,0.0,0.0,-0.56350213
663408000,-0.0017053555,-0.007317798,-0.00069111586,0.0,0.0,-0.56328654
663444000,0.0019499562,-0.002123125,-0.00047063828,0.0,0.0,-0.5630942
663472000,0.0057610706,0.004451299,-0.00027251244,0.0,0.0,-0.5641955
663504000,0.0035970686,0.01099065,-0.00032293797,0.0,0.0,-0.5626056
663536000,0.0071552494,0.0076613333,-0.00032132864,0.0,0.0,-0.563043
663572000,0.0057725497,5.7411147e-05,-0.00029164553,0.0,0.0,-0.5644595
663596000,0.009140916,-0.00219237,-0.00042539835,0.0,0.0,-0.56460816
663632000,-0.0056017614,0.004000224,-0.00033974648,0.0,0.0,-0.56383145
663664000,-0.0038311305,0.006503707,-5.9902668e-05,0.0,0.0,-0.56426144
663700000,-0.004735517,0.0036446338,0.00010961294,0.0,0.0,-0.56373143
663728000,-0.0036946996,0.0038784086,0.00013571978,0.0,0.0,-0.563767
663764000,-0.0010565096,-0.0042260727,-0.00026071072,0.0,0.0,-0.56512773
663792000,-0.003779016,-0.0024285335,-0.00016701221,0.0,0.0,-0.5638787
663824000,-0.0053806817,0.0034620669,0.000103890896,0.0,0.0,-0.5639342
663856000,0.003177845,-0.0003922521,0.00025695562,0.0,0.0,-0.5649334
663888000,-0.00067110546,-0.001285559,0.00017094612,0.0,0.0,-0.56422514
663920000,0.0032399632,0.0009144363,0.00011873245,0.0,0.0,-0.5642563
663948000,0.006038252,-0.010172845,-4.953146e-05,0.0,0.0,-0.56372166
663980000,0.00069639506,-0.020301476,-7.671118e-05,0.0,0.0,-0.5640739
664016000,-0.009071277,-0.018316336,-0.00011497736,0.0,0.0,-0.5633575
664044000,-0.010581653,-0.016203154,-4.041195e-05,0.0,0.0,-0.56379694
664084000,-0.00050074747,-0.005147513,-0.00029969215,0.0,0.0,-0.5649562
664116000,-0.0024497258,-0.0029013287,-0.00019401312,0.0,0.0,-0.5649605
664144000,3.4953933e-05,-0.0076705087,4.0769577e-05,0.0,0.0,-0.564649
664176000,-0.0037459983,-0.009442965,0.00038552284,0.0,0.0,-0.5635596
664212000,-0.004533802,-0.0072566094,0.00044167042,0.0,0.0,-0.5639912
664240000,-0.0036450536,-0.015886873,0.00052660704,0.0,0.0,-0.564458
664272000,-0.0027519618,-0.01011386,0.0006440878,0.0,0.0,-0.5625241
664304000,0.0022152155,-0.0064342273,0.0008314848,0.0,0.0,-0.56276375
664336000,-0.0009268094,-0.008050149,0.0005494952,0.0,0.0,-0.56413746
664372000,0.0023255926,-0.0035007752,0.00030112267,0.0,0.0,-0.5631954
664404000,-0.0028986647,-0.005936078,-8.1539154e-05,0.0,0.0,-0.56353146
664432000,-0.0018622074,-0.004399943,8.940697e-07,0.0,0.0,-0.5631951
664468000,-0.006018106,-0.009024007,-0.00010943413,0.0,0.0,-0.56341577
664500000,-0.006940621,-0.0059059546,7.7962875e-05,0.0,0.0,-0.5630311
664528000,-0.0034694765,-0.0018903161,0.00010675192,0.0,0.0,-0.5643175
664564000,0.0063145864,-0.005412125,-0.00010174513,0.0,0.0,-0.5628777
664592000,0.0054796874,-0.009364666,-4.1127205e-06,0.0,0.0,-0.56261575
664624000,0.010984914,-0.008592993,-2.95043e-05,0.0,0.0,-0.5640322
664656000,0.004050183,-0.005046934,-0.00015717745,0.0,0.0,-0.5637695
664688000,0.00060015265,-0.0021409336,-5.865097e-05,0.0,0.0,-0.56397754
664724000,0.007576173,-0.00369813,0.00026589632,0.0,0.0,-0.5644275
664752000,0.006208663,-0.01798442,0.00045329332,0.0,0.0,-0.5630276
664784000,-0.0021301797,-0.014930867,0.0005389452,0.0,0.0,-0.56212556
664816000,-0.0027657668,-0.011313366,0.0007286668,0.0,0.0,-0.56264716
664852000,0.0037175906,-0.007833646,0.0008414984,0.0,0.0,-0.5620128
664880000,0.0006979862,-0.005592241,0.0007787347,0.0,0.0,-0.56250465
664916000,0.0001029619,-0.0010079378,0.00065910816,0.0,0.0,-0.5634088
664948000,-0.0038001747,-0.011258017,0.0003143549,0.0,0.0,-0.56288373
664980000,-0.000999901,-0.010506706,0.00018686056,0.0,0.0,-0.5628254
665012000,0.002345853,-0.010977108,0.00033438206,0.0,0.0,-0.5624115
665040000,-0.0027925763,-0.0056944266,0.00033599138,0.0,0.0,-0.56157845
665072000,-0.0045306673,0.00576452,0.00046348572,0.0,0.0,-0.56142706
665108000,-0.00014343811,0.0017354339,0.00043559074,0.0,0.0,-0.56364596
665132000,0.00021059532,-0.0004896177,0.00041520596,0.0,0.0,-0.5651239
665168000,0.0041244314,-0.008818096,8.9764595e-05,0.0,0.0,-0.5650856
665200000,0.002989009,-0.008301546,0.0002657175,0.0,0.0,-0.5648487
665232000,0.0015685321,-0.0015786693,0.0003798008,0.0,0.0,-0.5632354
665264000,-0.0030554049,-0.0018998422,0.00039052963,0.0,0.0,-0.5629702
665300000,-0.009170489,-0.0057103885,0.0002696514,0.0,0.0,-0.5637918
665328000,-0.0011421894,-0.0011452397,-1.0192394e-05,0.0,0.0,-0.56334007
665360000,0.0064419103,0.00072053773,9.137392e-05,0.0,0.0,-0.5629658
665392000,0.0072305566,-0.0017044792,0.00028520823,0.0,0.0,-0.562432
665424000,0.00441393,0.0054337666,0.00023907423,0.0,0.0,-0.5617689
665456000,0.00021039275,0.0065904,0.00015556812,0.0,0.0,-0.5615305
665488000,-0.0012813276,-0.0018599492,0.00025731325,0.0,0.0,-0.56300837
665520000,0.0003325492,0.0098813735,0.00022780895,0.0,0.0,-0.561662
665548000,-0.008159037,0.0053119445,6.0796738e-06,0.0,0.0,-0.56086284
665584000,-0.003472364,-0.006776858,-5.2928925e-05,0.0,0.0,-0.56274843
665616000,-0.0032956512,-0.008882703,0.00018060207,0.0,0.0,-0.56248
665648000,-0.004093991,-0.0026341954,0.0002694726,0.0,0.0,-0.5634377
665680000,0.00058908714,-0.0041690655,0.0003569126,0.0,0.0,-0.5644822
665716000,-0.0005788598,-0.0015339497,0.00019186735,0.0,0.0,-0.56320965
665748000,0.0031347382,0.002921819,0.00019454956,0.0,0.0,-0.5628752
665776000,0.0045794416,0.003976496,0.00020366907,0.0,0.0,-0.5618335
665808000,0.013704563,-0.00066142855,0.00017184019,0.0,0.0,-0.5605753
665840000,0.017769817,-0.011539171,0.00012856722,0.0,0.0,-0.5607395
665872000,0.023557775,-0.011377608,-0.00015825033,0.0,0.0,-0.56325066
665900000,0.013046075,-0.013787948,-0.00036013126,0.0,0.0,-0.56446993
665940000,-0.000118532684,-0.014877977,-0.0003926754,0.0,0.0,-0.564237
665968000,-0.008098032,-0.003486814,-0.00038802624,0.0,0.0,-0.5643834
666000000,-0.006735101,0.0019557183,-0.00024533272,0.0,0.0,-0.5621495
666032000,-0.0055158874,0.0036641818,-4.3988228e-05,0.0,0.0,-0.5619519
666064000,0.0009761648,0.0043074805,4.8458576e-05,0.0,0.0,-0.56292546
666096000,-0.0013199472,0.005969143,-0.00015288591,0.0,0.0,-0.5631324
666132000,0.0038785944,0.007346752,-0.00035011768,0.0,0.0,-0.56336397
666164000,0.0017423029,0.0120128095,-0.000305593,0.0,0.0,-0.56279653
666192000,0.005236129,0.006830941,-0.00022745132,0.0,0.0,-0.5625193
666224000,0.002682399,-0.0040672105,-0.0002991557,0.0,0.0,-0.5630265
666256000,0.005560766,-0.010826111,-0.0004954934,0.0,0.0,-0.5631555
666284000,0.008578446,-0.0082454365,-0.00037550926,0.0,0.0,-0.56277204
666324000,0.0033305283,-0.001241444,-0.00030827522,0.0,0.0,-0.561841
666356000,-0.0064060497,0.0025098177,-0.00028145313,0.0,0.0,-0.56239396
666384000,-0.007017127,0.003030877,-6.186962e-05,0.0,0.0,-0.5615811
666420000,-0.008159699,-0.00023561355,-6.41942e-05,0.0,0.0,-0.5618714
666448000,-0.0033490956,-0.0044310344,-7.635355e-05,0.0,0.0,-0.5628731
666480000,-0.0018838118,-0.0027033463,-0.00045454502,0.0,0.0,-0.5631232
666512000,-0.0034967554,0.00010286376,-0.0003721118,0.0,0.0,-0.5628181
666544000,-0.007389715,-0.005187222,-0.00017917156,0.0,0.0,-0.5620681
666576000,-0.0011406541,-0.005335275,-0.00016272068,0.0,0.0,-0.5619569
666608000,0.011347184,-0.0091719255,-0.00019562244,0.0,0.0,-0.56279206
666640000,0.015756065,-0.0124073215,-0.00012338161,0.0,0.0,-0.5631371
666672000,0.013787977,-0.007762401,-0.00020760298,0.0,0.0,-0.56306356
666708000,0.012700787,-0.002454474,-0.0003324151,0.0,0.0,-0.56301826
666740000,0.0029535976,0.009875653,-0.000100672245,0.0,0.0,-0.5634843
666772000,0.00037699635,0.0036628651,2.002716e-05,0.0,0.0,-0.56230587
666800000,-0.0006737688,0.00016537102,0.00016826391,0.0,0.0,-0.56257194
666836000,0.003328078,-0.004702974,2.1457672e-06,0.0,0.0,-0.5628801
666864000,-0.009665152,0.006168642,-0.00011640787,0.0,0.0,-0.5623755
666896000,-0.008658638,0.007727516,-0.00021672249,0.0,0.0,-0.562263
666928000,0.003313242,0.002752636,-1.1444092e-05,0.0,0.0,-0.56281775
666964000,-0.0014805165,-0.0002761818,0.00028645992,0.0,0.0,-0.5607394
666992000,0.004570425,-0.0059684813,0.0005938411,0.0,0.0,-0.56013054
667028000,0.0016997857,0.0023420232,-0.052437544,0.0,0.0,-0.5629106
667056000,-0.012088656,0.02629911,-0.113835454,0.0,0.0,-0.5686081
667092000,-0.030014629,0.06618438,-0.16612887,0.0,0.0,-0.5741764
667124000,-0.07635773,0.18427925,-0.26009935,0.0,0.0,-0.5756665
667156000,-0.124577925,0.2782394,-0.31647223,0.0,0.0,-0.567416
667184000,-0.16468745,0.37067425,-0.36020207,0.0,0.0,-0.5617823
667216000,-0.25436586,0.59767133,-0.44144583,0.0,0.0,-0.55791247
667248000,-0.30760974,0.7104757,-0.4836191,0.0,0.0,-0.5579813
667280000,-0.35444754,0.7800894,-0.5123688,0.0,0.0,-0.5603028
667312000,-0.48084742,0.9431833,-0.57117176,0.0,0.0,-0.56652474
667344000,-0.5181765,0.9587095,-0.5976584,0.0,0.0,-0.5678963
667372000,-0.5318419,0.925265,-0.6127887,0.0,0.0,-0.5692811
667408000,-0.58834755,0.9581396,-0.6528934,0.0,0.0,-0.57317466
667444000,-0.5540169,0.86708987,-0.67092294,0.0,0.0,-0.57049584
667476000,-0.5120028,0.76390755,-0.6785859,0.0,0.0,-0.57133925
667500000,-0.47018385,0.6759217,-0.6892503,0.0,0.0,-0.57227844
667540000,-0.43960774,0.5923916,-0.73536247,0.0,0.0,-0.57652885
667568000,-0.38250482,0.4949435,-0.74550694,0.0,0.0,-0.5785529
667600000,-0.36336714,0.44542605,-0.77722496,0.0,0.0,-0.5869246
667632000,-0.27142274,0.32088006,-0.8008243,0.0,0.0,-0.58645964
667664000,-0.21168526,0.2449999,-0.8009675,0.0,0.0,-0.58918613
667700000,-0.22329225,0.22773573,-0.83125186,0.0,0.0,-0.5993874
667728000,-0.14270146,0.14279792,-0.85155576,0.0,0.0,-0.59964406
667760000,-0.11375689,0.10580825,-0.84837985,0.0,0.0,-0.6016184
667792000,-0.15389436,0.14548713,-0.87194556,0.0,0.0,-0.6094935
667824000,-0.09012368,0.09049302,-0.88893723,0.0,0.0,-0.60833305
667860000,-0.07390326,0.08989553,-0.86255515,0.0,0.0,-0.6115171
667892000,-0.14417022,0.15493199,-0.8978736,0.0,0.0,-0.6190315
667920000,-0.10165587,0.12940161,-0.9090878,0.0,0.0,-0.6173295
667956000,-0.1020612,0.13751206,-0.88743764,0.0,0.0,-0.6191063
667984000,-0.18551433,0.18417622,-0.9259735,0.0,0.0,-0.62576824
668016000,-0.14035656,0.15664794,-0.9180013,0.0,0.0,-0.6233469
668048000,-0.1571781,0.16545291,-0.9115162,0.0,0.0,-0.6252603
668076000,-0.16400415,0.16578475,-0.8970555,0.0,0.0,-0.6273781
668112000,-0.18732426,0.17756528,-0.93028367,0.0,0.0,-0.6320847
668144000,-0.18347567,0.17873362,-0.92323995,0.0,0.0,-0.6346636
668176000,-0.24611409,0.19970776,-0.94648665,0.0,0.0,-0.6413403
668212000,-0.17854369,0.16873111,-0.94396985,0.0,0.0,-0.6384992
668244000,-0.17571382,0.15323186,-0.9303416,0.0,0.0,-0.63996047
668272000,-0.24089822,0.17040893,-0.97356516,0.0,0.0,-0.64647585
668304000,-0.18169458,0.13302688,-0.9725622,0.0,0.0,-0.6448815
668336000,-0.17297283,0.11606486,-0.9489654,0.0,0.0,-0.6466492
668364000,-0.16864589,0.09939721,-0.9452684,0.0,0.0,-0.6486034
668400000,-0.18086442,0.09250903,-0.98306715,0.0,0.0,-0.6525319
668436000,-0.17708825,0.08316265,-0.9681271,0.0,0.0,-0.65421677
668464000,-0.24244145,0.080398366,-1.0094378,0.0,0.0,-0.6622623
668496000,-0.19949791,0.06701982,-1.0130286,0.0,0.0,-0.66025025
668524000,-0.2025382,0.06543231,-0.99655527,0.0,0.0,-0.6618176
668560000,-0.2696762,0.068338305,-1.0263451,0.0,0.0,-0.6679105
668596000,-0.22300297,0.05567774,-1.0084276,0.0,0.0,-0.66565037
668628000,-0.22133315,0.05078414,-1.0014262,0.0,0.0,-0.66733575
668652000,-0.22810471,0.04724443,-0.99413484,0.0,0.0,-0.670142
668684000,-0.29076833,0.04072246,-1.0349962,0.0,0.0,-0.677872
668720000,-0.24021846,0.039395034,-1.0216262,0.0,0.0,-0.6750667
668752000,-0.2819271,0.05635196,-1.0521502,0.0,0.0,-0.6803272
668788000,-0.21917006,0.06950033,-1.021622,0.0,0.0,-0.6776056
668812000,-0.20514181,0.07652816,-1.0064253,0.0,0.0,-0.6784075
668848000,-0.23562083,0.061721653,-1.0415733,0.0,0.0,-0.6853574
668880000,-0.17224579,0.066584945,-1.0198889,0.0,0.0,-0.68270725
668916000,-0.14658225,0.053078055,-0.973624,0.0,0.0,-0.6839257
668948000,-0.17236361,0.030525416,-1.0170343,0.0,0.0,-0.6886827
668976000,-0.117234975,0.03291683,-1.0053778,0.0,0.0,-0.68467724
669008000,-0.10256919,0.017897174,-0.96949697,0.0,0.0,-0.6854
669040000,-0.10156258,-0.013168886,-1.0096192,0.0,0.0,-0.6897725
669068000,-0.082706854,-0.028646752,-0.9835417,0.0,0.0,-0.6904295
669108000,-0.014180526,-0.022262111,-0.9463459,0.0,0.0,-0.68665636
669132000,0.00332167,-0.033466637,-0.9295778,0.0,0.0,-0.6858546
669168000,0.061097346,-0.023883797,-0.9397112,0.0,0.0,-0.6849131
669200000,0.082708865,-0.016916625,-0.9065373,0.0,0.0,-0.68471485
669232000,0.11169237,-0.008155435,-0.92932606,0.0,0.0,-0.6858182
669264000,0.15664673,0.021912508,-0.8985747,0.0,0.0,-0.6825283
669300000,0.15365472,0.031030253,-0.85552526,0.0,0.0,-0.68162435
669328000,0.14850818,0.065646775,-0.86290276,0.0,0.0,-0.681342
669364000,0.1582742,0.10555715,-0.8327998,0.0,0.0,-0.678409
669392000,0.13967885,0.12538432,-0.80951965,0.0,0.0,-0.6772907
669424000,0.11215078,0.14405301,-0.82075953,0.0,0.0,-0.67771804
669456000,0.09407859,0.14054771,-0.80120945,0.0,0.0,-0.67654896
669488000,0.052986626,0.103293896,-0.7795923,0.0,0.0,-0.67600846
669524000,-0.00079203397,0.04357015,-0.79543555,0.0,0.0,-0.67586035
669552000,-0.04033097,0.0012086593,-0.79450035,0.0,0.0,-0.6732959
669584000,-0.08287009,-0.071985155,-0.7710314,0.0,0.0,-0.67241913
669616000,-0.14755651,-0.1652027,-0.813254,0.0,0.0,-0.67236406
669648000,-0.181066,-0.24268739,-0.8012817,0.0,0.0,-0.67118615
669676000,-0.19820778,-0.29150882,-0.79566765,0.0,0.0,-0.67081225
669712000,-0.21212327,-0.3620013,-0.8254938,0.0,0.0,-0.67018044
669748000,-0.18454613,-0.38112622,-0.7988913,0.0,0.0,-0.6656863
669776000,-0.16518694,-0.38228005,-0.7882905,0.0,0.0,-0.6632564
669808000,-0.14744198,-0.37783188,-0.80865955,0.0,0.0,-0.66412526
669840000,-0.11020897,-0.32992572,-0.7999449,0.0,0.0,-0.6654184
669872000,-0.08233608,-0.2919566,-0.77607465,0.0,0.0,-0.6663026
669904000,-0.065012746,-0.26211947,-0.79230595,0.0,0.0,-0.6681247
669936000,-0.036491185,-0.2019761,-0.77375615,0.0,0.0,-0.6665226
669968000,-0.026398279,-0.16505551,-0.7414048,0.0,0.0,-0.66727597
670000000,-0.024951786,-0.13083293,-0.75646484,0.0,0.0,-0.67070115
670032000,-0.015117556,-0.08327454,-0.74791324,0.0,0.0,-0.6703566
670064000,-0.016409844,-0.07629698,-0.72629607,0.0,0.0,-0.670853
670092000,-0.022516027,-0.0699783,-0.7051703,0.0,0.0,-0.67096025
670128000,-0.025925204,-0.06607651,-0.7304628,0.0,0.0,-0.66997135
670160000,-0.026808634,-0.07213944,-0.71039414,0.0,0.0,-0.67001987
670196000,-0.03154005,-0.11010522,-0.71442103,0.0,0.0,-0.67191607
670224000,-0.0293684,-0.10493593,-0.71857667,0.0,0.0,-0.6703358
670256000,-0.020659402,-0.13884962,-0.69289184,0.0,0.0,-0.67090815
670288000,-0.0129954815,-0.18377656,-0.7218543,0.0,0.0,-0.67163813
670320000,0.0018021762,-0.19540781,-0.70340216,0.0,0.0,-0.6696188
670352000,0.009740621,-0.21270132,-0.6855655,0.0,0.0,-0.6685447
670384000,0.012179285,-0.24459547,-0.6442598,0.0,0.0,-0.6697123
670420000,0.018817037,-0.23679431,-0.5809958,0.0,0.0,-0.66868097
670452000,0.02203399,-0.24314506,-0.51890767,0.0,0.0,-0.66804874
670484000,0.015472591,-0.2627947,-0.45116866,0.0,0.0,-0.6693599
670512000,0.021763533,-0.23851119,-0.40701663,0.0,0.0,-0.6680421
670544000,0.015504777,-0.22413929,-0.35126817,0.0,0.0,-0.66773444
670580000,0.0049004853,-0.22989361,-0.2930231,0.0,0.0,-0.6686988
670608000,0.0021860898,-0.18806452,-0.2448231,0.0,0.0,-0.6674321
670640000,-0.0029319227,-0.17212428,-0.20077586,0.0,0.0,-0.6682555
670676000,-0.0061894655,-0.19117834,-0.1610763,0.0,0.0,-0.67013454
670700000,-0.01141879,-0.1886149,-0.12913013,0.0,0.0,-0.6703035
670736000,-0.014885187,-0.15531139,-0.09565079,0.0,0.0,-0.6688926
670768000,-0.010721862,-0.15805887,-0.06275046,0.0,0.0,-0.66932416
670804000,-0.01622361,-0.13195713,-0.03424287,0.0,0.0,-0.6676792
670832000,-0.018386632,-0.120558545,-0.017403245,0.0,0.0,-0.66808105
670864000,-0.0013588965,-0.15195563,0.0023825169,0.0,0.0,-0.6713049
670896000,0.0070730746,-0.14468636,0.019613028,0.0,0.0,-0.6698561
670928000,0.019596756,-0.14981599,0.036262035,0.0,0.0,-0.6702432
670964000,0.024344355,-0.17238817,0.048496127,0.0,0.0,-0.6712067
670988000,0.032563984,-0.17841728,0.05756414,0.0,0.0,-0.67094755
671024000,0.031220287,-0.16497713,0.06639218,0.0,0.0,-0.6686981
671052000,0.036218762,-0.1776777,0.07355654,0.0,0.0,-0.66847265
671092000,0.050456375,-0.18979016,0.08002925,0.0,0.0,-0.6692878
671120000,0.057190597,-0.19146185,0.08430219,0.0,0.0,-0.6688983
671156000,0.0635688,-0.20511183,0.08831942,0.0,0.0,-0.67011297
671184000,0.06386295,-0.17710939,0.091279864,0.0,0.0,-0.66842854
671216000,0.06096071,-0.16390912,0.092834115,0.0,0.0,-0.6684795
671252000,0.0685662,-0.18078277,0.09413481,0.0,0.0,-0.67057484
671280000,0.07049677,-0.1679484,0.094678044,0.0,0.0,-0.67039955
671312000,0.07245362,-0.16926236,0.09462547,0.0,0.0,-0.67083365
671344000,0.070558816,-0.17750046,0.094261765,0.0,0.0,-0.6711379
671376000,0.06771228,-0.14613926,0.093839765,0.0,0.0,-0.66905206
671408000,0.06507549,-0.1379832,0.093051195,0.0,0.0,-0.6687113
671440000,0.060968757,-0.12880647,0.091628194,0.0,0.0,-0.6679041
671468000,0.06118673,-0.17228182,0.08982289,0.0,0.0,-0.6695561
671504000,0.06040317,-0.14958939,0.088166356,0.0,0.0,-0.6680544
671540000,0.062028497,-0.17350312,0.086229086,0.0,0.0,-0.66968334
671568000,0.0662477,-0.15022525,0.08494878,0.0,0.0,-0.66851753
671604000,0.059072077,-0.14046997,0.08280909,0.0,0.0,-0.6682793
671632000,0.057445943,-0.1473797,0.08119333,0.0,0.0,-0.6707905
671664000,0.050826073,-0.13928036,0.07944167,0.0,0.0,-0.67106986
671696000,0.05624503,-0.13935506,0.07728052,0.0,0.0,-0.67089736
671728000,0.059321254,-0.14243616,0.07567942,0.0,0.0,-0.6701556
671760000,0.053356826,-0.14077511,0.07358694,0.0,0.0,-0.66850334
671792000,0.05295682,-0.13701506,0.07165432,0.0,0.0,-0.66832495
671824000,0.047570765,-0.12964627,0.06990802,0.0,0.0,-0.66869015
671856000,0.040722907,-0.11010267,0.06805587,0.0,0.0,-0.6688407
671888000,0.043413877,-0.10257375,0.06634641,0.0,0.0,-0.6684508
671924000,0.04670325,-0.10501599,0.06439912,0.0,0.0,-0.67008585
671952000,0.04682511,-0.11792944,0.06289101,0.0,0.0,-0.67168486
671984000,0.049842328,-0.13379261,0.060876846,0.0,0.0,-0.671904
672016000,0.055484176,-0.16978477,0.058979988,0.0,0.0,-0.6723592
672052000,0.055591553,-0.16395248,0.05723083,0.0,0.0,-0.67029935
672080000,0.058802515,-0.16700144,0.056105375,0.0,0.0,-0.6697676
672112000,0.05441299,-0.18000005,0.05465269,0.0,0.0,-0.67042625
672144000,0.045722276,-0.18340883,0.053260088,0.0,0.0,-0.6698917
672176000,0.041249156,-0.19221076,0.051831722,0.0,0.0,-0.6706785
672208000,0.04218766,-0.21488026,0.050523877,0.0,0.0,-0.6721498
672244000,0.03693679,-0.19112536,0.04964018,0.0,0.0,-0.6711375
672276000,0.027813971,-0.17673258,0.048288703,0.0,0.0,-0.67071193
672304000,0.030581564,-0.16936979,0.047362447,0.0,0.0,-0.6712322
672336000,0.030285716,-0.15124324,0.046320677,0.0,0.0,-0.67076933
672368000,0.030610532,-0.15524442,0.045294285,0.0,0.0,-0.67202234
672400000,0.03025943,-0.16602243,0.043988228,0.0,0.0,-0.67521113
672432000,0.035768867,-0.1294958,0.043383837,0.0,0.0,-0.6739565
672464000,0.0369114,-0.11669518,0.04221475,0.0,0.0,-0.6734726
672496000,0.032146186,-0.1036537,0.041650057,0.0,0.0,-0.6723019
672532000,0.03238231,-0.091933966,0.04106891,0.0,0.0,-0.67282766
672560000,0.03721717,-0.10390574,0.04064977,0.0,0.0,-0.67417705
672592000,0.040736675,-0.11018823,0.039964914,0.0,0.0,-0.67481494
672624000,0.032698452,-0.11879495,0.039380193,0.0,0.0,-0.6735649
672656000,0.036408573,-0.119626075,0.03874755,0.0,0.0,-0.67246217
672688000,0.047029316,-0.13363226,0.038122773,0.0,0.0,-0.6731723
672720000,0.04626453,-0.10468358,0.037585974,0.0,0.0,-0.6721044
672752000,0.04406628,-0.12192106,0.036923647,0.0,0.0,-0.6742993
672788000,0.04330346,-0.15067497,0.035823584,0.0,0.0,-0.67710656
672816000,0.040147305,-0.13960196,0.035252452,0.0,0.0,-0.674854
672848000,0.038849205,-0.13679874,0.034510374,0.0,0.0,-0.67372036
672880000,0.03868568,-0.14516754,0.033843398,0.0,0.0,-0.6744975
672912000,0.039491773,-0.1156396,0.033284426,0.0,0.0,-0.67289376
672944000,0.035072565,-0.11556123,0.032698274,0.0,0.0,-0.6743583
672976000,0.032191426,-0.14363421,0.032140017,0.0,0.0,-0.6766375
673008000,0.031392038,-0.12549251,0.031591773,0.0,0.0,-0.6747499
673044000,0.03235495,-0.11940247,0.030756712,0.0,0.0,-0.67470986
673072000,0.02704516,-0.1265286,0.030060053,0.0,0.0,-0.6756341
673104000,0.024139255,-0.0857964,0.02949822,0.0,0.0,-0.6744139
673136000,0.026303172,-0.0778297,0.02921319,0.0,0.0,-0.675408
673164000,0.023690075,-0.09058365,0.02864635,0.0,0.0,-0.676737
673204000,0.026310414,-0.101191744,0.027777314,0.0,0.0,-0.67745847
673228000,0.027026027,-0.10104735,0.027032733,0.0,0.0,-0.6773949
673264000,0.027767658,-0.11417717,0.026327133,0.0,0.0,-0.6780262
673296000,0.025481164,-0.084328204,0.026186228,0.0,0.0,-0.67616975
673328000,0.025552511,-0.074106306,0.025957704,0.0,0.0,-0.6756453
673360000,0.028568208,-0.11324926,0.025250316,0.0,0.0,-0.67963237
673392000,0.028122157,-0.101949245,0.024815083,0.0,0.0,-0.6794156
673424000,0.0237827,-0.10870372,0.024391651,0.0,0.0,-0.6795367
673456000,0.022810489,-0.12466362,0.023777962,0.0,0.0,-0.67946553
673492000,0.03060919,-0.09806675,0.02313459,0.0,0.0,-0.677864
673524000,0.033712596,-0.091153845,0.02272904,0.0,0.0,-0.6774884
673552000,0.02882114,-0.1170301,0.021931529,0.0,0.0,-0.68055487
673584000,0.030980587,-0.11398199,0.021502018,0.0,0.0,-0.67994666
673616000,0.03300932,-0.11419366,0.02121377,0.0,0.0,-0.6802939
673648000,0.038205028,-0.1129003,0.020886898,0.0,0.0,-0.6796129
673680000,0.0319207,-0.0956735,0.020472765,0.0,0.0,-0.6785568
673712000,0.029225707,-0.087963626,0.020029664,0.0,0.0,-0.67884827
673744000,0.027077526,-0.12249604,0.019613028,0.0,0.0,-0.67964786
673776000,0.026302636,-0.11752877,0.019174933,0.0,0.0,-0.6783997
673808000,0.026578814,-0.115421176,0.018980384,0.0,0.0,-0.6783962
673840000,0.01929921,-0.10194312,0.018737197,0.0,0.0,-0.67834026
673876000,0.01806584,-0.04315898,0.018843412,0.0,0.0,-0.67516476
673904000,0.018125206,0.0018668622,0.018733978,0.0,0.0,-0.67421305
673936000,0.007663876,0.057650685,0.018748999,0.0,0.0,-0.6738362
673968000,0.005644977,0.111600235,0.01881373,0.0,0.0,-0.67304015
674000000,0.00014457107,0.14048441,0.018598437,0.0,0.0,-0.6732707
674032000,0.007804781,0.1613845,0.01831019,0.0,0.0,-0.6734445
674064000,0.012714833,0.23545893,0.01874435,0.0,0.0,-0.67193925
674096000,0.01794979,0.23850708,0.01853478,0.0,0.0,-0.67087775
674128000,0.022939414,0.2571333,0.018265128,0.0,0.0,-0.67045593
674164000,0.02744463,0.21987797,0.017688632,0.0,0.0,-0.6681769
674192000,0.03106463,0.18709727,0.016955853,0.0,0.0,-0.66699636
674224000,0.038856536,0.15081207,0.01658535,0.0,0.0,-0.6638975
674252000,0.048449457,0.10848078,0.016519189,0.0,0.0,-0.6618276
674288000,0.0519695,0.07741651,0.016432285,0.0,0.0,-0.65999806
674316000,0.05490446,0.042511314,0.016527057,0.0,0.0,-0.6591278
674352000,0.057588637,-0.0039179474,0.016315341,0.0,0.0,-0.6566284
674384000,0.054127336,-0.033003062,0.016161919,0.0,0.0,-0.6552406
674416000,0.0572581,-0.060056984,0.016213775,0.0,0.0,-0.6539025
674448000,0.058017433,-0.057491273,0.016147256,0.0,0.0,-0.6516824
674484000,0.05509606,-0.05446659,0.016313553,0.0,0.0,-0.6503824
674512000,0.055305004,-0.019213289,0.016512752,0.0,0.0,-0.6479206
674544000,0.0513027,-0.018301696,0.016063571,0.0,0.0,-0.6473134
674576000,0.04530099,-0.0068223774,0.015808582,0.0,0.0,-0.6470777
674608000,0.04321271,0.0018741488,0.015444875,0.0,0.0,-0.6468391
674640000,0.037603498,0.04076448,0.015174866,0.0,0.0,-0.64609647
674672000,0.032836944,0.056144804,0.0150386095,0.0,0.0,-0.6456296
674704000,0.027092189,0.08335255,0.01481688,0.0,0.0,-0.64557034
674736000,0.0153595805,0.08076766,0.014464259,0.0,0.0,-0.64608496
674768000,0.005670011,0.0533161,0.014019728,0.0,0.0,-0.64543635
674800000,-0.018420607,0.028359309,0.013402462,0.0,0.0,-0.64539015
674832000,-0.025430113,0.00047631562,0.013094544,0.0,0.0,-0.64465
674868000,-0.028090328,-0.017201766,0.01267612,0.0,0.0,-0.64335287
674900000,-0.038449287,-0.028473258,0.011973381,0.0,0.0,-0.64146715
674928000,-0.033748537,-0.031878993,0.01143229,0.0,0.0,-0.63993573
674960000,-0.02816981,-0.04314874,0.010751009,0.0,0.0,-0.6393541
674992000,-0.021033168,-0.031256095,0.009954214,0.0,0.0,-0.6380822
675024000,-0.007989943,-0.0096244365,0.009561539,0.0,0.0,-0.63719946
675052000,0.007894635,0.01213856,0.009181023,0.0,0.0,-0.6364745
675088000,0.028703928,0.056684777,0.009091258,0.0,0.0,-0.63589853
675120000,0.04537511,0.09217295,0.00919354,0.0,0.0,-0.63540876
675152000,0.046916485,0.09409051,0.009515405,0.0,0.0,-0.6355886
675188000,0.062330335,0.10861945,0.00997746,0.0,0.0,-0.6351373
675216000,0.073061675,0.11511156,0.010394096,0.0,0.0,-0.6337937
675248000,0.07701221,0.11025408,0.010470986,0.0,0.0,-0.63325626
675280000,0.07445347,0.122741014,0.011026025,0.0,0.0,-0.63089293
675312000,0.07704547,0.13120893,0.011700869,0.0,0.0,-0.6302681
675344000,0.0722267,0.11759877,0.012048125,0.0,0.0,-0.6306805
675376000,0.07254669,0.10796973,0.012207985,0.0,0.0,-0.63043255
675408000,0.06414029,0.08574732,0.012756586,0.0,0.0,-0.6291426
675444000,0.051858544,0.071317434,0.013123155,0.0,0.0,-0.62813175
675472000,0.026616096,0.04794158,0.013618827,0.0,0.0,-0.6280747
675504000,-0.0013641715,0.024769641,0.013882041,0.0,0.0,-0.62822694
675536000,-0.026820391,0.00094693154,0.013798714,0.0,0.0,-0.62767094
675568000,-0.05054015,-0.03128171,0.013305187,0.0,0.0,-0.6266961
675600000,-0.052977473,-0.04226093,0.012382507,0.0,0.0,-0.62554204
675632000,-0.049272805,-0.03512849,0.011617899,0.0,0.0,-0.6245798
675664000,-0.03912717,-0.0028206557,0.010876179,0.0,0.0,-0.622618
675696000,-0.021797776,0.033606157,0.010455251,0.0,0.0,-0.62166023
675732000,-0.0060105175,0.0607042,0.010028958,0.0,0.0,-0.6208317
675760000,0.013753742,0.08275891,0.009924889,0.0,0.0,-0.622124
675792000,0.03207931,0.09793067,0.009797215,0.0,0.0,-0.6220834
675824000,0.049449384,0.120099194,0.009736061,0.0,0.0,-0.6210417
675856000,0.056441188,0.13780677,0.009594798,0.0,0.0,-0.6194074
675888000,0.06514987,0.15374382,0.009873748,0.0,0.0,-0.61941785
675916000,0.06969595,0.15648575,0.009959936,0.0,0.0,-0.61982137
675952000,0.06402965,0.14513884,0.010311842,0.0,0.0,-0.620423
675984000,0.057144865,0.12779568,0.010255337,0.0,0.0,-0.6193055
676016000,0.04805088,0.09879224,0.010504246,0.0,0.0,-0.61718327
676052000,0.030663371,0.07244139,0.010904431,0.0,0.0,-0.6157639
676080000,0.015389666,0.054392494,0.010941625,0.0,0.0,-0.6148882
676112000,-0.002807334,0.03916823,0.011048913,0.0,0.0,-0.6143372
676144000,-0.020057157,0.016026847,0.010918379,0.0,0.0,-0.61416554
676180000,-0.03323172,-0.0035600513,0.0101315975,0.0,0.0,-0.61364365
676212000,-0.03244038,-0.0032519996,0.009442806,0.0,0.0,-0.6120601
676240000,-0.02428244,0.022773162,0.009135246,0.0,0.0,-0.6113433
676272000,-0.013232946,0.04759086,0.0088505745,0.0,0.0,-0.6103329
676304000,-0.00023840368,0.06531957,0.00847435,0.0,0.0,-0.6097671
676336000,0.016601622,0.08830798,0.0079779625,0.0,0.0,-0.60909116
676372000,0.023923784,0.09890324,0.007679701,0.0,0.0,-0.6105272
676400000,0.021485746,0.10885578,0.007473707,0.0,0.0,-0.61214054
676436000,0.02902016,0.13465405,0.007421851,0.0,0.0,-0.61209863
676464000,0.033252373,0.14513804,0.0075445175,0.0,0.0,-0.6116179
676500000,0.032408103,0.14656973,0.007841706,0.0,0.0,-0.6105194
676528000,0.02694963,0.14161125,0.0078789,0.0,0.0,-0.60882026
676564000,0.028480053,0.106690876,0.008124948,0.0,0.0,-0.60859287
676592000,0.014344901,0.08180384,0.008154273,0.0,0.0,-0.6089928
676624000,0.0025846213,0.060781337,0.007857084,0.0,0.0,-0.6095345
676656000,-0.010021761,0.05434057,0.0078002214,0.0,0.0,-0.60789704
676688000,-0.014409006,0.05363752,0.007815599,0.0,0.0,-0.6064216
676720000,-0.009346247,0.063102275,0.007844567,0.0,0.0,-0.60500854
676756000,-0.004041061,0.0562974,0.007430434,0.0,0.0,-0.6053739
676784000,-0.0017806292,0.064674005,0.007098198,0.0,0.0,-0.6051168
676816000,0.0033573657,0.07334514,0.0067749023,0.0,0.0,-0.6025221
676848000,0.014229432,0.07568722,0.0067180395,0.0,0.0,-0.6012993
676880000,0.023707464,0.09306407,0.0069680214,0.0,0.0,-0.60187817
676912000,0.023168564,0.108132765,0.0073496103,0.0,0.0,-0.60221446
676944000,0.023145273,0.12678668,0.007720113,0.0,0.0,-0.6021998
676980000,0.02195853,0.117841914,0.007814884,0.0,0.0,-0.60118294
677004000,0.014480755,0.11716591,0.0077376366,0.0,0.0,-0.59981614
677044000,0.017155632,0.13199924,0.007879257,0.0,0.0,-0.600428
677076000,0.019378781,0.12866774,0.007845998,0.0,0.0,-0.6009153
677104000,0.02716197,0.1292072,0.008096337,0.0,0.0,-0.60102487
677140000,0.025767446,0.12290606,0.008211136,0.0,0.0,-0.6011548
677172000,0.021284893,0.11548787,0.008193612,0.0,0.0,-0.6009394
677204000,0.014991671,0.120804615,0.008518338,0.0,0.0,-0.60005814
677236000,0.0064193755,0.112898044,0.00859952,0.0,0.0,-0.5998745
677264000,0.00035597384,0.08659977,0.008673906,0.0,0.0,-0.5993574
677296000,0.001206547,0.06449441,0.008297682,0.0,0.0,-0.59853774
677328000,-0.008659065,0.05479476,0.008128166,0.0,0.0,-0.59595376
677356000,-0.014374629,0.057395138,0.007633209,0.0,0.0,-0.5956199
677392000,-0.019081414,0.07035097,0.0073553324,0.0,0.0,-0.59565943
677424000,-0.0175834,0.10075832,0.0072523355,0.0,0.0,-0.59686744
677460000,-0.0040234476,0.095106125,0.0067852736,0.0,0.0,-0.5961911
677488000,0.005324766,0.096294545,0.0065352917,0.0,0.0,-0.59452736
677520000,0.0036981404,0.09382479,0.006474495,0.0,0.0,-0.59305775
677556000,0.0065216124,0.09294679,0.005977392,0.0,0.0,-0.5924469
677584000,0.01705183,0.097811356,0.0060185194,0.0,0.0,-0.5932118
677616000,0.020398468,0.106410004,0.0059001446,0.0,0.0,-0.59513634
677652000,0.020472363,0.09791679,0.005811453,0.0,0.0,-0.59563565
677680000,0.02325046,0.087369025,0.005553603,0.0,0.0,-0.5940932
677712000,0.020776436,0.08259536,0.0051527023,0.0,0.0,-0.5918799
677744000,0.019191384,0.08026327,0.0053189993,0.0,0.0,-0.59120667
677780000,0.018659636,0.087394506,0.0052678585,0.0,0.0,-0.5923292
677808000,0.018103883,0.10297859,0.005354762,0.0,0.0,-0.5937964
677844000,0.01806812,0.1043823,0.004963517,0.0,0.0,-0.5937338
677872000,0.011208728,0.10546144,0.0046391487,0.0,0.0,-0.59207064
677900000,0.0013822317,0.096768714,0.004403472,0.0,0.0,-0.5903451
677932000,-0.009208605,0.10362721,0.0041137934,0.0,0.0,-0.5896151
677964000,-0.017929047,0.107268244,0.0039639473,0.0,0.0,-0.5897346
678000000,-0.026007012,0.1269329,0.003413558,0.0,0.0,-0.5921483
678036000,-0.01747021,0.1313674,0.003296256,0.0,0.0,-0.59285975
678064000,-0.011238053,0.11664925,0.003103137,0.0,0.0,-0.5927605
678100000,0.0073124617,0.09880447,0.0026875734,0.0,0.0,-0.5899949
678132000,0.01179868,0.09401552,0.0025691986,0.0,0.0,-0.58773106
678156000,0.014215127,0.09035191,0.0026210546,0.0,0.0,-0.5868817
678196000,0.019795418,0.09301977,0.0024379492,0.0,0.0,-0.58800805
678228000,0.02476506,0.094556406,0.0024472475,0.0,0.0,-0.58906925
678256000,0.02140832,0.0946394,0.002286315,0.0,0.0,-0.5895785
678288000,0.012143388,0.08909456,0.0022287369,0.0,0.0,-0.5885814
678320000,-0.00031100214,0.08817438,0.0023710728,0.0,0.0,-0.58776987
678352000,-0.0028721988,0.10496661,0.002491951,0.0,0.0,-0.5884832
678380000,-0.004085295,0.10515983,0.0024801493,0.0,0.0,-0.58946794
678416000,-0.0036558732,0.112216175,0.0024547577,0.0,0.0,-0.5886169
678448000,-0.007962361,0.11621636,0.0025151968,0.0,0.0,-0.5863856
678480000,-0.00827048,0.111523226,0.00229311,0.0,0.0,-0.5864637
678508000,-0.0022804588,0.10361054,0.0026271343,0.0,0.0,-0.5882948
678544000,0.0067458227,0.109647006,0.0026260614,0.0,0.0,-0.5892933
678576000,0.004869528,0.11478327,0.0027719736,0.0,0.0,-0.5878226
678608000,0.009342805,0.11452137,0.003005147,0.0,0.0,-0.5859697
678640000,0.016719483,0.120618,0.0033792257,0.0,0.0,-0.5866221
678672000,0.010060608,0.10072227,0.003843069,0.0,0.0,-0.586252
678704000,0.008778289,0.088836886,0.00404191,0.0,0.0,-0.585788
678736000,0.008443974,0.098528825,0.0041953325,0.0,0.0,-0.5848326
678768000,0.0021948516,0.09322007,0.004409194,0.0,0.0,-0.5842875
678800000,0.0044040754,0.09263268,0.0046516657,0.0,0.0,-0.58539736
678832000,0.0010505095,0.10047172,0.004873395,0.0,0.0,-0.5864858
678864000,0.006230995,0.09755053,0.004369855,0.0,0.0,-0.5857233
678896000,0.008959003,0.09508795,0.0046452284,0.0,0.0,-0.5847072
678932000,0.005818248,0.111018255,0.0046613216,0.0,0.0,-0.58464
678964000,0.0120706335,0.1149057,0.004504323,0.0,0.0,-0.58529055
678992000,0.011302941,0.112168126,0.004515767,0.0,0.0,-0.5854965
679028000,0.0058519766,0.12961225,0.004483223,0.0,0.0,-0.58427775
679056000,0.008889511,0.11949928,0.0044703484,0.0,0.0,-0.5828798
679088000,-0.0031352341,0.10789397,0.0045018196,0.0,0.0,-0.581726
679120000,-0.0031491593,0.10505356,0.0043845177,0.0,0.0,-0.58211184
679148000,-0.0060541257,0.10287289,0.0041109324,0.0,0.0,-0.5834737
679184000,-0.007671453,0.10533938,0.0040379763,0.0,0.0,-0.58391434
679216000,-0.0053599477,0.110183336,0.0040490627,0.0,0.0,-0.5829331
679252000,-0.003057517,0.09946208,0.0037879944,0.0,0.0,-0.5821006
679280000,-0.004705757,0.09901725,0.0036671162,0.0,0.0,-0.5818014
679308000,-0.0047925487,0.09745701,0.0036638975,0.0,0.0,-0.58211654
679340000,-0.0028398558,0.10481438,0.0037289858,0.0,0.0,-0.5821405
679376000,-0.001695916,0.10379355,0.003862381,0.0,0.0,-0.5808648
679408000,-4.810095e-05,0.10177488,0.004106641,0.0,0.0,-0.57906586
679440000,-0.0040973425,0.09257662,0.00419569,0.0,0.0,-0.5796949
679472000,-0.00443054,0.09375124,0.004305482,0.0,0.0,-0.5805556
679500000,-0.004292272,0.101216406,0.0046681166,0.0,0.0,-0.5816509
679536000,0.011577398,0.113318115,0.0053118467,0.0,0.0,-0.5799543
679568000,0.012885824,0.11286877,0.0057885647,0.0,0.0,-0.5776978
679600000,0.009232789,0.10919356,0.0063257217,0.0,0.0,-0.57615054
679632000,0.017779246,0.10540529,0.00665009,0.0,0.0,-0.5768967
679664000,0.017717712,0.090066746,0.006773114,0.0,0.0,-0.5787487
679696000,0.02483569,0.08882334,0.007228732,0.0,0.0,-0.5814154
679732000,0.01887542,0.1024774,0.007979035,0.0,0.0,-0.58071154
679764000,0.021728218,0.10126716,0.00867784,0.0,0.0,-0.57859963
679796000,0.014244296,0.10493365,0.009494305,0.0,0.0,-0.57707816
679824000,0.0088509545,0.112125784,0.009623766,0.0,0.0,-0.57746315
679860000,0.005473092,0.107096285,0.009441018,0.0,0.0,-0.5769992
679888000,-0.0048980936,0.1101372,0.009368062,0.0,0.0,-0.57802653
679920000,-0.006557107,0.1064225,0.009316921,0.0,0.0,-0.57875377
679956000,-0.007913545,0.10113106,0.009214997,0.0,0.0,-0.57846105
679984000,-0.011463493,0.106466286,0.00941205,0.0,0.0,-0.5767016
680016000,-0.0059624612,0.10688685,0.009405971,0.0,0.0,-0.5767579
680048000,-0.014082536,0.10599479,0.009316206,0.0,0.0,-0.5778293
680080000,-0.013856113,0.09105542,0.009118795,0.0,0.0,-0.5775521
680116000,-0.013018906,0.088262096,0.008834481,0.0,0.0,-0.57582194
680144000,-0.0067967847,0.08413585,0.008828402,0.0,0.0,-0.5748955
680180000,0.0009370521,0.08984069,0.008428574,0.0,0.0,-0.5754154
680212000,0.011282086,0.089654885,0.008212566,0.0,0.0,-0.5773419
680244000,0.0117734,0.092104614,0.0080856085,0.0,0.0,-0.577891
680272000,0.007021062,0.09429438,0.00813961,0.0,0.0,-0.5771884
680308000,0.005040407,0.0896228,0.008199334,0.0,0.0,-0.57560825
680336000,0.0061751828,0.09483987,0.008218288,0.0,0.0,-0.57541865
680372000,0.006407529,0.10478853,0.008422852,0.0,0.0,-0.5760005
680396000,0.0014114454,0.10507302,0.008204699,0.0,0.0,-0.5757695
680432000,-0.011323683,0.11090029,0.008376718,0.0,0.0,-0.5747403
680460000,-0.015405614,0.10020429,0.007914662,0.0,0.0,-0.57386315
680500000,-0.015256785,0.10060899,-0.00013518333,0.0,0.0,-0.5752453
680528000,-0.01564204,0.090477794,-0.00060009956,0.0,0.0,-0.5761717
680564000,-0.011504229,0.08409862,-0.0010639429,0.0,0.0,-0.57594186
680596000,0.005314395,0.07779272,0.059995294,0.0,0.0,-0.5739413
680628000,0.04054244,0.07183002,0.112208605,0.0,0.0,-0.5727842
680656000,0.121323556,0.066846356,0.20752573,0.0,0.0,-0.57248425
680688000,0.19062924,0.07933669,0.26664376,0.0,0.0,-0.57396674
680720000,0.24019893,0.10032633,0.3143524,0.0,0.0,-0.57491785
680752000,0.35444164,0.16263026,0.40173125,0.0,0.0,-0.574177
680784000,0.4191277,0.20958829,0.45113075,0.0,0.0,-0.5711926
680816000,0.469849,0.2600183,0.4898579,0.0,0.0,-0.5703251
680848000,0.610407,0.3495248,0.56493616,0.0,0.0,-0.5713078
680884000,0.6319276,0.38734236,0.5993414,0.0,0.0,-0.5728633
680916000,0.63747656,0.41463804,0.62329745,0.0,0.0,-0.57552916
680940000,0.63467616,0.429332,0.6473837,0.0,0.0,-0.5768832
680976000,0.69871074,0.47688147,0.7144332,0.0,0.0,-0.57404137
681012000,0.6485432,0.45114192,0.7242687,0.0,0.0,-0.57362884
681040000,0.7146845,0.46728158,0.7826886,0.0,0.0,-0.57640505
681072000,0.5629147,0.39154094,0.79812634,0.0,0.0,-0.5750312
681104000,0.4531932,0.33607265,0.8054316,0.0,0.0,-0.5753962
681136000,0.42410374,0.3100107,0.8602935,0.0,0.0,-0.576302
681172000,0.2645203,0.238869,0.86568475,0.0,0.0,-0.5745829
681200000,0.18218207,0.19461036,0.8648647,0.0,0.0,-0.5745232
681232000,0.19055128,0.18047641,0.9139198,0.0,0.0,-0.5781228
681264000,0.083859086,0.1304293,0.91883326,0.0,0.0,-0.5784115
681296000,0.048476055,0.10202649,0.91205764,0.0,0.0,-0.5804047
681328000,0.093317896,0.09359416,0.9491726,0.0,0.0,-0.58497036
681364000,0.033529133,0.07655637,0.9384645,0.0,0.0,-0.5843151
681392000,0.040258527,0.077877134,0.9340278,0.0,0.0,-0.58459246
681424000,0.11103009,0.09775959,0.9559314,0.0,0.0,-0.5872082
681452000,0.11568175,0.10135871,0.9493114,0.0,0.0,-0.5884086
681488000,0.08008589,0.112285405,0.9403181,0.0,0.0,-0.58763355
681520000,0.15458058,0.15230182,0.9656346,0.0,0.0,-0.5900239
681552000,0.117329255,0.17069355,0.9532975,0.0,0.0,-0.58956474
681588000,0.123080626,0.17243783,0.9249501,0.0,0.0,-0.5902561
681620000,0.19536607,0.19354928,0.9493543,0.0,0.0,-0.5935248
681648000,0.15807863,0.19648594,0.9453757,0.0,0.0,-0.592796
681680000,0.15952139,0.19015199,0.9246093,0.0,0.0,-0.5938264
681716000,0.2214185,0.1790522,0.9415777,0.0,0.0,-0.596693
681744000,0.17085484,0.17918658,0.9368155,0.0,0.0,-0.5957797
681776000,0.16215223,0.16751423,0.91607165,0.0,0.0,-0.5963383
681808000,0.21077491,0.15323827,0.94232583,0.0,0.0,-0.59808666
681840000,0.1646647,0.13889565,0.929688,0.0,0.0,-0.5969352
681872000,0.15246145,0.118138164,0.90987396,0.0,0.0,-0.5971157
681908000,0.17079172,0.108683065,0.9251665,0.0,0.0,-0.6009234
681940000,0.0986626,0.116682395,0.89969087,0.0,0.0,-0.60087574
681968000,0.08568093,0.12299225,0.8956543,0.0,0.0,-0.6015016
681996000,0.06385276,0.12862413,0.87264025,0.0,0.0,-0.6011351
682036000,0.035726935,0.14972766,0.89138246,0.0,0.0,-0.6021468
682064000,0.022842318,0.16027191,0.8773048,0.0,0.0,-0.601846
682096000,0.04323381,0.1811184,0.8971349,0.0,0.0,-0.60390973
682132000,-0.00021073222,0.1999319,0.8707334,0.0,0.0,-0.6034304
682160000,-0.0023878813,0.21088752,0.85614073,0.0,0.0,-0.6030778
682192000,0.021101654,0.23006867,0.86674976,0.0,0.0,-0.6038124
682228000,-0.01570706,0.24516937,0.8506869,0.0,0.0,-0.6031852
682256000,-0.012823686,0.23678175,0.82917416,0.0,0.0,-0.60297954
682288000,0.005082786,0.25017732,0.85914624,0.0,0.0,-0.60336655
682320000,-0.019816115,0.2556314,0.8450711,0.0,0.0,-0.60326266
682352000,-0.01232256,0.23359242,0.8254473,0.0,0.0,-0.6035567
682384000,-0.0068433434,0.2321448,0.84804046,0.0,0.0,-0.6037899
682416000,-0.032523125,0.22294687,0.8362223,0.0,0.0,-0.6028391
682448000,-0.035890326,0.20307887,0.8078195,0.0,0.0,-0.6017898
682480000,-0.051649958,0.1981976,0.84051096,0.0,0.0,-0.6006219
682512000,-0.08218901,0.17804998,0.821409,0.0,0.0,-0.5987305
682548000,-0.09798615,0.15525931,0.80294394,0.0,0.0,-0.598358
682576000,-0.11812408,0.13482521,0.79349685,0.0,0.0,-0.5998218
682612000,-0.18554735,0.12495482,0.81760955,0.0,0.0,-0.6013218
682640000,-0.19846028,0.123684816,0.80764174,0.0,0.0,-0.6006464
682672000,-0.19818702,0.1200232,0.78966916,0.0,0.0,-0.5994819
682708000,-0.21962816,0.14296827,0.8050107,0.0,0.0,-0.59691674
682732000,-0.21386465,0.14506876,0.8045615,0.0,0.0,-0.59543437
682768000,-0.21380273,0.16280702,0.8205818,0.0,0.0,-0.59540266
682804000,-0.19151849,0.16202256,0.81191003,0.0,0.0,-0.5955699
682832000,-0.16034126,0.16003524,0.80360556,0.0,0.0,-0.5960594
682860000,-0.12732834,0.14554709,0.7873206,0.0,0.0,-0.59516704
682896000,-0.08700453,0.14516968,0.82266927,0.0,0.0,-0.5939564
682928000,-0.055658273,0.1215249,0.80684566,0.0,0.0,-0.59341615
682960000,-0.03908105,0.11607185,0.8337409,0.0,0.0,-0.59160805
682992000,-0.0125221,0.0861002,0.82628703,0.0,0.0,-0.59050065
683024000,0.010723712,0.055633962,0.80174714,0.0,0.0,-0.5896164
683060000,0.023747189,0.05396135,0.82931596,0.0,0.0,-0.58785427
683092000,0.048400655,0.03383567,0.8221153,0.0,0.0,-0.588139
683120000,0.058330413,0.017164525,0.8147841,0.0,0.0,-0.587732
683156000,0.056912646,0.018079648,0.8333675,0.0,0.0,-0.58769727
683184000,0.053512737,0.0020026483,0.8339807,0.0,0.0,-0.5868749
683220000,0.048775427,-0.0043491414,0.8086358,0.0,0.0,-0.58686435
683248000,0.049339704,0.0050432165,0.84355456,0.0,0.0,-0.5867391
683284000,0.046461556,-0.0074388813,0.8178411,0.0,0.0,-0.58674395
683308000,0.038747497,-0.01078115,0.81762755,0.0,0.0,-0.58559346
683340000,0.031032708,-0.0028988216,0.8002465,0.0,0.0,-0.5855225
683376000,0.008021956,0.0044346773,0.83492243,0.0,0.0,-0.5856689
683408000,-0.008317597,0.0026825394,0.8172857,0.0,0.0,-0.5854452
683440000,-0.026629357,0.020874072,0.8008527,0.0,0.0,-0.58413327
683476000,-0.041268624,0.019121408,0.72556746,0.0,0.0,-0.5837766
683504000,-0.048622627,0.027495883,0.6673648,0.0,0.0,-0.58399165
683536000,-0.052245654,0.043684218,0.6028284,0.0,0.0,-0.58375067
683568000,-0.05567022,0.04655632,0.538816,0.0,0.0,-0.5839658
683600000,-0.038463384,0.05078708,0.47633806,0.0,0.0,-0.58475596
683632000,-0.020765614,0.054656994,0.41852337,0.0,0.0,-0.58377457
683664000,0.0011305315,0.051988464,0.3635592,0.0,0.0,-0.5827894
683696000,0.02205167,0.0497646,0.31131053,0.0,0.0,-0.5825133
683732000,0.044320807,0.05634013,0.2582316,0.0,0.0,-0.5826352
683764000,0.05932592,0.057155557,0.21480297,0.0,0.0,-0.5827904
683796000,0.058958184,0.049437463,0.17413881,0.0,0.0,-0.5832897
683824000,0.058517188,0.043899406,0.14210685,0.0,0.0,-0.5829579
683856000,0.05799538,0.043786954,0.11148778,0.0,0.0,-0.58313686
683888000,0.05339223,0.03574559,0.08158097,0.0,0.0,-0.5823853
683920000,0.06186679,0.037521213,0.056703072,0.0,0.0,-0.58065474
683952000,0.05333835,0.024777986,0.03348344,0.0,0.0,-0.5802573
683984000,0.042523872,0.022954136,0.012844585,0.0,0.0,-0.57959116
684016000,0.038138583,0.026161814,-0.0036501512,0.0,0.0,-0.57953113
684048000,0.013201727,0.02807489,-0.018478699,0.0,0.0,-0.58010435
684080000,0.0045791706,0.03158485,-0.031282067,0.0,0.0,-0.5799702
684112000,-0.010312884,0.04104285,-0.040993474,0.0,0.0,-0.58028907
684148000,-0.014558455,0.044895694,-0.05165597,0.0,0.0,-0.58093756
684180000,-0.018958544,0.042845216,-0.06076721,0.0,0.0,-0.58143497
684208000,-0.027359286,0.048094366,-0.06402567,0.0,0.0,-0.58133805
684244000,-0.028404113,0.050680317,-0.06968676,0.0,0.0,-0.5802012
684272000,-0.0306836,0.053450607,-0.073582985,0.0,0.0,-0.5794093
684304000,-0.024618797,0.04919695,-0.07573226,0.0,0.0,-0.57879406
684336000,-0.025568208,0.04573641,-0.07606056,0.0,0.0,-0.57954973
684372000,-0.025762545,0.036305387,-0.07860397,0.0,0.0,-0.57973933
684400000,-0.020631611,0.042804472,-0.07738097,0.0,0.0,-0.5808108
684432000,-0.017471265,0.04168382,-0.076693855,0.0,0.0,-0.580162
684464000,-0.009659797,0.049938865,-0.076730914,0.0,0.0,-0.5799219
684500000,-0.012330051,0.055383533,-0.07444449,0.0,0.0,-0.5789787
684528000,-0.015740251,0.048840266,-0.072620764,0.0,0.0,-0.57870173
684560000,-0.011797537,0.043791596,-0.07137651,0.0,0.0,-0.5789663
684592000,-0.008958738,0.041827373,-0.06893923,0.0,0.0,-0.57912886
684624000,-0.009679021,0.036100127,-0.06643559,0.0,0.0,-0.5789018
684656000,-0.011599551,0.034622952,-0.06469846,0.0,0.0,-0.5790838
684692000,-0.0148036,0.033348404,-0.061563134,0.0,0.0,-0.57923365
684720000,-0.01421996,0.027652524,-0.05869621,0.0,0.0,-0.578599
684752000,-0.01561346,0.027108822,-0.056885205,0.0,0.0,-0.57845706
684784000,-0.010441599,0.033933017,-0.053563,0.0,0.0,-0.5782949
684812000,-0.014980482,0.031916842,-0.051899895,0.0,0.0,-0.5779785
684848000,-0.017155876,0.039757684,-0.049693532,0.0,0.0,-0.57786417
684880000,-0.015113929,0.04428865,-0.04798881,0.0,0.0,-0.5777489
684916000,-0.017294431,0.048017003,-0.04421244,0.0,0.0,-0.5769629
684948000,-0.023374064,0.049812146,-0.04295884,0.0,0.0,-0.5769639
684976000,-0.022705412,0.05338735,-0.040192097,0.0,0.0,-0.57694614
685004000,-0.02148457,0.048469886,-0.03881009,0.0,0.0,-0.57704866
685040000,-0.02244343,0.04513067,-0.036663875,0.0,0.0,-0.5775056
685072000,-0.024132974,0.043387625,-0.034007996,0.0,0.0,-0.57596844
685100000,-0.021920284,0.051804088,-0.03305286,0.0,0.0,-0.5748125
685136000,-0.02272751,0.05739568,-0.031095564,0.0,0.0,-0.5749104
685164000,-0.019695662,0.053320244,-0.029825985,0.0,0.0,-0.5751337
685196000,-0.023994286,0.042146973,-0.027638644,0.0,0.0,-0.5749049
685236000,-0.023183424,0.0439052,-0.026033252,0.0,0.0,-0.57498735
685264000,-0.023836015,0.047103643,-0.023425877,0.0,0.0,-0.57507753
685300000,-0.018185694,0.04381005,-0.022170559,0.0,0.0,-0.57519555
685332000,-0.014218069,0.05034218,-0.021200672,0.0,0.0,-0.574549
685360000,-0.013886011,0.043228947,-0.019011319,0.0,0.0,-0.5746361
685396000,-0.006658975,0.04599064,-0.017791495,0.0,0.0,-0.57403564
685424000,-0.00480955,0.042507216,-0.017121792,0.0,0.0,-0.57339126
685456000,-0.00564813,0.04605645,-0.015107274,0.0,0.0,-0.5731776
685488000,-0.008039132,0.048450194,-0.014000952,0.0,0.0,-0.57382023
685516000,-0.008769037,0.044829562,-0.013927907,0.0,0.0,-0.57418114
685556000,-0.00602981,0.046017,-0.012159839,0.0,0.0,-0.57349974
685588000,-0.011351223,0.04407854,-0.010885298,0.0,0.0,-0.57331806
685616000,-0.01300247,0.03580187,-0.01039204,0.0,0.0,-0.5727214
685648000,-0.008425064,0.039786335,-0.008394688,0.0,0.0,-0.57216406
685684000,-0.012274953,0.038964547,-0.007913902,0.0,0.0,-0.57256126
685712000,-0.009893767,0.03429794,-0.007896066,0.0,0.0,-0.5731898
685748000,-0.0058855964,0.027834002,-0.00623627,0.0,0.0,-0.57376623
685776000,-0.0002823067,0.025687963,-0.0052208304,0.0,0.0,-0.57395726
685808000,-0.0030947565,0.024146698,-0.0049049556,0.0,0.0,-0.5737816
685840000,-0.00010450417,0.02898704,-0.003121376,0.0,0.0,-0.57271814
685872000,0.003960987,0.03193803,-0.002265215,0.0,0.0,-0.5720502
685904000,0.00016566552,0.043867916,-0.002204463,0.0,0.0,-0.5719832
685936000,-0.005610846,0.04448424,-0.00036491454,0.0,0.0,-0.57272273
685968000,-0.0004288936,0.04143302,0.0003298223,0.0,0.0,-0.5731531
686000000,-0.0059357844,0.037168883,-5.9634447e-05,0.0,0.0,-0.5739621
686036000,-0.009480463,0.046764687,0.00082165,0.0,0.0,-0.57407755
686064000,-0.010951998,0.058802325,0.0021270812,0.0,0.0,-0.57310337
686096000,-0.014751694,0.059242167,0.0018802285,0.0,0.0,-0.57268846
686128000,-0.009957229,0.06805702,0.0030684024,0.0,0.0,-0.5731009
686160000,-0.01386028,0.06486185,0.004301235,0.0,0.0,-0.5730965
686192000,-0.006745708,0.05681852,0.004782334,0.0,0.0,-0.5734936
686224000,-0.0021471991,0.055488367,0.0066093206,0.0,0.0,-0.57366353
