timestamp,ref_timestamp,ref_lat,ref_lon,x,y,z,delta_xy[0],delta_xy[1],delta_z,vx,vy,vz,z_deriv,delta_vxy[0],delta_vxy[1],delta_vz,ax,ay,az,yaw,ref_alt,dist_bottom,dist_bottom_rate,eph,epv,evh,evv,vxy_max,vz_max,hagl_min,hagl_max,xy_valid,z_valid,v_xy_valid,v_z_valid,xy_reset_counter,z_reset_counter,vxy_reset_counter,vz_reset_counter,xy_global,z_global,dist_bottom_valid
657300000,11096000,47.3977508,8.5456074,0.053633492,-0.13198744,-0.017045557,-0.0036546227,-0.0048727845,0.0,0.05530595,-0.06604733,-0.005303977,0.016134704,-0.0046577733,-0.011870489,0.013201632,0.045485325,0.056235015,0.039812174,0.39087838,488.08423,0.1,0.005303977,0.42516392,0.24060671,0.17492336,0.10557134,inf,inf,inf,inf,1,1,1,1,2,0,2,2,1,1,0
657396000,11096000,47.3977508,8.5456074,0.055793416,-0.13199222,-0.016875444,-0.0036546227,-0.0048727845,0.0,0.05800916,-0.063810356,-0.005027446,0.014995031,-0.0046577733,-0.011870489,0.013201632,0.078877695,0.016341297,0.0063348557,0.3909791,488.08423,0.1,0.005027446,0.43748692,0.23972248,0.17931867,0.10564583,inf,inf,inf,inf,1,1,1,1,2,0,2,2,1,1,0
657492000,11096000,47.3977508,8.5456074,0.0563774,-0.13109274,-0.016158137,-0.0036546227,-0.0048727845,0.0,0.061289884,-0.06425434,-0.0022168937,0.016984295,-0.0046577733,-0.011870489,0.013201632,0.053683497,0.00396002,-0.02899859,0.39097396,488.08423,0.1,0.0022168937,0.42311215,0.23918004,0.17406742,0.10513986,inf,inf,inf,inf,1,1,1,1,2,0,2,2,1,1,0
657596000,11096000,47.3977508,8.5456074,0.057878826,-0.13141835,-0.014260027,-0.0036546227,-0.0048727845,0.0,0.06194715,-0.06272298,-0.0022924533,0.017064998,-0.0046577733,-0.011870489,0.013201632,0.09835866,-0.014226192,-0.15614553,0.390931,488.08423,0.1,0.0022924533,0.43637687,0.24066597,0.17882778,0.10585647,inf,inf,inf,inf,1,1,1,1,2,0,2,2,1,1,0
657692000,11096000,47.3977508,8.5456074,0.05739602,-0.13010512,-0.0144186085,-0.0036546227,-0.0048727845,0.0,0.0607902,-0.055262376,-0.07251423,-0.052608162,-0.0046577733,-0.011870489,0.013201632,-0.03522205,0.08907751,-1.4680977,0.391033,488.08423,0.1,0.07251423,0.4221651,0.24012011,0.1736523,0.105350405,inf,inf,inf,inf,1,1,1,1,2,0,2,2,1,1,0
657796000,11096000,47.3977508,8.5456074,0.05731077,-0.12888648,-0.030608766,-0.0036546227,-0.0048727845,0.0,0.05392492,-0.037907183,-0.29289824,-0.2730185,-0.0046577733,-0.011870489,0.013201632,-0.07634383,0.24195234,-2.4279466,0.39107016,488.08423,0.10874494,0.29289824,0.43537635,0.2398848,0.17845428,0.10562221,inf,inf,inf,inf,1,1,1,1,2,0,2,2,1,1,0
657892000,11096000,47.3977508,8.5456074,0.056070186,-0.12485328,-0.068398125,-0.0036546227,-0.0048727845,0.0,0.046819035,-0.01765297,-0.5633258,-0.5425847,-0.0046577733,-0.011870489,0.013201632,-0.038311813,0.1806448,-3.1922066,0.39093208,488.08423,0.1465343,0.5633258,0.4213136,0.23932773,0.17382213,0.10511316,inf,inf,inf,inf,1,1,1,1,2,0,2,2,1,1,0
657996000,11096000,47.3977508,8.5456074,0.055283878,-0.1200581,-0.14247522,-0.0036546227,-0.0048727845,0.0,0.04206423,-0.003941558,-0.9226734,-0.90135145,-0.0046577733,-0.011870489,0.013201632,0.07231357,0.01657984,-3.643896,0.3910988,488.08423,0.2206114,0.9226734,0.43453145,0.24083714,0.17960835,0.10584203,inf,inf,inf,inf,1,1,1,1,2,0,2,2,1,1,0
658092000,11096000,47.3977508,8.5456074,0.05278054,-0.11425894,-0.24463558,-0.0036546227,-0.0048727845,0.0,0.037978753,-0.0007974014,-1.287568,-1.2646083,-0.0046577733,-0.011870489,0.013201632,-0.0012684612,0.0020815257,-3.8599072,0.39105025,488.08423,0.32277176,1.287568,0.42058694,0.2402853,0.17561737,0.10533631,inf,inf,inf,inf,1,1,1,1,2,0,2,2,1,1,0
658196000,11096000,47.3977508,8.5456074,0.050909746,-0.10912075,-0.3909483,-0.0036546227,-0.0048727845,0.0,0.04012652,-3.540705e-05,-1.4931527,-1.4699225,-0.0046577733,-0.011870489,0.013201632,0.06222905,-0.038587634,0.45114568,0.3910348,488.08423,0.46908447,1.4931527,0.43389425,0.24004245,0.18197808,0.10560819,inf,inf,inf,inf,1,1,1,1,2,0,2,2,1,1,0
658292000,11096000,47.3977508,8.5456074,0.04938849,-0.10348443,-0.532672,-0.0036546227,-0.0048727845,0.0,0.040227965,-0.0015551485,-1.7075722,-1.6827592,-0.0046577733,-0.011870489,0.013201632,-0.006372807,-0.042158782,-6.4958825,0.39108074,488.08423,0.61080813,1.7075722,0.42003047,0.23950775,0.17811368,0.105112515,inf,inf,inf,inf,1,1,1,1,2,0,2,2,1,1,0
658396000,11096000,47.3977508,8.5456074,0.048836574,-0.09902852,-0.72628605,-0.0036546227,-0.0048727845,0.0,0.043586656,-0.0061232187,-1.92249,-1.8970951,-0.0046577733,-0.011870489,0.013201632,0.17921735,-0.021560255,1.6788197,0.3909284,488.08423,0.80442226,1.92249,0.43343535,0.24100368,0.18318799,0.10583813,inf,inf,inf,inf,1,1,1,1,2,0,2,2,1,1,0
658492000,11096000,47.3977508,8.5456074,0.0481681,-0.09401876,-0.8999031,-0.0036546227,-0.0048727845,0.0,0.048874352,-0.006535238,-1.7572048,-1.7325536,-0.0046577733,-0.011870489,0.013201632,0.0338729,0.010828307,0.6817057,0.39103034,488.08423,0.97803926,1.7572048,0.41964254,0.23872782,0.17946416,0.10488962,inf,inf,inf,inf,1,1,1,1,2,0,2,2,1,1,0
658596000,11096000,47.3977508,8.5456074,0.04861269,-0.08960104,-1.0810477,-0.0036546227,-0.0048727845,0.0,0.047706183,-0.006570849,-1.7504753,-1.7279407,-0.0046577733,-0.011870489,0.013201632,0.008291535,-0.0061503667,0.03325287,0.39097095,488.08423,1.1591839,1.7504753,0.43310985,0.24022451,0.18417148,0.10561787,inf,inf,inf,inf,1,1,1,1,2,0,2,2,1,1,0
658692000,11096000,47.3977508,8.5456074,0.048131075,-0.08336931,-1.2499381,-0.0036546227,-0.0048727845,0.0,0.044844616,-0.006015595,-1.7280067,-1.7094344,-0.0046577733,-0.011870489,0.013201632,-0.0037396965,0.04504082,0.40095577,0.39119494,488.08423,1.3280743,1.7280067,0.4193387,0.23967503,0.17815484,0.10511804,inf,inf,inf,inf,1,1,1,1,2,0,2,2,1,1,0
658796000,11096000,47.3977508,8.5456074,0.0484051,-0.077719145,-1.4296812,-0.0036546227,-0.0048727845,0.0,0.04416898,-0.00776471,-1.6970205,-1.6821353,-0.0046577733,-0.011870489,0.013201632,0.048123617,0.004943285,0.19852257,0.39137483,488.08423,1.5078174,1.6970205,0.43273,0.23944262,0.18293719,0.10539732,inf,inf,inf,inf,1,1,1,1,2,0,2,2,1,1,0
658892000,11096000,47.3977508,8.5456074,0.047676582,-0.07169041,-1.5922853,-0.0036546227,-0.0048727845,0.0,0.043324083,-0.011498866,-1.6786022,-1.6657355,-0.0046577733,-0.011870489,0.013201632,0.06068586,-0.02961848,0.15358905,0.39135516,488.08423,1.6704215,1.6786022,0.41901743,0.23891018,0.17734566,0.10490645,inf,inf,inf,inf,1,1,1,1,2,0,2,2,1,1,0
658996000,11096000,47.3977508,8.5456074,0.04776813,-0.066826165,-1.7666777,-0.0036546227,-0.0048727845,0.0,0.04530036,-0.012960983,-1.6583186,-1.6475954,-0.0046577733,-0.011870489,0.013201632,-0.01916573,-0.064155586,0.2567563,0.391115,488.08423,1.844814,1.6583186,0.43236154,0.24039452,0.18197905,0.105630934,inf,inf,inf,inf,1,1,1,1,2,0,2,2,1,1,0
659092000,11096000,47.3977508,8.5456074,0.04687949,-0.062299553,-1.9269704,-0.0036546227,-0.0048727845,0.0,0.045363706,-0.016780753,-1.6438428,-1.6358216,-0.0046577733,-0.011870489,0.013201632,0.07245046,-0.06728801,0.1942357,0.3940239,488.08423,2.0051064,1.6438428,0.41867092,0.23985894,0.17406383,0.105139345,inf,inf,inf,inf,1,1,1,1,2,0,2,2,1,1,0
659196000,11096000,47.3977508,8.5456074,0.046964012,-0.059178434,-2.0995588,-0.0036546227,-0.0048727845,0.0,0.046034753,-0.020874474,-1.6251973,-1.6203045,-0.0046577733,-0.011870489,0.013201632,-0.073727034,-0.062397204,0.20133424,0.3931128,488.08423,2.177695,1.6251973,0.43173254,0.23962857,0.17496821,0.10542197,inf,inf,inf,inf,1,1,1,1,2,0,2,2,1,1,0
659292000,11096000,47.3977508,8.5456074,0.04582164,-0.055404026,-2.2575967,-0.0036546227,-0.0048727845,0.0,0.047721572,-0.023655666,-1.6107695,-1.6088285,-0.0046577733,-0.011870489,0.013201632,0.12614423,-0.05999943,0.15820189,0.39181066,488.08423,2.335733,1.6107695,0.4181749,0.23908174,0.1672371,0.10492762,inf,inf,inf,inf,1,1,1,1,2,0,2,2,1,1,0
659396000,11096000,47.3977508,8.5456074,0.045646958,-0.05267813,-2.4276772,-0.0036546227,-0.0048727845,0.0,0.04703131,-0.02559062,-1.597646,-1.598853,-0.0046577733,-0.011870489,0.013201632,-0.0147758825,-0.021883503,0.17374752,0.3905218,488.08423,2.5058134,1.597646,0.43080458,0.24059133,0.1689124,0.10566616,inf,inf,inf,inf,1,1,1,1,2,0,2,2,1,1,0
659492000,11096000,47.3977508,8.5456074,0.04453168,-0.050095025,-2.5834827,-0.0036546227,-0.0048727845,0.0,0.046825703,-0.027556764,-1.5802443,-1.5842205,-0.0046577733,-0.011870489,0.013201632,0.0897214,-0.033980373,0.10470207,0.389739,488.08423,2.661619,1.5802443,0.41739306,0.2400498,0.16250026,0.1051754,inf,inf,inf,inf,1,1,1,1,2,0,2,2,1,1,0
659596000,11096000,47.3977508,8.5456074,0.044563834,-0.048698846,-2.7507775,-0.0036546227,-0.0048727845,0.0,0.047714792,-0.029764365,-1.5677723,-1.5744214,-0.0046577733,-0.011870489,0.013201632,-0.036498457,-0.06990187,0.14545394,0.38961267,488.08423,2.8289137,1.5677723,0.42963302,0.23981313,0.16494785,0.10545961,inf,inf,inf,inf,1,1,1,1,2,0,2,2,1,1,0
659692000,11096000,47.3977508,8.5456074,0.043522008,-0.04681688,-2.9047263,-0.0036546227,-0.0048727845,0.0,0.04719784,-0.030199448,-1.561418,-1.5708737,-0.0046577733,-0.011870489,0.013201632,-0.017550234,-0.044954807,-0.0129444515,0.38943204,488.08423,2.9828625,1.561418,0.416387,0.2392885,0.15966941,0.10497815,inf,inf,inf,inf,1,1,1,1,2,0,2,2,1,1,0
659796000,11096000,47.3977508,8.5456074,0.043548167,-0.045924872,-3.0693488,-0.0036546227,-0.0048727845,0.0,0.04940692,-0.032038517,-1.545803,-1.5565593,-0.0046577733,-0.011870489,0.013201632,0.0442923,-0.032107357,0.24610104,0.38963148,488.08423,3.147485,1.545803,0.42829135,0.2407864,0.1628541,0.10571446,inf,inf,inf,inf,1,1,1,1,2,0,2,2,1,1,0
659892000,11096000,47.3977508,8.5456074,0.04320501,-0.044195905,-3.2206268,-0.0036546227,-0.0048727845,0.0,0.050527688,-0.034679435,-1.5390798,-1.5515541,-0.0046577733,-0.011870489,0.013201632,0.089505024,-0.11664398,0.016481614,0.39027566,488.08423,3.298763,1.5390798,0.4152238,0.23852508,0.15855597,0.1047815,inf,inf,inf,inf,1,1,1,1,2,0,2,2,1,1,0
659996000,11096000,47.3977508,8.5456074,0.04410974,-0.043600235,-3.384391,-0.0036546227,-0.0048727845,0.0,0.051469337,-0.037563525,-1.532538,-1.5471514,-0.0046577733,-0.011870489,0.013201632,0.045153048,-0.02039942,0.11993851,0.39082485,488.08423,3.4625273,1.532538,0.4268557,0.24002449,0.16242094,0.105520815,inf,inf,inf,inf,1,1,1,1,2,0,2,2,1,1,0
660092000,11096000,47.3977508,8.5456074,0.04359604,-0.04205029,-3.5354342,-0.0036546227,-0.0048727845,0.0,0.052058846,-0.03821126,-1.5246125,-1.5415266,-0.0046577733,-0.011870489,0.013201632,0.018831328,-0.06500381,0.07625948,0.39118588,488.08423,3.6135705,1.5246125,0.41397345,0.23948485,0.15889192,0.105034694,inf,inf,inf,inf,1,1,1,1,2,0,2,2,1,1,0
660196000,11096000,47.3977508,8.5456074,0.044004016,-0.04146324,-3.6983855,-0.0036546227,-0.0048727845,0.0,0.051584747,-0.037997354,-1.5194818,-1.5387477,-0.0046577733,-0.011870489,0.013201632,0.029073022,0.020862076,0.030723399,0.39158952,488.08423,3.7765217,1.5194818,0.42540216,0.23925999,0.16339616,0.10532714,inf,inf,inf,inf,1,1,1,1,2,0,2,2,1,1,0
660292000,11096000,47.3977508,8.5456074,0.043539196,-0.039525613,-3.8485928,-0.0036546227,-0.0048727845,0.0,0.050106842,-0.03830077,-1.510288,-1.5317956,-0.0046577733,-0.011870489,0.013201632,0.0041618766,-0.021829799,0.08124671,0.39161074,488.08423,3.926729,1.510288,0.41270587,0.2387371,0.16044031,0.10484925,inf,inf,inf,inf,1,1,1,1,2,0,2,2,1,1,0
660396000,11096000,47.3977508,8.5456074,0.044111528,-0.038356416,-4.0093346,-0.0036546227,-0.0048727845,0.0,0.05143914,-0.03554272,-1.5035639,-1.5262544,-0.0046577733,-0.011870489,0.013201632,0.08181817,-0.07034604,0.08775759,0.39159644,488.08423,4.0874705,1.5035639,0.42400402,0.24022578,0.1654833,0.105585344,inf,inf,inf,inf,1,1,1,1,2,0,2,2,1,1,0
660492000,11096000,47.3977508,8.5456074,0.04345883,-0.036403574,-4.156898,-0.0036546227,-0.0048727845,0.0,0.052076597,-0.033867832,-1.499053,-1.5224446,-0.0046577733,-0.011870489,0.013201632,0.05049264,-0.010319963,0.023102386,0.39144748,488.08423,4.235034,1.499053,0.41148797,0.23969963,0.16290994,0.105106056,inf,inf,inf,inf,1,1,1,1,2,0,2,2,1,1,0
660596000,11096000,47.3977508,8.5456074,0.04376642,-0.03530466,-4.317455,-0.0036546227,-0.0048727845,0.0,0.05128689,-0.032785535,-1.4976997,-1.5226027,-0.0046577733,-0.011870489,0.013201632,-0.019086203,-0.09889026,0.03257114,0.39148957,488.08423,4.395591,1.4976997,0.42272836,0.23947765,0.16839698,0.10540124,inf,inf,inf,inf,1,1,1,1,2,0,2,2,1,1,0
660700000,11096000,47.3977508,8.5456074,0.04205792,-0.033716507,-4.477357,-0.0036546227,-0.0048727845,0.0,0.04885499,-0.032893557,-1.493995,-1.5200311,-0.0046577733,-0.011870489,0.013201632,-0.038544513,-0.0008553906,0.060684975,0.3915868,488.08423,4.555493,1.493995,0.41122702,0.23958378,0.16651471,0.1051117,inf,inf,inf,inf,1,1,1,1,2,0,2,2,1,1,0
660796000,11096000,47.3977508,8.5456074,0.04148632,-0.03328112,-4.6254077,-0.0036546227,-0.0048727845,0.0,0.04933648,-0.032492433,-1.488831,-1.5166917,-0.0046577733,-0.011870489,0.013201632,0.0586262,0.075972125,0.10288692,0.39171636,488.08423,4.7035437,1.488831,0.421634,0.24045533,0.17192161,0.10566563,inf,inf,inf,inf,1,1,1,1,2,0,2,2,1,1,0
660892000,11096000,47.3977508,8.5456074,0.03868755,-0.03238555,-4.7731643,-0.0036546227,-0.0048727845,0.0,0.047333173,-0.031790607,-1.4850931,-1.5147692,-0.0046577733,-0.011870489,0.013201632,0.10689144,-0.02059579,-0.020070931,0.39185676,488.08423,4.8513002,1.4850931,0.4094342,0.23992275,0.16963473,0.105183475,inf,inf,inf,inf,1,1,1,1,2,0,2,2,1,1,0
660996000,11096000,47.3977508,8.5456074,0.036810443,-0.032548446,-4.9327784,-0.0036546227,-0.0048727845,0.0,0.04665117,-0.034400973,-1.4808815,-1.5121526,-0.0046577733,-0.011870489,0.013201632,0.04787693,-0.06919313,0.05851872,0.39211532,488.08423,5.0109143,1.4808815,0.42076647,0.23969512,0.17575116,0.10547716,inf,inf,inf,inf,1,1,1,1,2,0,2,2,1,1,0
661092000,11096000,47.3977508,8.5456074,0.03458141,-0.0328655,-5.079699,-0.0036546227,-0.0048727845,0.0,0.049576562,-0.032941252,-1.4682962,-1.501132,-0.0046577733,-0.011870489,0.013201632,0.031746775,-0.039360374,0.22450927,0.3920962,488.08423,5.157835,1.4682962,0.4086893,0.23917891,0.17337883,0.10500252,inf,inf,inf,inf,1,1,1,1,2,0,2,2,1,1,0
661196000,11096000,47.3977508,8.5456074,0.033866167,-0.034000263,-5.2353916,-0.0036546227,-0.0048727845,0.0,0.052922204,-0.032682143,-1.417961,-1.4520439,-0.0046577733,-0.011870489,0.013201632,0.04337358,-0.00015080148,0.5204072,0.39206892,488.08423,5.3135276,1.417961,0.42015764,0.24068365,0.17970127,0.10574614,inf,inf,inf,inf,1,1,1,1,2,0,2,2,1,1,0
661292000,11096000,47.3977508,8.5456074,0.031921115,-0.03418517,-5.37417,-0.0036546227,-0.0048727845,0.0,0.054907102,-0.030803446,-1.3695273,-1.4047827,-0.0046577733,-0.011870489,0.013201632,0.045733437,-0.021061946,0.45182925,0.3918823,488.08423,5.452306,1.3695273,0.40817118,0.23843247,0.17703426,0.10481896,inf,inf,inf,inf,1,1,1,1,2,0,2,2,1,1,0
661396000,11096000,47.3977508,8.5456074,0.031163596,-0.03493311,-5.518266,-0.0036546227,-0.0048727845,0.0,0.05399875,-0.031259414,-1.3213319,-1.3565909,-0.0046577733,-0.011870489,0.013201632,0.071675204,-0.06683065,0.3628684,0.39162308,488.08423,5.596402,1.3213319,0.41981775,0.2399389,0.18326911,0.10556403,inf,inf,inf,inf,1,1,1,1,2,0,2,2,1,1,0
661492000,11096000,47.3977508,8.5456074,0.028819416,-0.035713274,-5.647633,-0.0036546227,-0.0048727845,0.0,0.051997077,-0.028323308,-1.2811849,-1.3169223,-0.0046577733,-0.011870489,0.013201632,-0.019135913,0.024581006,0.52996814,0.391639,488.08423,5.725769,1.2811849,0.4078868,0.23940676,0.18021838,0.10508127,inf,inf,inf,inf,1,1,1,1,2,0,2,2,1,1,0
661596000,11096000,47.3977508,8.5456074,0.02754907,-0.03700678,-5.783214,-0.0036546227,-0.0048727845,0.0,0.05303578,-0.027219595,-1.2320843,-1.2682983,-0.0046577733,-0.011870489,0.013201632,-0.07129705,0.06851351,0.50445455,0.39155617,488.08423,5.86135,1.2320843,0.41974023,0.23919064,0.18658033,0.10537853,inf,inf,inf,inf,1,1,1,1,2,0,2,2,1,1,0
661692000,11096000,47.3977508,8.5456074,0.024822626,-0.03811085,-5.903871,-0.0036546227,-0.0048727845,0.0,0.05115743,-0.028377911,-1.1874751,-1.2242182,-0.0046577733,-0.011870489,0.013201632,-0.010522591,-0.026485778,0.40491855,0.3915302,488.08423,5.982007,1.1874751,0.40782908,0.2386746,0.18323661,0.104902506,inf,inf,inf,inf,1,1,1,1,2,0,2,2,1,1,0
661796000,11096000,47.3977508,8.5456074,0.023277659,-0.03983383,-6.0296655,-0.0036546227,-0.0048727845,0.0,0.05318863,-0.028295519,-1.1476028,-1.1843086,-0.0046577733,-0.011870489,0.013201632,0.03138314,-0.024387233,0.39879322,0.39139262,488.08423,6.1078014,1.1476028,0.4199139,0.24017037,0.1896008,0.105642006,inf,inf,inf,inf,1,1,1,1,2,0,2,2,1,1,0
661900000,11096000,47.3977508,8.5456074,0.024165146,-0.042265512,-6.15129,-0.0036546227,-0.0048727845,0.0,0.056143567,-0.028495008,-1.1121538,-1.1485691,-0.0046577733,-0.011870489,0.013201632,-0.07220075,-0.03975314,0.30283907,0.39123398,488.08423,6.229426,1.1121538,0.43274537,0.23994322,0.19608158,0.105915554,inf,inf,inf,inf,1,1,1,1,2,0,2,2,1,1,0
661996000,11096000,47.3977508,8.5456074,0.021741321,-0.043964453,-6.261543,-0.0036546227,-0.0048727845,0.0,0.05535661,-0.026458059,-1.0779119,-1.1154153,-0.0046577733,-0.011870489,0.013201632,0.07333376,0.03218444,0.44509393,0.39092195,488.08423,6.339679,1.0779119,0.41916445,0.23939747,0.19145988,0.10540775,inf,inf,inf,inf,1,1,1,1,2,0,2,2,1,1,0
662092000,11096000,47.3977508,8.5456074,0.020712553,-0.045882504,-6.3679433,-0.0036546227,-0.0048727845,0.0,0.05581408,-0.02633265,-1.0408057,-1.0788739,-0.0046577733,-0.011870489,0.013201632,0.09871725,-0.0014621181,0.43339744,0.39085495,488.08423,6.4460793,1.0408057,0.43113002,0.24023497,0.19745137,0.10593113,inf,inf,inf,inf,1,1,1,1,2,0,2,2,1,1,0
662196000,11096000,47.3977508,8.5456074,0.016856931,-0.047858935,-6.481787,-0.0036546227,-0.0048727845,0.0,0.056032475,-0.026092714,-1.008791,-1.0495465,-0.0046577733,-0.011870489,0.013201632,-0.021705082,-0.04762703,0.47751048,0.39071107,488.08423,6.559923,1.008791,0.41864973,0.2403468,0.19304442,0.105621874,inf,inf,inf,inf,1,1,1,1,2,0,2,2,1,1,0
662292000,11096000,47.3977508,8.5456074,0.014726563,-0.049876176,-6.584336,-0.0036546227,-0.0048727845,0.0,0.05607351,-0.023312975,-0.9702182,-1.0139672,-0.0046577733,-0.011870489,0.013201632,0.07512151,0.08418598,0.48265046,0.39068243,488.08423,6.662472,0.9702182,0.4307694,0.24120496,0.19897008,0.10615446,inf,inf,inf,inf,1,1,1,1,2,0,2,2,1,1,0
662396000,11096000,47.3977508,8.5456074,0.010073516,-0.051817235,-6.6930447,-0.0036546227,-0.0048727845,0.0,0.05425918,-0.021178108,-0.9322701,-0.98056144,-0.0046577733,-0.011870489,0.013201632,0.06656305,0.08062318,0.33120903,0.39049506,488.08423,6.7711806,0.9322701,0.4183403,0.23955916,0.1942921,0.10538491,inf,inf,inf,inf,1,1,1,1,2,0,2,2,1,1,0
662492000,11096000,47.3977508,8.5456074,0.007319232,-0.053556617,-6.7887635,-0.0036546227,-0.0048727845,0.0,0.054727536,-0.018404793,-0.88900924,-0.9401684,-0.0046577733,-0.011870489,0.013201632,0.054142494,0.05312511,0.4448583,0.39048687,488.08423,6.8668995,0.88900924,0.43061304,0.24041988,0.20012589,0.105919495,inf,inf,inf,inf,1,1,1,1,2,0,2,2,1,1,0
662596000,11096000,47.3977508,8.5456074,0.0023159618,-0.056381136,-6.887904,-0.0036546227,-0.0048727845,0.0,0.05766576,-0.016856728,-0.854036,-0.907549,-0.0046577733,-0.011870489,0.013201632,0.08163438,-0.009145645,0.36445445,0.39054605,488.08423,6.96604,0.854036,0.41820467,0.24051607,0.19515307,0.10560525,inf,inf,inf,inf,1,1,1,1,2,0,2,2,1,1,0
662692000,11096000,47.3977508,8.5456074,-0.0003037298,-0.05912248,-6.9762893,-0.0036546227,-0.0048727845,0.0,0.06049848,-0.017340029,-0.82376426,-0.8791342,-0.0046577733,-0.011870489,0.013201632,0.025726533,-0.045375284,0.31646806,0.39083284,488.08423,7.0544252,0.82376426,0.4306216,0.23963112,0.20089997,0.105683886,inf,inf,inf,inf,1,1,1,1,2,0,2,2,1,1,0
662796000,11096000,47.3977508,8.5456074,-0.005331968,-0.062985495,-7.068987,-0.0036546227,-0.0048727845,0.0,0.05897615,-0.016826794,-0.79366714,-0.8509436,-0.0046577733,-0.011870489,0.013201632,0.08825975,0.008747243,0.38440338,0.39092928,488.08423,7.147123,0.79366714,0.41820958,0.23974212,0.19571367,0.10537859,inf,inf,inf,inf,1,1,1,1,2,0,2,2,1,1,0
662892000,11096000,47.3977508,8.5456074,-0.0081448145,-0.06655892,-7.1515217,-0.0036546227,-0.0048727845,0.0,0.06115488,-0.017271437,-0.7672796,-0.8257709,-0.0046577733,-0.011870489,0.013201632,0.023156853,0.015708616,0.34784338,0.39104447,488.08423,7.2296576,0.7672796,0.43076193,0.24058898,0.20141748,0.10590861,inf,inf,inf,inf,1,1,1,1,2,0,2,2,1,1,0
662996000,11096000,47.3977508,8.5456074,-0.012445624,-0.07131,-7.23837,-0.0036546227,-0.0048727845,0.0,0.061487857,-0.014564531,-0.737658,-0.797754,-0.0046577733,-0.011870489,0.013201632,0.06944676,0.04439121,0.3600232,0.39117813,488.08423,7.316506,0.737658,0.41832644,0.23896502,0.19602433,0.10515178,inf,inf,inf,inf,1,1,1,1,2,0,2,2,1,1,0
663100000,11096000,47.3977508,8.5456074,-0.014430751,-0.075516716,-7.321696,-0.0036546227,-0.0048727845,0.0,0.063171566,-0.012849233,-0.711329,-0.77230865,-0.0046577733,-0.011870489,0.013201632,0.005933805,-0.03378804,0.27761513,0.3911873,488.08423,7.399832,0.711329,0.4320892,0.24046499,0.20211379,0.10587908,inf,inf,inf,inf,1,1,1,1,2,0,2,2,1,1,0
663196000,11096000,47.3977508,8.5456074,-0.018372396,-0.07959867,-7.3951545,-0.0036546227,-0.0048727845,0.0,0.06267618,-0.012860171,-0.6902961,-0.7508475,-0.0046577733,-0.011870489,0.013201632,0.07449285,0.03036906,0.16738194,0.3912452,488.08423,7.4732904,0.6902961,0.4185276,0.23991063,0.19605258,0.1053742,inf,inf,inf,inf,1,1,1,1,2,0,2,2,1,1,0
663292000,11096000,47.3977508,8.5456074,-0.020209856,-0.0830102,-7.467073,-0.0036546227,-0.0048727845,0.0,0.063923,-0.00895211,-0.66884255,-0.72941256,-0.0046577733,-0.011870489,0.013201632,0.09895111,0.009372001,0.19479728,0.3913049,488.08423,7.545209,0.66884255,0.4313094,0.24077244,0.20158653,0.10591226,inf,inf,inf,inf,1,1,1,1,2,0,2,2,1,1,0
663396000,11096000,47.3977508,8.5456074,-0.024304092,-0.08755908,-7.5431795,-0.0036546227,-0.0048727845,0.0,0.063790135,-0.0070650945,-0.6485726,-0.7095915,-0.0046577733,-0.011870489,0.013201632,0.059975903,0.10776638,0.16782339,0.39124,488.08423,7.6213155,0.6485726,0.41878742,0.23914807,0.19587156,0.10515786,inf,inf,inf,inf,1,1,1,1,2,0,2,2,1,1,0
663500000,11096000,47.3977508,8.5456074,-0.026046809,-0.09156682,-7.617188,-0.0036546227,-0.0048727845,0.0,0.06883129,-0.0061110086,-0.62587583,-0.6874715,-0.0046577733,-0.011870489,0.013201632,0.07964631,0.0778226,0.30983236,0.39116898,488.08423,7.695324,0.62587583,0.43276381,0.24063513,0.20176573,0.10588081,inf,inf,inf,inf,1,1,1,1,2,0,2,2,1,1,0
663596000,11096000,47.3977508,8.5456074,-0.028552184,-0.09501596,-7.682963,-0.0036546227,-0.0048727845,0.0,0.07074424,-0.005805788,-0.60441595,-0.6661263,-0.0046577733,-0.011870489,0.013201632,0.050001293,0.111552514,0.25690624,0.39118892,488.08423,7.761099,0.60441595,0.41908363,0.24010317,0.19545364,0.10538801,inf,inf,inf,inf,1,1,1,1,2,0,2,2,1,1,0
663692000,11096000,47.3977508,8.5456074,-0.028795948,-0.09769248,-7.7474117,-0.0036546227,-0.0048727845,0.0,0.0728353,-0.0025113109,-0.5856789,-0.6480675,-0.0046577733,-0.011870489,0.013201632,0.034160793,0.04299635,0.18747802,0.3910116,488.08423,7.8255477,0.5856789,0.43202946,0.24096087,0.20078975,0.1059256,inf,inf,inf,inf,1,1,1,1,2,0,2,2,1,1,0
663796000,11096000,47.3977508,8.5456074,-0.03072408,-0.10147659,-7.8156524,-0.0036546227,-0.0048727845,0.0,0.07346729,-0.0011022823,-0.5652259,-0.6287313,-0.0046577733,-0.011870489,0.013201632,0.049602382,0.032776587,0.19207317,0.3910594,488.08423,7.8937883,0.5652259,0.41939643,0.23932722,0.19482857,0.105169855,inf,inf,inf,inf,1,1,1,1,2,0,2,2,1,1,0
663892000,11096000,47.3977508,8.5456074,-0.030673007,-0.104449,-7.876598,-0.0036546227,-0.0048727845,0.0,0.07490635,-0.00023773045,-0.5474181,-0.6116084,-0.0046577733,-0.011870489,0.013201632,0.0028803623,-0.04208068,0.24964379,0.3909554,488.08423,7.954734,0.5474181,0.43239725,0.24018799,0.20007518,0.10570977,inf,inf,inf,inf,1,1,1,1,2,0,2,2,1,1,0
663996000,11096000,47.3977508,8.5456074,-0.032548342,-0.10833776,-7.940827,-0.0036546227,-0.0048727845,0.0,0.071994394,0.0008106926,-0.52972645,-0.59465927,-0.0046577733,-0.011870489,0.013201632,0.056422807,0.09354081,0.1441827,0.39101908,488.08423,8.018963,0.52972645,0.41970858,0.24029127,0.19404235,0.10540677,inf,inf,inf,inf,1,1,1,1,2,0,2,2,1,1,0
664092000,11096000,47.3977508,8.5456074,-0.032805048,-0.111222334,-7.996859,-0.0036546227,-0.0048727845,0.0,0.07243395,0.0022357823,-0.51222074,-0.576276,-0.0046577733,-0.011870489,0.013201632,0.03731719,-0.015361306,0.132028,0.39112854,488.08423,8.074995,0.51222074,0.4327475,0.23941176,0.19919597,0.105493024,inf,inf,inf,inf,1,1,1,1,2,0,2,2,1,1,0
664196000,11096000,47.3977508,8.5456074,-0.03457595,-0.115229405,-8.05704,-0.0036546227,-0.0048727845,0.0,0.07076936,0.004381349,-0.4964189,-0.56076086,-0.0046577733,-0.011870489,0.013201632,0.0110929245,-0.026967186,0.21163373,0.3908658,488.08423,8.135177,0.4964189,0.4200066,0.23952979,0.19311993,0.10519846,inf,inf,inf,inf,1,1,1,1,2,0,2,2,1,1,0
664292000,11096000,47.3977508,8.5456074,-0.03469162,-0.118238166,-8.111488,-0.0036546227,-0.0048727845,0.0,0.07016709,0.0049654124,-0.48289987,-0.547792,-0.0046577733,-0.011870489,0.013201632,0.018662393,0.036973815,0.21318811,0.39076746,488.08423,8.189625,0.48289987,0.43306777,0.24037775,0.19818868,0.10573388,inf,inf,inf,inf,1,1,1,1,2,0,2,2,1,1,0
664396000,11096000,47.3977508,8.5456074,-0.036479663,-0.12229112,-8.168321,-0.0036546227,-0.0048727845,0.0,0.06930074,0.00671703,-0.46550617,-0.53044224,-0.0046577733,-0.011870489,0.013201632,-0.00941116,0.10361257,0.13558565,0.39105257,488.08423,8.246457,0.46550617,0.4202801,0.23876528,0.19210067,0.10498931,inf,inf,inf,inf,1,1,1,1,2,0,2,2,1,1,0
664492000,11096000,47.3977508,8.5456074,-0.0364945,-0.12514938,-8.219409,-0.0036546227,-0.0048727845,0.0,0.06899421,0.00915919,-0.45065737,-0.5158413,-0.0046577733,-0.011870489,0.013201632,0.107339434,0.05409677,0.1854319,0.39100853,488.08423,8.297545,0.45065737,0.43334946,0.23961633,0.19708243,0.10552689,inf,inf,inf,inf,1,1,1,1,2,0,2,2,1,1,0
664596000,11096000,47.3977508,8.5456074,-0.038321234,-0.12919857,-8.273253,-0.0036546227,-0.0048727845,0.0,0.06960375,0.009164619,-0.43539974,-0.50089246,-0.0046577733,-0.011870489,0.013201632,0.050344437,-0.09021078,0.1266226,0.3910227,488.08423,8.35139,0.43539974,0.42052144,0.23971947,0.19098833,0.10522694,inf,inf,inf,inf,1,1,1,1,2,0,2,2,1,1,0
664692000,11096000,47.3977508,8.5456074,-0.038378652,-0.13227658,-8.32101,-0.0036546227,-0.0048727845,0.0,0.06991851,0.009970148,-0.42044118,-0.48571998,-0.0046577733,-0.011870489,0.013201632,0.016008982,0.04570864,0.10493211,0.39100814,488.08423,8.399146,0.42044118,0.43358493,0.24058309,0.19588454,0.10577027,inf,inf,inf,inf,1,1,1,1,2,0,2,2,1,1,0
664796000,11096000,47.3977508,8.5456074,-0.040022362,-0.13691136,-8.372118,-0.0036546227,-0.0048727845,0.0,0.06796334,0.010860536,-0.40827295,-0.47408614,-0.0046577733,-0.011870489,0.013201632,0.02295376,0.067050345,0.19063707,0.39077815,488.08423,8.450254,0.40827295,0.42072406,0.23896965,0.18981306,0.105026774,inf,inf,inf,inf,1,1,1,1,2,0,2,2,1,1,0
664892000,11096000,47.3977508,8.5456074,-0.039987784,-0.14021297,-8.418469,-0.0036546227,-0.0048727845,0.0,0.06904772,0.013469818,-0.39307866,-0.45983505,-0.0046577733,-0.011870489,0.013201632,0.03998839,0.036767,0.17117707,0.3908058,488.08423,8.496606,0.39307866,0.4337701,0.23980837,0.19463944,0.10555979,inf,inf,inf,inf,1,1,1,1,2,0,2,2,1,1,0
664996000,11096000,47.3977508,8.5456074,-0.04048836,-0.14374778,-8.46743,-0.0036546227,-0.0048727845,0.0,0.06707807,0.013987379,-0.3775863,-0.44563293,-0.0046577733,-0.011870489,0.013201632,-0.009348069,0.026480788,0.15224795,0.39092076,488.08423,8.545567,0.3775863,0.42088455,0.2399338,0.18861088,0.10527057,inf,inf,inf,inf,1,1,1,1,2,0,2,2,1,1,0
665092000,11096000,47.3977508,8.5456074,-0.039400507,-0.14587903,-8.51081,-0.0036546227,-0.0048727845,0.0,0.06817851,0.016870216,-0.3633733,-0.43194908,-0.0046577733,-0.011870489,0.013201632,0.057660338,0.03696548,0.22186431,0.39084622,488.08423,8.588946,0.3633733,0.43390304,0.240794,0.19335333,0.10581292,inf,inf,inf,inf,1,1,1,1,2,0,2,2,1,1,0
665196000,11096000,47.3977508,8.5456074,-0.038901526,-0.14857005,-8.555686,-0.0036546227,-0.0048727845,0.0,0.066946715,0.017552916,-0.34841326,-0.41719905,-0.0046577733,-0.011870489,0.013201632,0.116954945,0.05167833,0.031582076,0.39094046,488.08423,8.633822,0.34841326,0.421001,0.23917058,0.18737325,0.105066545,inf,inf,inf,inf,1,1,1,1,2,0,2,2,1,1,0
665292000,11096000,47.3977508,8.5456074,-0.037099138,-0.15015712,-8.595059,-0.0036546227,-0.0048727845,0.0,0.06522196,0.020087602,-0.33952206,-0.4073725,-0.0046577733,-0.011870489,0.013201632,-0.018953068,0.020269508,0.13640615,0.39094454,488.08423,8.673196,0.33952206,0.43398258,0.24003401,0.19204457,0.10561097,inf,inf,inf,inf,1,1,1,1,2,0,2,2,1,1,0
665396000,11096000,47.3977508,8.5456074,-0.035545267,-0.15189782,-8.6375,-0.0036546227,-0.0048727845,0.0,0.06611773,0.020319104,-0.32927158,-0.39713576,-0.0046577733,-0.011870489,0.013201632,0.083554976,0.00020989681,0.14019197,0.390951,488.08423,8.715636,0.32927158,0.42107216,0.24014385,0.1861396,0.10531528,inf,inf,inf,inf,1,1,1,1,2,0,2,2,1,1,0
665492000,11096000,47.3977508,8.5456074,-0.032789372,-0.1526909,-8.675937,-0.0036546227,-0.0048727845,0.0,0.065788314,0.022440504,-0.31641248,-0.3845931,-0.0046577733,-0.011870489,0.013201632,-0.0057631037,0.13225898,0.090945505,0.390988,488.08423,8.754073,0.31641248,0.43401042,0.23927033,0.1907764,0.105407104,inf,inf,inf,inf,1,1,1,1,2,0,2,2,1,1,0
665596000,11096000,47.3977508,8.5456074,-0.0317032,-0.15448652,-8.716067,-0.0036546227,-0.0048727845,0.0,0.06379162,0.022241637,-0.30442366,-0.37261096,-0.0046577733,-0.011870489,0.013201632,0.045501143,0.07851679,0.13094394,0.39103,488.08423,8.794204,0.30442366,0.4210991,0.23939463,0.18493995,0.105119094,inf,inf,inf,inf,1,1,1,1,2,0,2,2,1,1,0
665692000,11096000,47.3977508,8.5456074,-0.029826367,-0.15539725,-8.751829,-0.0036546227,-0.0048727845,0.0,0.063666634,0.024327854,-0.29261357,-0.36085308,-0.0046577733,-0.011870489,0.013201632,0.010166426,0.05637274,0.06593484,0.39090702,488.08423,8.829966,0.29261357,0.43398842,0.24024561,0.18951727,0.10565836,inf,inf,inf,inf,1,1,1,1,2,0,2,2,1,1,0
665796000,11096000,47.3977508,8.5456074,-0.027436635,-0.15668383,-8.790823,-0.0036546227,-0.0048727845,0.0,0.063396506,0.022673996,-0.28407693,-0.3536191,-0.0046577733,-0.011870489,0.013201632,0.005539026,-0.022668518,0.059699636,0.39098722,488.08423,8.868959,0.28407693,0.42108318,0.23864196,0.1837506,0.104920745,inf,inf,inf,inf,1,1,1,1,2,0,2,2,1,1,0
665900000,11096000,47.3977508,8.5456074,-0.02389622,-0.1575361,-8.827343,-0.0036546227,-0.0048727845,0.0,0.060101707,0.018649478,-0.26753727,-0.3369583,-0.0046577733,-0.011870489,0.013201632,-0.039323486,-0.01806693,0.10707042,0.39116803,488.08423,8.905479,0.26753727,0.43501323,0.24014455,0.18866263,0.10565664,inf,inf,inf,inf,1,1,1,1,2,0,2,2,1,1,0
665996000,11096000,47.3977508,8.5456074,-0.022074644,-0.15884244,-8.85971,-0.0036546227,-0.0048727845,0.0,0.058253113,0.020756358,-0.26207,-0.33129779,-0.0046577733,-0.011870489,0.013201632,0.07073704,-0.004135454,0.04982389,0.39112702,488.08423,8.937846,0.26207,0.42102656,0.23960502,0.18261437,0.105167106,inf,inf,inf,inf,1,1,1,1,2,0,2,2,1,1,0
666092000,11096000,47.3977508,8.5456074,-0.019288529,-0.15931177,-8.89089,-0.0036546227,-0.0048727845,0.0,0.058469366,0.021710474,-0.25213832,-0.32060966,-0.0046577733,-0.011870489,0.013201632,0.03743034,0.034056634,0.03204867,0.39109412,488.08423,8.969027,0.25213832,0.43380475,0.24047178,0.18708925,0.105713524,inf,inf,inf,inf,1,1,1,1,2,0,2,2,1,1,0
666196000,11096000,47.3977508,8.5456074,-0.016542995,-0.16020425,-8.923952,-0.0036546227,-0.0048727845,0.0,0.058277566,0.021869052,-0.24454103,-0.312542,-0.0046577733,-0.011870489,0.013201632,-0.026113803,0.061935056,0.11788215,0.3911252,488.08423,9.002089,0.24454103,0.42093262,0.23886617,0.18152209,0.10497548,inf,inf,inf,inf,1,1,1,1,2,0,2,2,1,1,0
666292000,11096000,47.3977508,8.5456074,-0.013418959,-0.16041152,-8.953581,-0.0036546227,-0.0048727845,0.0,0.055490233,0.021312546,-0.23736835,-0.30490744,-0.0046577733,-0.011870489,0.013201632,0.012987176,-0.007860737,0.10193977,0.39111498,488.08423,9.031717,0.23736835,0.4336524,0.239708,0.18598409,0.105511144,inf,inf,inf,inf,1,1,1,1,2,0,2,2,1,1,0
666396000,11096000,47.3977508,8.5456074,-0.0109618995,-0.16045107,-8.985716,-0.0036546227,-0.0048727845,0.0,0.053655688,0.022499586,-0.22765008,-0.29555452,-0.0046577733,-0.011870489,0.013201632,0.035045244,0.049645986,0.14304462,0.3910439,488.08423,9.063852,0.22765008,0.42080435,0.23983864,0.18049273,0.105225846,inf,inf,inf,inf,1,1,1,1,2,0,2,2,1,1,0
666492000,11096000,47.3977508,8.5456074,-0.008224251,-0.15979175,-9.013256,-0.0036546227,-0.0048727845,0.0,0.05137792,0.023338467,-0.21855779,-0.2855573,-0.0046577733,-0.011870489,0.013201632,-0.01447428,0.02588867,-0.0019362195,0.3911846,488.08423,9.0913925,0.21855779,0.43346468,0.24070193,0.18493675,0.10577055,inf,inf,inf,inf,1,1,1,1,2,0,2,2,1,1,0
666596000,11096000,47.3977508,8.5456074,-0.0063094273,-0.1598566,-9.042636,-0.0036546227,-0.0048727845,0.0,0.047984753,0.021180505,-0.21152791,-0.27789202,-0.0046577733,-0.011870489,0.013201632,-0.02656807,-0.058722764,0.18305983,0.39111608,488.08423,9.120772,0.21152791,0.42064607,0.23908533,0.17953263,0.105028324,inf,inf,inf,inf,1,1,1,1,2,0,2,2,1,1,0
666692000,11096000,47.3977508,8.5456074,-0.004003213,-0.15979186,-9.068012,-0.0036546227,-0.0048727845,0.0,0.04725511,0.019356236,-0.20499873,-0.2699238,-0.0046577733,-0.011870489,0.013201632,0.10477432,0.015194494,0.11753197,0.39114743,488.08423,9.146149,0.20499873,0.4332464,0.23995174,0.18395208,0.10557472,inf,inf,inf,inf,1,1,1,1,2,0,2,2,1,1,0
666796000,11096000,47.3977508,8.5456074,-0.002224862,-0.16007803,-9.095277,-0.0036546227,-0.0048727845,0.0,0.046861954,0.021347592,-0.19858658,-0.2625405,-0.0046577733,-0.011870489,0.013201632,-0.03708773,0.030116634,0.12726708,0.39097923,488.08423,9.173413,0.19858658,0.42046076,0.24006617,0.17863788,0.105281845,inf,inf,inf,inf,1,1,1,1,2,0,2,2,1,1,0
666892000,11096000,47.3977508,8.5456074,-7.703624e-06,-0.15983517,-9.120219,-0.0036546227,-0.0048727845,0.0,0.04676446,0.021703742,-0.1922791,-0.25584534,-0.0046577733,-0.011870489,0.013201632,0.07133296,-0.012868847,0.16352905,0.39111546,488.08423,9.198356,0.1922791,0.43300223,0.23919715,0.1830407,0.10537578,inf,inf,inf,inf,1,1,1,1,2,0,2,2,1,1,0
666996000,11096000,47.3977508,8.5456074,0.003309105,-0.15899658,-9.146304,-0.0036546227,-0.0048727845,0.0,0.044480123,0.01976812,-0.18842612,-0.25122023,-0.0046577733,-0.011870489,0.013201632,-0.04002853,-0.0011545925,0.13595912,0.39082754,488.08423,9.224441,0.18842612,0.44718483,0.24070163,0.18787058,0.10609554,inf,inf,inf,inf,1,1,1,1,2,0,2,2,1,1,0
667092000,11096000,47.3977508,8.5456074,0.005464993,-0.15880854,-9.169943,-0.0036546227,-0.0048727845,0.0,0.041186754,0.017875612,-0.18411008,-0.24642853,-0.0046577733,-0.011870489,0.013201632,-0.014834439,0.027637977,-0.11659785,0.39044318,488.08423,9.248079,0.18411008,0.4312903,0.24013677,0.18139254,0.10557225,inf,inf,inf,inf,1,1,1,1,2,0,2,2,1,1,0
667196000,11096000,47.3977508,8.5456074,0.007876316,-0.15852547,-9.196687,-0.0036546227,-0.0048727845,0.0,0.03621013,0.0140957665,-0.21325053,-0.2747907,-0.0046577733,-0.011870489,0.013201632,-0.069286115,-0.031204049,-0.116726376,0.384572,488.08423,9.274823,0.21325053,0.4453022,0.23990043,0.1861988,0.105837494,inf,inf,inf,inf,1,1,1,1,2,0,2,2,1,1,0
667292000,11096000,47.3977508,8.5456074,0.008840373,-0.1581188,-9.222864,-0.0036546227,-0.0048727845,0.0,0.022606982,-0.0044686818,-0.21004276,-0.27111375,-0.0046577733,-0.011870489,0.013201632,-0.2996708,-0.3373206,0.084537074,0.36845937,488.08423,9.301001,0.21004276,0.42971352,0.23935258,0.17999713,0.105323866,inf,inf,inf,inf,1,1,1,1,2,0,2,2,1,1,0
667396000,11096000,47.3977508,8.5456074,0.007257324,-0.16121058,-9.250906,-0.0036546227,-0.0048727845,0.0,-0.029294029,-0.06833027,-0.21669185,-0.27702877,-0.0046577733,-0.011870489,0.013201632,-0.7209683,-0.9626013,-0.11224951,0.3349734,488.08423,9.329042,0.21669185,0.4435778,0.24084131,0.18487868,0.10603842,inf,inf,inf,inf,1,1,1,1,2,0,2,2,1,1,0
667492000,11096000,47.3977508,8.5456074,-0.0013221803,-0.17304139,-9.277721,-0.0036546227,-0.0048727845,0.0,-0.12918666,-0.18813892,-0.22496861,-0.28462228,-0.0046577733,-0.011870489,0.013201632,-1.2523075,-1.5084859,0.08567422,0.28735474,488.08423,9.355858,0.22496861,0.4281661,0.24028993,0.17865533,0.10552254,inf,inf,inf,inf,1,1,1,1,2,0,2,2,1,1,0
667596000,11096000,47.3977508,8.5456074,-0.023257637,-0.20228752,-9.305972,-0.0036546227,-0.0048727845,0.0,-0.28767422,-0.3827252,-0.21085897,-0.2694438,-0.0046577733,-0.011870489,0.013201632,-1.714879,-2.1401825,0.25212204,0.22072247,488.08423,9.384109,0.21085897,0.44175002,0.2400529,0.18324326,0.105775535,inf,inf,inf,inf,1,1,1,1,2,0,2,2,1,1,0
667692000,11096000,47.3977508,8.5456074,-0.05709297,-0.24609452,-9.330186,-0.0036546227,-0.0048727845,0.0,-0.46294966,-0.599822,-0.18774435,-0.24538647,-0.0046577733,-0.011870489,0.013201632,-1.8924454,-2.3778946,0.343753,0.15235347,488.08423,9.408322,0.18774435,0.4266406,0.23948887,0.17728966,0.1052164,inf,inf,inf,inf,1,1,1,1,2,0,2,2,1,1,0
667796000,11096000,47.3977508,8.5456074,-0.11262006,-0.31783542,-9.353471,-0.0036546227,-0.0048727845,0.0,-0.6599227,-0.8490135,-0.1685654,-0.22476433,-0.0046577733,-0.011870489,0.013201632,-1.9652913,-2.4185407,0.191221,0.07665336,488.08423,9.431607,0.1685654,0.44010943,0.24099392,0.18189596,0.10585214,inf,inf,inf,inf,1,1,1,1,2,0,2,2,1,1,0
667892000,11096000,47.3977508,8.5456074,-0.17825225,-0.40240917,-9.373126,-0.0036546227,-0.0048727845,0.0,-0.83122337,-1.0752648,-0.15461244,-0.2093605,-0.0046577733,-0.011870489,0.013201632,-1.7110834,-2.3043287,0.09981263,0.0056410846,488.08423,9.451262,0.15461244,0.42526367,0.24042833,0.17620964,0.10522875,inf,inf,inf,inf,1,1,1,1,2,0,2,2,1,1,0
667996000,11096000,47.3977508,8.5456074,-0.26724988,-0.51837,-9.392984,-0.0036546227,-0.0048727845,0.0,-1.0049559,-1.3073422,-0.14641811,-0.19942217,-0.0046577733,-0.011870489,0.013201632,-1.6155362,-2.1937604,0.14903675,-0.07335033,488.08423,9.471121,0.14641811,0.43857726,0.24016221,0.1809422,0.10535716,inf,inf,inf,inf,1,1,1,1,2,0,2,2,1,1,0
668092000,11096000,47.3977508,8.5456074,-0.36101767,-0.6409807,-9.410168,-0.0036546227,-0.0048727845,0.0,-1.1499788,-1.5040338,-0.14057909,-0.1916112,-0.0046577733,-0.011870489,0.013201632,-1.5858911,-2.0687923,0.12225564,-0.14898345,488.08423,9.488304,0.14057909,0.42397404,0.23960398,0.17560688,0.104733266,inf,inf,inf,inf,1,1,1,1,2,0,2,2,1,1,0
668196000,11096000,47.3977508,8.5456074,-0.47821388,-0.79607177,-9.425641,-0.0036546227,-0.0048727845,0.0,-1.2961099,-1.713026,-0.13457085,-0.18135566,-0.0046577733,-0.011870489,0.013201632,-1.4626572,-2.1157975,0.0819303,-0.23255722,488.08423,9.5037775,0.13457085,0.43718836,0.24106081,0.18051618,0.10531183,inf,inf,inf,inf,1,1,1,1,2,0,2,2,1,1,0
668292000,11096000,47.3977508,8.5456074,-0.598602,-0.95621383,-9.440008,-0.0036546227,-0.0048727845,0.0,-1.4300071,-1.8988936,-0.1299173,-0.17367795,-0.0046577733,-0.011870489,0.013201632,-1.4859258,-1.9531274,0.13269763,-0.31087738,488.08423,9.518145,0.1299173,0.42278352,0.23875165,0.17530441,0.10424111,inf,inf,inf,inf,1,1,1,1,2,0,2,2,1,1,0
668396000,11096000,47.3977508,8.5456074,-0.74503726,-1.1515919,-9.455539,-0.0036546227,-0.0048727845,0.0,-1.5726403,-2.0888338,-0.12053362,-0.16213383,-0.0046577733,-0.011870489,0.013201632,-1.3843644,-1.8633876,0.07177609,-0.39513254,488.08423,9.533675,0.12053362,0.4358964,0.2401919,0.18026403,0.104815245,inf,inf,inf,inf,1,1,1,1,2,0,2,2,1,1,0
668492000,11096000,47.3977508,8.5456074,-0.892179,-1.3478857,-9.469182,-0.0036546227,-0.0048727845,0.0,-1.6999676,-2.2553496,-0.11363492,-0.15359947,-0.0046577733,-0.011870489,0.013201632,-1.2919457,-1.7573876,0.025268642,-0.4714022,488.08423,9.547318,0.11363492,0.42170063,0.23960218,0.1752506,0.10419153,inf,inf,inf,inf,1,1,1,1,2,0,2,2,1,1,0
668596000,11096000,47.3977508,8.5456074,-1.0663217,-1.5807428,-9.483176,-0.0036546227,-0.0048727845,0.0,-1.8300555,-2.4321928,-0.111462355,-0.1495006,-0.0046577733,-0.011870489,0.013201632,-1.211315,-1.794803,0.088206485,-0.55303603,488.08423,9.561313,0.111462355,0.4347119,0.23929824,0.18016948,0.10431541,inf,inf,inf,inf,1,1,1,1,2,0,2,2,1,1,0
668692000,11096000,47.3977508,8.5456074,-1.2385614,-1.8092276,-9.496095,-0.0036546227,-0.0048727845,0.0,-1.944641,-2.586529,-0.10572773,-0.14261682,-0.0046577733,-0.011870489,0.013201632,-1.2737279,-1.6277778,0.09493995,-0.6285114,488.08423,9.574231,0.10572773,0.4206913,0.23871917,0.17525442,0.103707395,inf,inf,inf,inf,1,1,1,1,2,0,2,2,1,1,0
668796000,11096000,47.3977508,8.5456074,-1.4389794,-2.0753105,-9.510414,-0.0036546227,-0.0048727845,0.0,-2.0647178,-2.7527251,-0.100107595,-0.13665392,-0.0046577733,-0.011870489,0.013201632,-1.129908,-1.6193093,0.11171493,-0.71066475,488.08423,9.588551,0.100107595,0.4336431,0.24011315,0.18028757,0.10427644,inf,inf,inf,inf,1,1,1,1,2,0,2,2,1,1,0
668892000,11096000,47.3977508,8.5456074,-1.6349732,-2.3339467,-9.523058,-0.0036546227,-0.0048727845,0.0,-2.175808,-2.8929763,-0.08808243,-0.12466005,-0.0046577733,-0.011870489,0.013201632,-1.2461913,-1.465286,0.12241862,-0.7878306,488.08423,9.601194,0.08808243,0.41977707,0.23952515,0.17546673,0.103680775,inf,inf,inf,inf,1,1,1,1,2,0,2,2,1,1,0
668996000,11096000,47.3977508,8.5456074,-1.8607004,-2.630753,-9.53636,-0.0036546227,-0.0048727845,0.0,-2.293492,-3.0298262,-0.07734659,-0.11472491,-0.0046577733,-0.011870489,0.013201632,-1.0999701,-1.2265995,0.10551605,-0.8724173,488.08423,9.614496,0.07734659,0.4326509,0.23919748,0.18048452,0.10382296,inf,inf,inf,inf,1,1,1,1,2,0,2,2,1,1,0
669092000,11096000,47.3977508,8.5456074,-2.078923,-2.913435,-9.547086,-0.0036546227,-0.0048727845,0.0,-2.3946738,-3.13349,-0.06300461,-0.100674085,-0.0046577733,-0.011870489,0.013201632,-1.0710069,-1.1526003,0.15117972,-0.9502738,488.08423,9.625222,0.06300461,0.41892633,0.23859563,0.17572424,0.1032423,inf,inf,inf,inf,1,1,1,1,2,0,2,2,1,1,0
669196000,11096000,47.3977508,8.5456074,-2.3267558,-3.2318559,-9.556617,-0.0036546227,-0.0048727845,0.0,-2.4870715,-3.2214508,-0.04728115,-0.08457972,-0.0046577733,-0.011870489,0.013201632,-0.75110483,-0.72651654,0.19057746,-1.034216,488.08423,9.634753,0.04728115,0.4317576,0.23998627,0.1808118,0.10384873,inf,inf,inf,inf,1,1,1,1,2,0,2,2,1,1,0
669300000,11096000,47.3977508,8.5456074,-2.5834663,-3.5560727,-9.565044,-0.0036546227,-0.0048727845,0.0,-2.5515077,-3.2845798,-0.0317272,-0.069362655,-0.0046577733,-0.011870489,0.013201632,-0.5511797,-0.53304756,0.10551698,-1.1187756,488.08423,9.643181,0.0317272,0.4191123,0.23831038,0.17642744,0.10304893,inf,inf,inf,inf,1,1,1,1,2,0,2,2,1,1,0
669396000,11096000,47.3977508,8.5456074,-2.8258278,-3.862274,-9.570811,-0.0036546227,-0.0048727845,0.0,-2.5791104,-3.3186784,-0.022217292,-0.059323136,-0.0046577733,-0.011870489,0.013201632,-0.1773485,-0.314506,0.06904173,-1.1988181,488.08423,9.648948,0.022217292,0.43092507,0.23903875,0.18107635,0.10349217,inf,inf,inf,inf,1,1,1,1,2,0,2,2,1,1,0
669492000,11096000,47.3977508,8.5456074,-3.0700243,-4.1685667,-9.575276,-0.0036546227,-0.0048727845,0.0,-2.5808609,-3.3225574,-0.0205348,-0.05654663,-0.0046577733,-0.011870489,0.013201632,0.03407546,0.022279097,-0.049454156,-1.2808895,488.08423,9.653413,0.0205348,0.41744253,0.23845959,0.17634816,0.1029796,inf,inf,inf,inf,1,1,1,1,2,0,2,2,1,1,0
669596000,11096000,47.3977508,8.5456074,-3.334312,-4.501515,-9.580663,-0.0036546227,-0.0048727845,0.0,-2.5612175,-3.2959485,-0.038812507,-0.073451795,-0.0046577733,-0.011870489,0.013201632,0.26688793,0.32414588,-0.18635298,-1.3685389,488.08423,9.658799,0.038812507,0.43017945,0.23982602,0.18142585,0.10363285,inf,inf,inf,inf,1,1,1,1,2,0,2,2,1,1,0
669692000,11096000,47.3977508,8.5456074,-3.5766244,-4.8032613,-9.587398,-0.0036546227,-0.0048727845,0.0,-2.5384521,-3.254373,-0.059251335,-0.092580795,-0.0046577733,-0.011870489,0.013201632,0.24941795,0.3706305,-0.2574725,-1.4447519,488.08423,9.665534,0.059251335,0.41678762,0.2375377,0.17673546,0.10271182,inf,inf,inf,inf,1,1,1,1,2,0,2,2,1,1,0
669796000,11096000,47.3977508,8.5456074,-3.8379133,-5.1280894,-9.597777,-0.0036546227,-0.0048727845,0.0,-2.5266197,-3.2171845,-0.075485356,-0.10848253,-0.0046577733,-0.011870489,0.013201632,0.013784272,0.1787932,0.07024127,-1.522089,488.08423,9.675914,0.075485356,0.42949218,0.23890921,0.18200925,0.10339486,inf,inf,inf,inf,1,1,1,1,2,0,2,2,1,1,0
669892000,11096000,47.3977508,8.5456074,-4.078642,-5.423613,-9.608286,-0.0036546227,-0.0048727845,0.0,-2.5271225,-3.20548,-0.06473816,-0.09833365,-0.0046577733,-0.011870489,0.013201632,-0.03303168,-0.07760757,0.11804513,-1.5922362,488.08423,9.686422,0.06473816,0.41620877,0.23833135,0.17757782,0.10293082,inf,inf,inf,inf,1,1,1,1,2,0,2,2,1,1,0
669996000,11096000,47.3977508,8.5456074,-4.340434,-5.7462897,-9.619029,-0.0036546227,-0.0048727845,0.0,-2.536979,-3.2188637,-0.05125782,-0.08594792,-0.0046577733,-0.011870489,0.013201632,-0.14556967,-0.23012374,0.16857682,-1.6713518,488.08423,9.6971655,0.05125782,0.4288837,0.23801069,0.18302445,0.103204116,inf,inf,inf,inf,1,1,1,1,2,0,2,2,1,1,0
670092000,11096000,47.3977508,8.5456074,-4.5824924,-6.0422735,-9.628133,-0.0036546227,-0.0048727845,0.0,-2.5484192,-3.23917,-0.042741716,-0.0786517,-0.0046577733,-0.011870489,0.013201632,-0.14360271,-0.32769096,0.02282392,-1.7479224,488.08423,9.706269,0.042741716,0.41568416,0.23745872,0.1787025,0.102750786,inf,inf,inf,inf,1,1,1,1,2,0,2,2,1,1,0
670196000,11096000,47.3977508,8.5456074,-4.8460193,-6.3675423,-9.636457,-0.0036546227,-0.0048727845,0.0,-2.5582378,-3.2611215,-0.041217122,-0.07721467,-0.0046577733,-0.011870489,0.013201632,-0.03447593,-0.22179143,0.020345671,-1.8323809,488.08423,9.714594,0.041217122,0.42837045,0.2388317,0.18440768,0.10344356,inf,inf,inf,inf,1,1,1,1,2,0,2,2,1,1,0
670292000,11096000,47.3977508,8.5456074,-5.08899,-6.6639757,-9.643906,-0.0036546227,-0.0048727845,0.0,-2.565492,-3.2661972,-0.044096027,-0.07988629,-0.0046577733,-0.011870489,0.013201632,-0.12749572,-0.021845799,0.0070007513,-1.9094292,488.08423,9.722042,0.044096027,0.415241,0.2382834,0.18021654,0.102983594,inf,inf,inf,inf,1,1,1,1,2,0,2,2,1,1,0
670396000,11096000,47.3977508,8.5456074,-5.3531036,-6.987745,-9.652357,-0.0036546227,-0.0048727845,0.0,-2.5699818,-3.265409,-0.050538708,-0.085951075,-0.0046577733,-0.011870489,0.013201632,-0.056827437,0.029084038,-0.026869586,-1.9918133,488.08423,9.730494,0.050538708,0.4279336,0.23798093,0.18611453,0.10325716,inf,inf,inf,inf,1,1,1,1,2,0,2,2,1,1,0
670492000,11096000,47.3977508,8.5456074,-5.595119,-7.2813864,-9.660919,-0.0036546227,-0.0048727845,0.0,-2.5729492,-3.2654588,-0.051817555,-0.087318204,-0.0046577733,-0.011870489,0.013201632,-0.041496936,-0.1653512,0.04212651,-2.0651007,488.08423,9.739056,0.051817555,0.4148627,0.23742858,0.18195315,0.10280006,inf,inf,inf,inf,1,1,1,1,2,0,2,2,1,1,0
670596000,11096000,47.3977508,8.5456074,-5.858194,-7.6030164,-9.6705265,-0.0036546227,-0.0048727845,0.0,-2.5796185,-3.275136,-0.049085427,-0.08505591,-0.0046577733,-0.011870489,0.013201632,-0.072194494,-0.2182091,0.07929559,-2.13453,488.08423,9.748663,0.049085427,0.42761195,0.23883718,0.18805733,0.103511,inf,inf,inf,inf,1,1,1,1,2,0,2,2,1,1,0
670692000,11096000,47.3977508,8.5456074,-6.0985427,-7.8957705,-9.679146,-0.0036546227,-0.0048727845,0.0,-2.584913,-3.2867637,-0.044712856,-0.08123142,-0.0046577733,-0.011870489,0.013201632,-0.06241607,-0.26264226,0.014797783,-2.184843,488.08423,9.757282,0.044712856,0.41458282,0.2382955,0.18382786,0.103052266,inf,inf,inf,inf,1,1,1,1,2,0,2,2,1,1,0
670796000,11096000,47.3977508,8.5456074,-6.3604026,-8.218088,-9.688601,-0.0036546227,-0.0048727845,0.0,-2.59409,-3.308376,-0.040716723,-0.07819991,-0.0046577733,-0.011870489,0.013201632,-0.065124825,-0.39951432,0.1852149,-2.2245522,488.08423,9.766737,0.040716723,0.42737785,0.23800181,0.18998845,0.10332597,inf,inf,inf,inf,1,1,1,1,2,0,2,2,1,1,0
670892000,11096000,47.3977508,8.5456074,-6.600089,-8.51182,-9.697104,-0.0036546227,-0.0048727845,0.0,-2.6020346,-3.3213882,-0.035171725,-0.07376606,-0.0046577733,-0.011870489,0.013201632,-0.16830279,-0.2606802,-0.0017518176,-2.2489069,488.08423,9.775241,0.035171725,0.41437897,0.23748063,0.18565401,0.10287107,inf,inf,inf,inf,1,1,1,1,2,0,2,2,1,1,0
670996000,11096000,47.3977508,8.5456074,-6.861869,-8.834886,-9.706069,-0.0036546227,-0.0048727845,0.0,-2.6109042,-3.3315172,-0.034398824,-0.07403611,-0.0046577733,-0.011870489,0.013201632,-0.086919166,-0.2657971,-0.0680834,-2.2653494,488.08423,9.784205,0.034398824,0.42726544,0.2388876,0.19194105,0.10358231,inf,inf,inf,inf,1,1,1,1,2,0,2,2,1,1,0
671092000,11096000,47.3977508,8.5456074,-7.100839,-9.127875,-9.714693,-0.0036546227,-0.0048727845,0.0,-2.6169822,-3.3341842,-0.034345824,-0.075138435,-0.0046577733,-0.011870489,0.013201632,-0.096072435,-0.17469469,0.037128102,-2.2736125,488.08423,9.7928295,0.034345824,0.41426742,0.2366737,0.18743439,0.102715276,inf,inf,inf,inf,1,1,1,1,2,0,2,2,1,1,0
671196000,11096000,47.3977508,8.5456074,-7.362147,-9.450022,-9.723701,-0.0036546227,-0.0048727845,0.0,-2.6274667,-3.3410459,-0.03160153,-0.07327633,-0.0046577733,-0.011870489,0.013201632,-0.15496042,-0.19992025,0.08511356,-2.277961,488.08423,9.801837,0.03160153,0.42724624,0.23808767,0.19379987,0.10345242,inf,inf,inf,inf,1,1,1,1,2,0,2,2,1,1,0
671292000,11096000,47.3977508,8.5456074,-7.599534,-9.742497,-9.732456,-0.0036546227,-0.0048727845,0.0,-2.6357484,-3.344142,-0.027082294,-0.070331536,-0.0046577733,-0.011870489,0.013201632,-0.1034541,-0.16337143,0.12299697,-2.2788706,488.08423,9.810593,0.027082294,0.41425982,0.23756023,0.18917076,0.103027485,inf,inf,inf,inf,1,1,1,1,2,0,2,2,1,1,0
671396000,11096000,47.3977508,8.5456074,-7.8596015,-10.0648,-9.742389,-0.0036546227,-0.0048727845,0.0,-2.6469586,-3.3554006,-0.024214193,-0.069744594,-0.0046577733,-0.011870489,0.013201632,-0.28909788,-0.28684896,0.0045131887,-2.2780683,488.08423,9.820525,0.024214193,0.42733294,0.23729825,0.19552048,0.103365295,inf,inf,inf,inf,1,1,1,1,2,0,2,2,1,1,0
671500000,11096000,47.3977508,8.5456074,-8.115726,-10.382158,-9.753944,-0.0036546227,-0.0048727845,0.0,-2.6548145,-3.365122,-0.02124923,-0.07067677,-0.0046577733,-0.011870489,0.013201632,-0.1901267,-0.24452338,0.027980654,-2.2759366,488.08423,9.832081,0.02124923,0.41532257,0.23741692,0.19117546,0.10315492,inf,inf,inf,inf,1,1,1,1,2,0,2,2,1,1,0
671596000,11096000,47.3977508,8.5456074,-8.355414,-10.680823,-9.763716,-0.0036546227,-0.0048727845,0.0,-2.662239,-3.3729637,-0.014838431,-0.06698509,-0.0046577733,-0.011870489,0.013201632,-0.16925274,-0.22341938,0.10824296,-2.2735693,488.08423,9.841852,0.014838431,0.42752907,0.23821136,0.19705842,0.103744954,inf,inf,inf,inf,1,1,1,1,2,0,2,2,1,1,0
671692000,11096000,47.3977508,8.5456074,-8.590297,-10.974731,-9.773031,-0.0036546227,-0.0048727845,0.0,-2.666365,-3.3797362,-0.00783426,-0.06266111,-0.0046577733,-0.011870489,0.013201632,-0.15916069,-0.18321303,0.029574146,-2.2712216,488.08423,9.851168,0.00783426,0.41449413,0.23770794,0.19200575,0.103354566,inf,inf,inf,inf,1,1,1,1,2,0,2,2,1,1,0
671796000,11096000,47.3977508,8.5456074,-8.8483095,-11.299525,-9.783813,-0.0036546227,-0.0048727845,0.0,-2.6742067,-3.3917756,-0.004899659,-0.063253745,-0.0046577733,-0.011870489,0.013201632,-0.12521608,-0.25803316,0.15292688,-2.2685483,488.08423,9.86195,0.004899659,0.4277987,0.23746867,0.19831742,0.103733145,inf,inf,inf,inf,1,1,1,1,2,0,2,2,1,1,0
671892000,11096000,47.3977508,8.5456074,-9.091739,-11.60792,-9.792922,-0.0036546227,-0.0048727845,0.0,-2.681795,-3.4049754,0.0028273547,-0.058166653,-0.0046577733,-0.011870489,0.013201632,-0.24203722,-0.23193818,0.12399721,-2.2662768,488.08423,9.871058,-0.0028273547,0.44076976,0.23826647,0.20423697,0.1043262,inf,inf,inf,inf,1,1,1,1,2,0,2,2,1,1,0
671996000,11096000,47.3977508,8.5456074,-9.341768,-11.924353,-9.80351,-0.0036546227,-0.0048727845,0.0,-2.6838903,-3.4070466,0.008520972,-0.05657757,-0.0046577733,-0.011870489,0.013201632,-0.19676912,-0.19983527,-0.039417293,-2.2639494,488.08423,9.881646,-0.008520972,0.4268251,0.23838912,0.19839816,0.104114406,inf,inf,inf,inf,1,1,1,1,2,0,2,2,1,1,0
672092000,11096000,47.3977508,8.5456074,-9.575738,-12.220876,-9.8135,-0.0036546227,-0.0048727845,0.0,-2.6894345,-3.4107473,0.0088480655,-0.059919648,-0.0046577733,-0.011870489,0.013201632,-0.24220905,-0.29120407,0.003823079,-2.2620332,488.08423,9.891637,-0.0088480655,0.43980047,0.23921777,0.20423894,0.1047269,inf,inf,inf,inf,1,1,1,1,2,0,2,2,1,1,0
672196000,11096000,47.3977508,8.5456074,-9.817518,-12.529696,-9.824755,-0.0036546227,-0.0048727845,0.0,-2.6887589,-3.4105406,0.0125282975,-0.060451638,-0.0046577733,-0.011870489,0.013201632,-0.24173337,-0.25624827,0.05156267,-2.2604804,488.08423,9.902891,-0.0125282975,0.42599183,0.23763353,0.19832726,0.104083925,inf,inf,inf,inf,1,1,1,1,2,0,2,2,1,1,0
672292000,11096000,47.3977508,8.5456074,-10.045519,-12.821872,-9.834311,-0.0036546227,-0.0048727845,0.0,-2.692899,-3.4197757,0.017662968,-0.058273062,-0.0046577733,-0.011870489,0.013201632,-0.20660482,-0.27395108,0.11321715,-2.259236,488.08423,9.912447,-0.017662968,0.43897608,0.23847659,0.20411097,0.10470768,inf,inf,inf,inf,1,1,1,1,2,0,2,2,1,1,0
672396000,11096000,47.3977508,8.5456074,-10.28364,-13.129152,-9.845875,-0.0036546227,-0.0048727845,0.0,-2.69449,-3.4253154,0.0264366,-0.05423145,-0.0046577733,-0.011870489,0.013201632,-0.30512035,-0.33439064,0.14335474,-2.2579691,488.08423,9.924011,-0.0264366,0.42529863,0.2386008,0.19814304,0.1044968,inf,inf,inf,inf,1,1,1,1,2,0,2,2,1,1,0
672492000,11096000,47.3977508,8.5456074,-10.510147,-13.4214525,-9.855459,-0.0036546227,-0.0048727845,0.0,-2.7065585,-3.4392738,0.035007637,-0.04928958,-0.0046577733,-0.011870489,0.013201632,-0.40816745,-0.27465096,0.18342024,-2.2570367,488.08423,9.933596,-0.035007637,0.43828622,0.23775116,0.20380765,0.104692794,inf,inf,inf,inf,1,1,1,1,2,0,2,2,1,1,0
672596000,11096000,47.3977508,8.5456074,-10.748978,-13.730259,-9.865662,-0.0036546227,-0.0048727845,0.0,-2.7158194,-3.445931,0.040888112,-0.04749175,-0.0046577733,-0.011870489,0.013201632,-0.28024635,-0.25806156,0.09738746,-2.2564788,488.08423,9.943798,-0.040888112,0.42471114,0.23789696,0.19774897,0.10449088,inf,inf,inf,inf,1,1,1,1,2,0,2,2,1,1,0
672692000,11096000,47.3977508,8.5456074,-10.977103,-14.024256,-9.874894,-0.0036546227,-0.0048727845,0.0,-2.7268174,-3.453386,0.044172145,-0.04758758,-0.0046577733,-0.011870489,0.013201632,-0.23115028,-0.19571348,0.14239548,-2.2559114,488.08423,9.953031,-0.044172145,0.43771586,0.23875065,0.20332077,0.10512349,inf,inf,inf,inf,1,1,1,1,2,0,2,2,1,1,0
672796000,11096000,47.3977508,8.5456074,-11.217817,-14.334731,-9.886882,-0.0036546227,-0.0048727845,0.0,-2.7315013,-3.4536192,0.05257529,-0.045224417,-0.0046577733,-0.011870489,0.013201632,-0.23601413,-0.2285121,0.1451019,-2.2551658,488.08423,9.965018,-0.05257529,0.42421925,0.23720706,0.19722931,0.10448526,inf,inf,inf,inf,1,1,1,1,2,0,2,2,1,1,0
672892000,11096000,47.3977508,8.5456074,-11.447335,-14.629795,-9.896904,-0.0036546227,-0.0048727845,0.0,-2.739465,-3.4594867,0.05826867,-0.043940127,-0.0046577733,-0.011870489,0.013201632,-0.19226176,-0.20128138,0.105381936,-2.2544093,488.08423,9.97504,-0.05826867,0.4372309,0.23807447,0.20271789,0.10511907,inf,inf,inf,inf,1,1,1,1,2,0,2,2,1,1,0
672996000,11096000,47.3977508,8.5456074,-11.690091,-14.943608,-9.907767,-0.0036546227,-0.0048727845,0.0,-2.7431934,-3.4611795,0.06423276,-0.042940993,-0.0046577733,-0.011870489,0.013201632,-0.2416428,-0.24763307,0.07871258,-2.253913,488.08423,9.985904,-0.06423276,0.42381305,0.23821889,0.19660372,0.10489721,inf,inf,inf,inf,1,1,1,1,2,0,2,2,1,1,0
673092000,11096000,47.3977508,8.5456074,-11.921653,-15.241969,-9.916903,-0.0036546227,-0.0048727845,0.0,-2.7493064,-3.4700253,0.07208983,-0.03882442,-0.0046577733,-0.011870489,0.013201632,-0.1760309,-0.21614203,0.1703035,-2.2531571,488.08423,9.995039,-0.07208983,0.43682778,0.23910886,0.20201442,0.105531916,inf,inf,inf,inf,1,1,1,1,2,0,2,2,1,1,0
673196000,11096000,47.3977508,8.5456074,-12.16559,-15.5591345,-9.926704,-0.0036546227,-0.0048727845,0.0,-2.752175,-3.472012,0.081943,-0.033501264,-0.0046577733,-0.011870489,0.013201632,-0.32800713,-0.20064482,0.10839197,-2.2527692,488.08423,10.004841,-0.081943,0.4234648,0.2375717,0.19587637,0.10487011,inf,inf,inf,inf,1,1,1,1,2,0,2,2,1,1,0
673292000,11096000,47.3977508,8.5456074,-12.398124,-15.859996,-9.933987,-0.0036546227,-0.0048727845,0.0,-2.7592847,-3.4777627,0.08509199,-0.032842588,-0.0046577733,-0.011870489,0.013201632,-0.16094929,-0.25678122,0.13793725,-2.2522779,488.08423,10.012123,-0.08509199,0.43647745,0.23844557,0.2011993,0.10548881,inf,inf,inf,inf,1,1,1,1,2,0,2,2,1,1,0
673396000,11096000,47.3977508,8.5456074,-12.643962,-16.179758,-9.941216,-0.0036546227,-0.0048727845,0.0,-2.76228,-3.4778795,0.09180336,-0.0284811,-0.0046577733,-0.011870489,0.013201632,-0.13555819,-0.19238818,0.064955086,-2.252,488.08423,10.019353,-0.09180336,0.4231728,0.23861988,0.19507545,0.10525487,inf,inf,inf,inf,1,1,1,1,2,0,2,2,1,1,0
673492000,11096000,47.3977508,8.5456074,-12.878193,-16.482544,-9.94674,-0.0036546227,-0.0048727845,0.0,-2.767826,-3.4799075,0.0921064,-0.029221889,-0.0046577733,-0.011870489,0.013201632,-0.2249698,-0.14527048,0.07693003,-2.2515895,488.08423,10.024877,-0.0921064,0.43617898,0.23952264,0.2003416,0.10587745,inf,inf,inf,inf,1,1,1,1,2,0,2,2,1,1,0
673596000,11096000,47.3977508,8.5456074,-13.127544,-16.805437,-9.952759,-0.0036546227,-0.0048727845,0.0,-2.7708461,-3.477882,0.09566259,-0.027061123,-0.0046577733,-0.011870489,0.013201632,-0.19072554,-0.14660832,0.09364075,-2.2512946,488.08423,10.030895,-0.09566259,0.42291546,0.23797691,0.19423375,0.105186015,inf,inf,inf,inf,1,1,1,1,2,0,2,2,1,1,0
673692000,11096000,47.3977508,8.5456074,-13.364896,-17.11074,-9.957645,-0.0036546227,-0.0048727845,0.0,-2.776651,-3.4795918,0.09641106,-0.026957499,-0.0046577733,-0.011870489,0.013201632,-0.21260114,-0.07779686,0.05583558,-2.2509017,488.08423,10.035782,-0.09641106,0.4359105,0.2388883,0.19943841,0.10580136,inf,inf,inf,inf,1,1,1,1,2,0,2,2,1,1,0
673796000,11096000,47.3977508,8.5456074,-13.617231,-17.437025,-9.964545,-0.0036546227,-0.0048727845,0.0,-2.778569,-3.477265,0.0964472,-0.029263232,-0.0046577733,-0.011870489,0.013201632,-0.15647079,-0.18172221,0.048742626,-2.250793,488.08423,10.042682,-0.0964472,0.42269272,0.23905043,0.19337481,0.1055372,inf,inf,inf,inf,1,1,1,1,2,0,2,2,1,1,0
673892000,11096000,47.3977508,8.5456074,-13.856913,-17.74509,-9.96998,-0.0036546227,-0.0048727845,0.0,-2.7833223,-3.4804275,0.103110164,-0.023868024,-0.0046577733,-0.011870489,0.013201632,-0.18394458,-0.068053596,0.22320542,-2.250682,488.08423,10.048117,-0.103110164,0.43566793,0.23825195,0.1985127,0.10569913,inf,inf,inf,inf,1,1,1,1,2,0,2,2,1,1,0
673996000,11096000,47.3977508,8.5456074,-14.110631,-18.073456,-9.975723,-0.0036546227,-0.0048727845,0.0,-2.779225,-3.475207,0.12117797,-0.008226998,-0.0046577733,-0.011870489,0.013201632,-0.11822744,-0.025772953,0.31902733,-2.2504742,488.08423,10.05386,-0.12117797,0.4224878,0.23842743,0.19248147,0.105429605,inf,inf,inf,inf,1,1,1,1,2,0,2,2,1,1,0
674092000,11096000,47.3977508,8.5456074,-14.350464,-18.381945,-9.979014,-0.0036546227,-0.0048727845,0.0,-2.7735372,-3.459824,0.13480926,0.0037519766,-0.0046577733,-0.011870489,0.013201632,-0.045357037,0.20428932,0.15342514,-2.2503605,488.08423,10.057151,-0.13480926,0.43544713,0.23933385,0.19753839,0.10602061,inf,inf,inf,inf,1,1,1,1,2,0,2,2,1,1,0
674196000,11096000,47.3977508,8.5456074,-14.603737,-18.708231,-9.983332,-0.0036546227,-0.0048727845,0.0,-2.7479622,-3.419159,0.13645922,0.0021262509,-0.0046577733,-0.011870489,0.013201632,0.13285874,0.37305078,-0.051588748,-2.2500706,488.08423,10.061468,-0.13645922,0.4222978,0.23779868,0.19150455,0.10529367,inf,inf,inf,inf,1,1,1,1,2,0,2,2,1,1,0
674292000,11096000,47.3977508,8.5456074,-14.840745,-19.010565,-9.98713,-0.0036546227,-0.0048727845,0.0,-2.71178,-3.3586304,0.13212556,-0.004317628,-0.0046577733,-0.011870489,0.013201632,0.3581261,0.67584234,0.037356276,-2.2504478,488.08423,10.065267,-0.13212556,0.43522936,0.23870865,0.19654648,0.105868794,inf,inf,inf,inf,1,1,1,1,2,0,2,2,1,1,0
