timestamp,vel_pos_innov[0],vel_pos_innov[1],vel_pos_innov[2],vel_pos_innov[3],vel_pos_innov[4],vel_pos_innov[5],mag_innov[0],mag_innov[1],mag_innov[2],heading_innov,airspeed_innov,beta_innov,flow_innov[0],flow_innov[1],hagl_innov,vel_pos_innov_var[0],vel_pos_innov_var[1],vel_pos_innov_var[2],vel_pos_innov_var[3],vel_pos_innov_var[4],vel_pos_innov_var[5],mag_innov_var[0],mag_innov_var[1],mag_innov_var[2],heading_innov_var,airspeed_innov_var,beta_innov_var,flow_innov_var[0],flow_innov_var[1],hagl_innov_var,output_tracking_error[0],output_tracking_error[1],output_tracking_error[2],drag_innov[0],drag_innov[1],drag_innov_var[0],drag_innov_var[1],aux_vel_innov[0],aux_vel_innov[1]
657300000,0.036087945,-0.074281044,-0.0074900836,0.029926144,-0.053341508,-0.04031372,-0.0009881556,0.0031215549,0.0007702112,0.0020385683,0.0,0.0,0.0,0.0,0.0,0.26644945,0.266449,0.5737817,1.0981071,1.0981063,4.058102,0.0025081292,0.0025084119,0.0025082754,0.09014503,0.0,0.0,0.0,0.0,0.0,0.00028176524,0.005337771,0.012649959,0.0,0.0,0.0,0.0,0.0,0.0
657492000,0.07016764,-0.05128379,0.0126478635,0.032634743,-0.052427724,0.040283203,-0.0009881556,0.0031215549,0.0007702112,-0.009886503,0.0,0.0,0.0,0.0,0.0,0.26634544,0.2663451,0.5737295,1.0975533,1.0975525,4.0580373,0.0025081292,0.0025084119,0.0025082754,0.09014501,0.0,0.0,0.0,0.0,0.0,0.00028199892,0.005826844,0.013411307,0.0,0.0,0.0,0.0,0.0,0.0
657692000,0.08472022,-0.060915377,-0.002047002,0.032032482,-0.053953193,0.021820068,-0.0009881556,0.0031215549,0.0007702112,0.0031497478,0.0,0.0,0.0,0.0,0.0,0.26625502,0.26625478,0.57377386,1.0970551,1.0970544,4.0578647,0.0025081292,0.0025084119,0.0025082754,0.090144984,0.0,0.0,0.0,0.0,0.0,0.00030485654,0.0066897967,0.014813528,0.0,0.0,0.0,0.0,0.0,0.0
657892000,0.054780662,-0.053049736,-0.052320343,0.01934932,-0.05384481,0.0011901855,-0.0009881556,0.0031215549,0.0007702112,-0.008377105,0.0,0.0,0.0,0.0,0.0,0.2662035,0.26620337,0.57372427,1.0966079,1.0966073,4.0581098,0.0025081292,0.0025084119,0.0025082754,0.090145044,0.0,0.0,0.0,0.0,0.0,0.00028294447,0.005070974,0.011684785,0.0,0.0,0.0,0.0,0.0,0.0
658092000,0.0727027,-0.040621936,-0.20384124,0.03244874,-0.051129326,0.0073547363,-0.0009881556,0.0031215549,0.0007702112,0.0071367323,0.0,0.0,0.0,0.0,0.0,0.26646528,0.26646516,0.5737714,1.0962429,1.0962423,4.0579457,0.0025081292,0.0025084119,0.0025082754,0.090145014,0.0,0.0,0.0,0.0,0.0,0.0002765159,0.0056118295,0.011657158,0.0,0.0,0.0,0.0,0.0,0.0
658292000,0.033533905,-0.048601825,-0.3013417,0.02877219,-0.043356054,-0.024414062,-0.0009881556,0.0031215549,0.0007702112,-0.008539498,0.0,0.0,0.0,0.0,0.0,0.2669279,0.2669276,0.573722,1.0959791,1.0959786,4.0578814,0.0025081292,0.0025084119,0.0025082754,0.09014499,0.0,0.0,0.0,0.0,0.0,0.00023355833,0.004872188,0.008436977,0.0,0.0,0.0,0.0,0.0,0.0
658492000,0.048339345,-0.04703174,0.027417064,0.02923591,-0.05604186,-0.062286377,-0.0009881556,0.0031215549,0.0007702112,-0.008888483,0.0,0.0,0.0,0.0,0.0,0.26708528,0.26708502,0.5737704,1.0957844,1.0957841,4.0578146,0.0025081292,0.0025084119,0.0025082754,0.09014497,0.0,0.0,0.0,0.0,0.0,0.00023644754,0.003316651,0.0073441756,0.0,0.0,0.0,0.0,0.0,0.0
658692000,0.04391015,-0.084500305,0.11376011,0.028731428,-0.061189912,0.01889038,-0.0009881556,0.0031215549,0.0007702112,0.001843363,0.0,0.0,0.0,0.0,0.0,0.26718488,0.26718467,0.5737238,1.0956486,1.0956483,4.057964,0.0025081292,0.0025084119,0.0025082754,0.09014503,0.0,0.0,0.0,0.0,0.0,0.00030016768,0.006028369,0.013886396,0.0,0.0,0.0,0.0,0.0,0.0
658892000,0.052573144,-0.05279187,0.01598227,0.029981133,-0.061654996,-0.06085205,-0.0009881556,0.0031215549,0.0007702112,-0.007928938,0.0,0.0,0.0,0.0,0.0,0.26699883,0.26699856,0.57367724,1.0954741,1.0954739,4.0579042,0.0025081292,0.0025084119,0.0025082754,0.09014501,0.0,0.0,0.0,0.0,0.0,0.00028796404,0.004289948,0.009553442,0.0,0.0,0.0,0.0,0.0,0.0
659092000,0.059986863,-0.02708203,0.041952133,0.029534727,-0.058458775,0.16137695,-0.0009881556,0.0031215549,0.0007702112,0.005162269,0.0,0.0,0.0,0.0,0.0,0.2668238,0.26682347,0.5737264,1.095306,1.0953058,4.057738,0.0025081292,0.0025084119,0.0025082754,0.09827869,0.0,0.0,0.0,0.0,0.0,0.0007856146,0.0052868654,0.013274119,0.0,0.0,0.0,0.0,0.0,0.0
659292000,0.06192504,-0.053616,0.05716276,0.039314054,-0.059872624,-0.1027832,-0.0009881556,0.0031215549,0.0007702112,-0.004129499,0.0,0.0,0.0,0.0,0.0,0.26536947,0.26536885,0.5736823,1.0949719,1.0949717,4.0579886,0.0025081292,0.0025084119,0.0025082754,0.0945294,0.0,0.0,0.0,0.0,0.0,0.0032009745,0.0049382797,0.012514675,0.0,0.0,0.0,0.0,0.0,0.0
659492000,0.054447725,-0.021870889,0.029238462,0.037546743,-0.05981145,0.0619812,-0.0009881556,0.0031215549,0.0007702112,0.0043819845,0.0,0.0,0.0,0.0,0.0,0.26436722,0.26436558,0.57373464,1.0945083,1.094508,4.0578313,0.0025081292,0.0025084119,0.0025082754,0.09322952,0.0,0.0,0.0,0.0,0.0,0.0004626472,0.004622122,0.012493371,0.0,0.0,0.0,0.0,0.0,0.0
659692000,0.0635968,-0.036759727,0.07975495,0.037234034,-0.05714884,-0.02130127,-0.0009881556,0.0031215549,0.0007702112,-0.0067687333,0.0,0.0,0.0,0.0,0.0,0.26374137,0.26373887,0.57369107,1.0939474,1.093947,4.0577745,0.0025081292,0.0025084119,0.0025082754,0.09244145,0.0,0.0,0.0,0.0,0.0,0.0004304641,0.005049046,0.013206384,0.0,0.0,0.0,0.0,0.0,0.0
659892000,0.04492159,-0.051157176,0.074320436,0.036369376,-0.054203983,0.014892578,-0.0009881556,0.0031215549,0.0007702112,0.0047662556,0.0,0.0,0.0,0.0,0.0,0.26343495,0.26343176,0.5737448,1.0933231,1.0933228,4.057715,0.0025081292,0.0025084119,0.0025082754,0.091962695,0.0,0.0,0.0,0.0,0.0,0.0009984244,0.004419246,0.011567423,0.0,0.0,0.0,0.0,0.0,0.0
660092000,0.06772311,-0.05375638,0.042539,0.0490789,-0.058275238,0.062927246,-0.0009881556,0.0031215549,0.0007702112,0.0051105917,0.0,0.0,0.0,0.0,0.0,0.26339814,0.2633943,0.57370394,1.0926698,1.0926694,4.0578704,0.0025081292,0.0025084119,0.0025082754,0.09167148,0.0,0.0,0.0,0.0,0.0,0.0006947842,0.004346866,0.011847164,0.0,0.0,0.0,0.0,0.0,0.0
660292000,0.049589932,-0.06692013,0.03566873,0.04799468,-0.05518734,-0.07296753,-0.0009881556,0.0031215549,0.0007702112,-0.0013950169,0.0,0.0,0.0,0.0,0.0,0.26358837,0.2635838,0.5736631,1.0920213,1.0920206,4.0578194,0.0025081292,0.0025084119,0.0025082754,0.09143249,0.0,0.0,0.0,0.0,0.0,0.0001618751,0.0037836106,0.01069017,0.0,0.0,0.0,0.0,0.0,0.0
660492000,0.059494548,-0.046225183,0.021437407,0.060112737,-0.051441427,0.13330078,-0.0009881556,0.0031215549,0.0007702112,-0.0042310357,0.0,0.0,0.0,0.0,0.0,0.26396063,0.26395544,0.5737174,1.0914088,1.091408,4.0576606,0.0025081292,0.0025084119,0.0025082754,0.091271035,0.0,0.0,0.0,0.0,0.0,0.00028235535,0.0034529492,0.009886363,0.0,0.0,0.0,0.0,0.0,0.0
660692000,0.07036016,-0.032326788,0.015257835,0.07024512,-0.049701124,0.103149414,-0.0009881556,0.0031215549,0.0007702112,-0.007504493,0.0,0.0,0.0,0.0,0.0,0.26447484,0.26446956,0.57367855,1.0908607,1.0908595,4.057919,0.0025081292,0.0025084119,0.0025082754,0.09112814,0.0,0.0,0.0,0.0,0.0,0.0008276121,0.0042746263,0.011889856,0.0,0.0,0.0,0.0,0.0,0.0
660892000,0.09550026,-0.032342773,0.058846474,0.06730363,-0.04143953,0.07550049,-0.0009881556,0.0031215549,0.0007702112,-0.008405149,0.0,0.0,0.0,0.0,0.0,0.26509973,0.26509362,0.5737351,1.0904008,1.0903993,4.0577693,0.0025081292,0.0025084119,0.0025082754,0.09102571,0.0,0.0,0.0,0.0,0.0,0.001072158,0.0054672076,0.013149108,0.0,0.0,0.0,0.0,0.0,0.0
661092000,0.041196484,-0.002742147,0.01894474,0.072485805,-0.04140954,0.06097412,-0.0009881556,0.0031215549,0.0007702112,0.0027640164,0.0,0.0,0.0,0.0,0.0,0.26578662,0.26577988,0.5736953,1.0900469,1.090045,4.0577207,0.0025081292,0.0025084119,0.0025082754,0.090930745,0.0,0.0,0.0,0.0,0.0,0.0006500211,0.004942427,0.013002173,0.0,0.0,0.0,0.0,0.0,0.0
661292000,0.06546703,-0.03541856,0.07008159,0.08221356,-0.03719642,0.045562744,-0.0009881556,0.0031215549,0.0007702112,-0.0013386309,0.0,0.0,0.0,0.0,0.0,0.26650518,0.26649824,0.5737519,1.0898106,1.0898082,4.0576696,0.0025081292,0.0025084119,0.0025082754,0.09085196,0.0,0.0,0.0,0.0,0.0,0.0005838284,0.0046261554,0.011646685,0.0,0.0,0.0,0.0,0.0,0.0
661492000,0.0699268,-0.0025010835,0.0818311,0.07854408,-0.02996718,0.040740967,-0.0009881556,0.0031215549,0.0007702112,-0.011229962,0.0,0.0,0.0,0.0,0.0,0.26715535,0.26714873,0.57371336,1.0896932,1.0896903,4.0578322,0.0025081292,0.0025084119,0.0025082754,0.09079244,0.0,0.0,0.0,0.0,0.0,0.0005725739,0.005259283,0.012016242,0.0,0.0,0.0,0.0,0.0,0.0
661692000,0.057950057,-0.0025590565,0.040955544,0.09728722,-0.033778034,-0.008270264,-0.0009881556,0.0031215549,0.0007702112,-0.0059554577,0.0,0.0,0.0,0.0,0.0,0.26777998,0.2677732,0.5736742,1.0896907,1.0896873,4.0577884,0.0025081292,0.0025084119,0.0025082754,0.09073476,0.0,0.0,0.0,0.0,0.0,0.0003442847,0.005111011,0.011784218,0.0,0.0,0.0,0.0,0.0,0.0
661892000,0.057950057,-0.0025590565,0.040955544,0.09728722,-0.033778034,0.0068359375,-0.0009881556,0.0031215549,0.0007702112,0.001586169,0.0,0.0,0.0,0.0,0.0,0.26777998,0.2677732,0.5736742,1.0896907,1.0896873,4.058308,0.0025081292,0.0025084119,0.0025082754,0.09069018,0.0,0.0,0.0,0.0,0.0,0.0002778728,0.004084772,0.010150882,0.0,0.0,0.0,0.0,0.0,0.0
662092000,0.081039086,-0.0015643667,0.06419587,0.09763156,-0.032320414,0.09313965,-0.0009881556,0.0031215549,0.0007702112,0.009573191,0.0,0.0,0.0,0.0,0.0,0.26952556,0.2695184,0.5738428,1.0949699,1.0949652,4.0585575,0.0025081292,0.0025084119,0.0025082754,0.09064617,0.0,0.0,0.0,0.0,0.0,0.00033623163,0.004171379,0.010407151,0.0,0.0,0.0,0.0,0.0,0.0
662292000,0.09038672,-0.0012590941,0.14310622,0.09034055,-0.020623857,0.101501465,-0.0009881556,0.0031215549,0.0007702112,0.0053009987,0.0,0.0,0.0,0.0,0.0,0.26989534,0.26988858,0.5737908,1.0947313,1.0947264,4.0583925,0.0025081292,0.0025084119,0.0025082754,0.09061156,0.0,0.0,0.0,0.0,0.0,0.0006051011,0.0059689386,0.0151200835,0.0,0.0,0.0,0.0,0.0,0.0
662492000,0.07899017,0.0006978754,0.08906722,0.09326029,-0.017072104,0.049468994,-0.0009881556,0.0031215549,0.0007702112,-0.0043111444,0.0,0.0,0.0,0.0,0.0,0.27019778,0.27019146,0.5738379,1.094598,1.094593,4.0583277,0.0025081292,0.0025084119,0.0025082754,0.09057687,0.0,0.0,0.0,0.0,0.0,0.00047467378,0.0053787413,0.013939624,0.0,0.0,0.0,0.0,0.0,0.0
662692000,0.08839513,0.03367549,0.085464716,0.08591582,-0.006176345,0.13369751,-0.0009881556,0.0031215549,0.0007702112,0.0008416176,0.0,0.0,0.0,0.0,0.0,0.27042317,0.2704174,0.573788,1.0945529,1.0945477,4.0582595,0.0025081292,0.0025084119,0.0025082754,0.09054598,0.0,0.0,0.0,0.0,0.0,0.00044731467,0.006439172,0.016186731,0.0,0.0,0.0,0.0,0.0,0.0
662892000,0.08830722,0.037092127,0.074888945,0.08883888,-0.0068239905,0.02709961,-0.0009881556,0.0031215549,0.0007702112,0.00957489,0.0,0.0,0.0,0.0,0.0,0.270575,0.27056983,0.57373804,1.0945779,1.0945728,4.058411,0.0025081292,0.0025084119,0.0025082754,0.09052127,0.0,0.0,0.0,0.0,0.0,0.00025447452,0.006012695,0.014022502,0.0,0.0,0.0,0.0,0.0,0.0
663092000,0.061062507,0.04716473,0.1081087,0.09213987,-0.00762973,-0.0126953125,-0.0009881556,0.0031215549,0.0007702112,-0.013381511,0.0,0.0,0.0,0.0,0.0,0.27067426,0.27066985,0.5737854,1.0946587,1.0946537,4.05835,0.0025081292,0.0025084119,0.0025082754,0.09049604,0.0,0.0,0.0,0.0,0.0,0.0002778216,0.005896033,0.013343964,0.0,0.0,0.0,0.0,0.0,0.0
663292000,0.074992985,0.016903412,0.054174364,0.087582454,0.0052996427,0.07635498,-0.0009881556,0.0031215549,0.0007702112,-0.01120314,0.0,0.0,0.0,0.0,0.0,0.270714,0.27071023,0.5737378,1.0947807,1.0947758,4.0581813,0.0025081292,0.0025084119,0.0025082754,0.09047565,0.0,0.0,0.0,0.0,0.0,0.00025474525,0.0046881954,0.011583963,0.0,0.0,0.0,0.0,0.0,0.0
663492000,0.08636333,0.040962435,0.036534607,0.08232382,0.013838969,0.014038086,-0.0009881556,0.0031215549,0.0007702112,8.967519e-05,0.0,0.0,0.0,0.0,0.0,0.27069646,0.27069315,0.5737868,1.0949297,1.094925,4.058434,0.0025081292,0.0025084119,0.0025082754,0.090454705,0.0,0.0,0.0,0.0,0.0,0.00023363542,0.004914162,0.011931064,0.0,0.0,0.0,0.0,0.0,0.0
663692000,0.056834146,0.005497869,0.08767402,0.076185174,0.011918463,0.051635742,-0.0009881556,0.0031215549,0.0007702112,-0.009193391,0.0,0.0,0.0,0.0,0.0,0.27063417,0.27063125,0.5737389,1.0950952,1.0950906,4.058274,0.0025081292,0.0025084119,0.0025082754,0.09043761,0.0,0.0,0.0,0.0,0.0,0.00019308669,0.0037919055,0.010397315,0.0,0.0,0.0,0.0,0.0,0.0
663892000,0.06567046,0.0395106,0.051314235,0.08607715,0.015338428,0.044921875,-0.0009881556,0.0031215549,0.0007702112,-0.004055977,0.0,0.0,0.0,0.0,0.0,0.27051973,0.27051762,0.5737894,1.0952659,1.0952617,4.058214,0.0025081292,0.0025084119,0.0025082754,0.090419926,0.0,0.0,0.0,0.0,0.0,0.00019800189,0.004063833,0.010333104,0.0,0.0,0.0,0.0,0.0,0.0
664092000,0.069236614,0.0324585,0.10154474,0.08422376,0.015024617,0.13693237,-0.0009881556,0.0031215549,0.0007702112,0.008271098,0.0,0.0,0.0,0.0,0.0,0.27036843,0.27036667,0.5737437,1.0954335,1.0954295,4.0581512,0.0025081292,0.0025084119,0.0025082754,0.090403676,0.0,0.0,0.0,0.0,0.0,0.00019135333,0.0036467742,0.008849441,0.0,0.0,0.0,0.0,0.0,0.0
664292000,0.059453085,0.043675795,0.057702005,0.08253939,0.016099721,-0.047821045,-0.0009881556,0.0031215549,0.0007702112,-0.0036698282,0.0,0.0,0.0,0.0,0.0,0.2701861,0.2701845,0.57369787,1.095591,1.0955874,4.0583076,0.0025081292,0.0025084119,0.0025082754,0.09039034,0.0,0.0,0.0,0.0,0.0,0.00021522201,0.00391426,0.0091268,0.0,0.0,0.0,0.0,0.0,0.0
664492000,0.068893135,0.037583493,0.10226315,0.07067779,0.023626149,-0.061065674,-0.0009881556,0.0031215549,0.0007702112,0.012327582,0.0,0.0,0.0,0.0,0.0,0.26997823,0.2699766,0.5737486,1.0957332,1.0957297,4.0582523,0.0025081292,0.0025084119,0.0025082754,0.090376385,0.0,0.0,0.0,0.0,0.0,0.00025679552,0.0037790253,0.009090239,0.0,0.0,0.0,0.0,0.0,0.0
664692000,0.07628695,0.03964044,0.052562445,0.069415316,0.03183058,0.1968689,-0.0009881556,0.0031215549,0.0007702112,0.003269136,0.0,0.0,0.0,0.0,0.0,0.2697515,0.26974976,0.5737048,1.0958563,1.0958532,4.0580893,0.0025081292,0.0025084119,0.0025082754,0.09036483,0.0,0.0,0.0,0.0,0.0,0.000253192,0.0035727778,0.009001953,0.0,0.0,0.0,0.0,0.0,0.0
664892000,0.06706844,0.053172994,0.063877076,0.06724972,0.03220783,0.1413269,-0.0009881556,0.0031215549,0.0007702112,-0.008073866,0.0,0.0,0.0,0.0,0.0,0.26950935,0.2695077,0.57375693,1.0959574,1.0959545,4.0583467,0.0025081292,0.0025084119,0.0025082754,0.09035275,0.0,0.0,0.0,0.0,0.0,0.00019591389,0.004275022,0.010870905,0.0,0.0,0.0,0.0,0.0,0.0
665092000,0.036037356,0.024186466,0.09120944,0.06653032,0.023544058,0.04260254,-0.0009881556,0.0031215549,0.0007702112,0.0003825724,0.0,0.0,0.0,0.0,0.0,0.26925945,0.26925784,0.5737124,1.0960348,1.0960321,4.0581927,0.0025081292,0.0025084119,0.0025082754,0.09034269,0.0,0.0,0.0,0.0,0.0,0.00018529149,0.003909873,0.008992414,0.0,0.0,0.0,0.0,0.0,0.0
665292000,0.037359104,0.028832383,0.09211141,0.058545746,0.027478844,0.048583984,-0.0009881556,0.0031215549,0.0007702112,0.0035474598,0.0,0.0,0.0,0.0,0.0,0.26900223,0.2690006,0.5737657,1.0960878,1.0960853,4.0581384,0.0025081292,0.0025084119,0.0025082754,0.090332106,0.0,0.0,0.0,0.0,0.0,0.0001462512,0.0041903886,0.0092102215,0.0,0.0,0.0,0.0,0.0,0.0
665492000,0.017606556,0.013517531,0.114928365,0.062411807,0.031491295,0.14501953,-0.0009881556,0.0031215549,0.0007702112,0.0086372495,0.0,0.0,0.0,0.0,0.0,0.26874372,0.26874202,0.57372296,1.0961161,1.0961138,4.0580816,0.0025081292,0.0025084119,0.0025082754,0.0903222,0.0,0.0,0.0,0.0,0.0,0.00020277996,0.0051635713,0.011251141,0.0,0.0,0.0,0.0,0.0,0.0
665692000,0.058273464,0.037670135,0.052268058,0.05728377,0.030319437,0.1619873,-0.0009881556,0.0031215549,0.0007702112,0.006963074,0.0,0.0,0.0,0.0,0.0,0.26849654,0.26849476,0.57367986,1.0961211,1.0961189,4.058243,0.0025081292,0.0025084119,0.0025082754,0.09031396,0.0,0.0,0.0,0.0,0.0,0.00015365423,0.004034898,0.009465729,0.0,0.0,0.0,0.0,0.0,0.0
665892000,-0.0041246936,0.01956994,0.054356724,0.05875987,0.026865229,0.1121521,-0.0009881556,0.0031215549,0.0007702112,-0.008979648,0.0,0.0,0.0,0.0,0.0,0.26825213,0.2682503,0.57373273,1.0961032,1.0961012,4.0581927,0.0025081292,0.0025084119,0.0025082754,0.09030522,0.0,0.0,0.0,0.0,0.0,0.0001020412,0.0053170854,0.011193231,0.0,0.0,0.0,0.0,0.0,0.0
666092000,0.02720213,0.020949792,0.028574258,0.05621529,0.026364312,0.07788086,-0.0009881556,0.0031215549,0.0007702112,-0.0033842921,0.0,0.0,0.0,0.0,0.0,0.26801458,0.26801276,0.5736912,1.0960637,1.0960618,4.058035,0.0025081292,0.0025084119,0.0025082754,0.09029788,0.0,0.0,0.0,0.0,0.0,6.785159e-05,0.004799656,0.010111631,0.0,0.0,0.0,0.0,0.0,0.0
666292000,0.011415392,0.018438244,0.10511884,0.04984574,0.025283366,0.09814453,-0.0009881556,0.0031215549,0.0007702112,0.0004849732,0.0,0.0,0.0,0.0,0.0,0.26778585,0.26778412,0.573745,1.0960047,1.0960029,4.058297,0.0025081292,0.0025084119,0.0025082754,0.09029013,0.0,0.0,0.0,0.0,0.0,5.4873573e-05,0.0050295894,0.010721717,0.0,0.0,0.0,0.0,0.0,0.0
666492000,0.022820786,0.00031752698,0.06715825,0.04530681,0.024821088,0.03149414,-0.0009881556,0.0031215549,0.0007702112,-0.0026352704,0.0,0.0,0.0,0.0,0.0,0.267577,0.26757532,0.5737022,1.0959288,1.095927,4.0581474,0.0025081292,0.0025084119,0.0025082754,0.090283595,0.0,0.0,0.0,0.0,0.0,5.6945573e-05,0.0047787935,0.010320251,0.0,0.0,0.0,0.0,0.0,0.0
666692000,0.027410435,0.022328682,0.04569173,0.039389007,0.026838645,0.14880371,-0.0009881556,0.0031215549,0.0007702112,-0.00045257807,0.0,0.0,0.0,0.0,0.0,0.26737764,0.267376,0.5737568,1.0958372,1.0958354,4.0580983,0.0025081292,0.0025084119,0.0025082754,0.09027664,0.0,0.0,0.0,0.0,0.0,0.00010208129,0.004411405,0.009926496,0.0,0.0,0.0,0.0,0.0,0.0
666892000,0.031297605,0.0128960125,0.021555826,0.032425195,0.0264564,0.100097656,-0.0009881556,0.0031215549,0.0007702112,0.016951919,0.0,0.0,0.0,0.0,0.0,0.26719406,0.2671925,0.5737154,1.0957323,1.0957307,4.0580454,0.0025081292,0.0025084119,0.0025082754,0.09027008,0.0,0.0,0.0,0.0,0.0,0.00028375725,0.0039111148,0.008811228,0.0,0.0,0.0,0.0,0.0,0.0
667092000,0.01988055,0.012092471,0.033344835,0.029969607,0.021323666,0.052246094,-0.0009881556,0.0031215549,0.0007702112,0.006465912,0.0,0.0,0.0,0.0,0.0,0.26793098,0.2679296,0.5738249,1.1020057,1.1020037,4.0581894,0.0025081292,0.0025084119,0.0025082754,0.09026458,0.0,0.0,0.0,0.0,0.0,0.00031291085,0.003445843,0.0077074557,0.0,0.0,0.0,0.0,0.0,0.0
667292000,0.0154075865,-0.031287454,0.08576587,0.03438295,0.014429972,0.19030762,-0.0009881556,0.0031215549,0.0007702112,-0.012952775,0.0,0.0,0.0,0.0,0.0,0.26761326,0.26761213,0.5737701,1.1011328,1.1011308,4.058122,0.0025081292,0.0025084119,0.0025082754,0.09025867,0.0,0.0,0.0,0.0,0.0,8.244161e-05,0.004163418,0.008392091,0.0,0.0,0.0,0.0,0.0,0.0
667492000,0.0034360532,-0.0023465012,0.04536517,0.026736364,0.012677327,0.08956909,-0.0004877001,0.0014527068,0.004295081,0.008526713,0.0,0.0,0.0,0.0,0.0,0.26734498,0.2673486,0.5738124,1.100307,1.1003125,4.0579467,0.0025161095,0.0025228914,0.0025286328,0.09025617,0.0,0.0,0.0,0.0,0.0,0.0002586893,0.005606267,0.009609466,0.0,0.0,0.0,0.0,0.0,0.0
667692000,-0.07201397,-0.107056275,0.022644818,0.024422918,0.001850754,0.084472656,-0.0005534515,0.0017591789,0.0055262446,0.008526713,0.0,0.0,0.0,0.0,0.0,0.26704746,0.26706252,0.57375443,1.0994687,1.0995007,4.0581894,0.0025156855,0.0025213272,0.0025254698,0.09025617,0.0,0.0,0.0,0.0,0.0,0.0005580538,0.014765364,0.022692787,0.0,0.0,0.0,0.0,0.0,0.0
667892000,-0.1278621,-0.17555454,0.040814877,0.010017591,-0.010970652,-0.029663086,0.0006073415,0.00068703294,0.006268829,0.008526713,0.0,0.0,0.0,0.0,0.0,0.26680657,0.26679167,0.5737658,1.0986958,1.0987515,4.0580163,0.0025151647,0.0025200967,0.0025233421,0.09025617,0.0,0.0,0.0,0.0,0.0,0.0008785569,0.020878626,0.036864217,0.0,0.0,0.0,0.0,0.0,0.0
668092000,-0.1572259,-0.21528155,0.029980421,-0.0008646846,-0.026827961,-0.04232788,-0.0046308115,0.0025176704,0.0035859942,0.008526713,0.0,0.0,0.0,0.0,0.0,0.26669726,0.26659155,0.5736593,1.0980023,1.0980676,4.0579295,0.0025143607,0.002518959,0.002521506,0.09025617,0.0,0.0,0.0,0.0,0.0,0.00093601644,0.024947723,0.049002744,0.0,0.0,0.0,0.0,0.0,0.0
668292000,-0.101786315,-0.15090096,0.009016156,-0.00997442,-0.023107767,0.03363037,-0.0009673834,0.0012655854,0.0007776022,0.008526713,0.0,0.0,0.0,0.0,0.0,0.26667538,0.26644835,0.57364917,1.0973647,1.0974289,4.0578265,0.0025138254,0.0025178338,0.0025199337,0.09025617,0.0,0.0,0.0,0.0,0.0,0.0007586933,0.021611484,0.045607466,0.0,0.0,0.0,0.0,0.0,0.0
668492000,-0.09786141,-0.12016761,-0.0132052675,-0.008546054,-0.027243257,0.07418823,-0.005034074,-0.00027243793,0.0039637685,0.008526713,0.0,0.0,0.0,0.0,0.0,0.266705,0.26635438,0.5735441,1.0967983,1.096846,4.0579305,0.0025136564,0.0025167936,0.002518688,0.09025617,0.0,0.0,0.0,0.0,0.0,0.0006361994,0.01793128,0.03922695,0.0,0.0,0.0,0.0,0.0,0.0
668692000,-0.08211982,-0.15660381,0.025404252,0.003781855,-0.029439926,0.18817139,-0.0022997707,-0.0021817684,0.0010516942,0.008526713,0.0,0.0,0.0,0.0,0.0,0.266738,0.26628637,0.5734392,1.0962796,1.0962999,4.0578103,0.0025136392,0.0025156522,0.0025174757,0.09025617,0.0,0.0,0.0,0.0,0.0,0.00055480096,0.016257593,0.03512771,0.0,0.0,0.0,0.0,0.0,0.0
668892000,-0.06454003,-0.14047456,0.062166117,0.0044356585,-0.028305173,0.12954712,-0.001949817,-0.0020094216,0.00062945485,0.008526713,0.0,0.0,0.0,0.0,0.0,0.26678896,0.2662637,0.5734308,1.0958134,1.0957955,4.057584,0.0025137244,0.0025146853,0.0025165319,0.09025617,0.0,0.0,0.0,0.0,0.0,0.0005143641,0.013948511,0.029714985,0.0,0.0,0.0,0.0,0.0,0.0
669092000,-0.08020067,-0.1721921,0.0043413863,-0.001466155,-0.04141283,0.086517334,-0.0010101944,-0.0005629584,0.0015520155,0.008526713,0.0,0.0,0.0,0.0,0.0,0.26685748,0.26629102,0.5733369,1.0954015,1.0953369,4.0577497,0.0025139812,0.0025137125,0.0025155612,0.09025617,0.0,0.0,0.0,0.0,0.0,0.00052025344,0.01389728,0.02925685,0.0,0.0,0.0,0.0,0.0,0.0
669292000,-0.04466796,-0.16495991,0.021291621,0.014764786,-0.024949074,0.09375,-0.0003027618,-0.0017712042,0.0047127903,0.008526713,0.0,0.0,0.0,0.0,0.0,0.26689416,0.26635268,0.57334405,1.0950216,1.0949086,4.0575204,0.0025141572,0.002512947,0.0025147777,0.09025617,0.0,0.0,0.0,0.0,0.0,0.00048629852,0.011903055,0.024524763,0.0,0.0,0.0,0.0,0.0,0.0
669492000,-0.03641033,-0.15974212,0.022697318,0.018567324,-0.014903307,0.075042725,0.00019073486,-0.003731249,0.0038372874,0.008526713,0.0,0.0,0.0,0.0,0.0,0.2669037,0.2664597,0.57327175,1.0946817,1.094524,4.0573754,0.0025142871,0.0025121649,0.0025140434,0.09025617,0.0,0.0,0.0,0.0,0.0,0.00047387835,0.010492934,0.02084888,0.0,0.0,0.0,0.0,0.0,0.0
669692000,-0.03117919,-0.17251348,0.0018150155,0.020300627,-0.022209167,0.041748047,0.0006735623,-0.0025955662,0.0034727156,0.008526713,0.0,0.0,0.0,0.0,0.0,0.26688623,0.26659116,0.5733019,1.0943607,1.0941721,4.0572314,0.0025143097,0.0025114992,0.0025134052,0.09025617,0.0,0.0,0.0,0.0,0.0,0.00047380128,0.009794959,0.019520875,0.0,0.0,0.0,0.0,0.0,0.0
669892000,-0.036073923,-0.16650867,0.03684248,0.02017665,-0.020182133,0.07116699,-0.002172649,-0.0010241941,0.0009659231,0.008526713,0.0,0.0,0.0,0.0,0.0,0.26691073,0.2668279,0.5732545,1.0940715,1.0938723,4.0573134,0.0025141807,0.002511194,0.002512855,0.09025617,0.0,0.0,0.0,0.0,0.0,0.00048319338,0.009202996,0.016909081,0.0,0.0,0.0,0.0,0.0,0.0
670092000,-0.075315,-0.23460746,0.049629197,0.038766146,-0.012176514,-0.11895752,-0.003733918,-0.001333788,0.0042630136,0.008526713,0.0,0.0,0.0,0.0,0.0,0.26700467,0.26712745,0.57321566,1.093799,1.0936147,4.057193,0.0025138943,0.0025111104,0.0025122743,0.09025617,0.0,0.0,0.0,0.0,0.0,0.0006488345,0.012414653,0.020280074,0.0,0.0,0.0,0.0,0.0,0.0
670292000,-0.09266329,-0.2850542,0.0744039,0.03796625,-0.02336979,0.143219,0.0014380813,-0.00096897036,1.5586615e-05,0.008526713,0.0,0.0,0.0,0.0,0.0,0.26719457,0.26746413,0.5732644,1.0935545,1.0934033,4.0569854,0.0025135817,0.0025110482,0.002511827,0.09025617,0.0,0.0,0.0,0.0,0.0,0.0008221457,0.017300317,0.027642766,0.0,0.0,0.0,0.0,0.0,0.0
670492000,-0.13871431,-0.3056004,0.11531193,0.03494358,-0.03484726,0.09338379,-0.0015390292,-0.0015377402,0.0017682314,0.008526713,0.0,0.0,0.0,0.0,0.0,0.2674692,0.26786992,0.5732266,1.0933536,1.0932496,4.057178,0.0025131756,0.0025110997,0.0025113528,0.09025617,0.0,0.0,0.0,0.0,0.0,0.0010278655,0.020178255,0.03328318,0.0,0.0,0.0,0.0,0.0,0.0
670692000,-0.17432427,-0.31050014,0.11543262,0.012372494,-0.059797764,0.09515381,-0.0003090799,-0.0010100901,0.0042944252,0.008526713,0.0,0.0,0.0,0.0,0.0,0.26776838,0.26830608,0.5732794,1.0931828,1.0931436,4.056991,0.0025127681,0.0025111584,0.0025109649,0.09025617,0.0,0.0,0.0,0.0,0.0,0.0011603619,0.023387894,0.03922036,0.0,0.0,0.0,0.0,0.0,0.0
670892000,-0.18156385,-0.33708644,0.09044162,0.005578041,-0.067221165,0.019561768,0.0036230907,0.0010017306,0.0038503706,0.008526713,0.0,0.0,0.0,0.0,0.0,0.26809537,0.2687417,0.5732411,1.0930601,1.0930972,4.056899,0.0025122992,0.002511111,0.0025105649,0.09025617,0.0,0.0,0.0,0.0,0.0,0.0012490187,0.026304295,0.04441219,0.0,0.0,0.0,0.0,0.0,0.0
671092000,-0.2247994,-0.36032605,0.07046156,0.008986473,-0.0680418,0.15060425,0.0014288276,0.00011333823,-0.0013686419,0.008526713,0.0,0.0,0.0,0.0,0.0,0.2684245,0.26915985,0.5732948,1.092974,1.0930978,4.05681,0.002511818,0.0025108887,0.002510183,0.09025617,0.0,0.0,0.0,0.0,0.0,0.0013288788,0.029072598,0.049326424,0.0,0.0,0.0,0.0,0.0,0.0
671292000,-0.27558923,-0.35441852,0.16175815,-0.008031368,-0.078492165,0.099090576,-0.002297759,0.00012585521,-0.00017207861,0.008526713,0.0,0.0,0.0,0.0,0.0,0.26876187,0.269571,0.5732695,1.0929409,1.0931553,4.0569377,0.0025114138,0.002510592,0.0025098678,0.09025617,0.0,0.0,0.0,0.0,0.0,0.0014497578,0.031418737,0.05361824,0.0,0.0,0.0,0.0,0.0,0.0
671492000,-0.27956843,-0.3548994,0.13332486,-0.031622887,-0.09788513,0.056610107,-0.00054720044,0.0016049147,0.0027441084,0.008526713,0.0,0.0,0.0,0.0,0.0,0.2690714,0.2699368,0.57325333,1.0929456,1.0932561,4.0568676,0.002511008,0.002510224,0.0025095404,0.09025617,0.0,0.0,0.0,0.0,0.0,0.0015212554,0.032708593,0.057198778,0.0,0.0,0.0,0.0,0.0,0.0
671692000,-0.3154812,-0.35231137,0.1191607,-0.044967175,-0.09526062,0.2973938,-0.0034554452,0.00012394786,0.0042094886,0.008526713,0.0,0.0,0.0,0.0,0.0,0.2693536,0.27025533,0.5733327,1.0929935,1.0934,4.056705,0.0025106708,0.0025098994,0.0025092706,0.09025617,0.0,0.0,0.0,0.0,0.0,0.0015669708,0.033341605,0.05898119,0.0,0.0,0.0,0.0,0.0,0.0
671892000,-0.3154812,-0.35231137,0.1191607,-0.044967175,-0.09526062,0.19906616,-0.0034499094,0.000111460686,0.0017217696,0.008526713,0.0,0.0,0.0,0.0,0.0,0.2693536,0.27025533,0.5733327,1.0929935,1.0934,4.057588,0.002510379,0.0025096277,0.0025089881,0.09025617,0.0,0.0,0.0,0.0,0.0,0.00086923066,0.007390927,0.017086979,0.0,0.0,0.0,0.0,0.0,0.0
672092000,-0.34306502,-0.4058745,0.15387793,-0.29731464,-0.42051315,0.14175415,-0.0008550957,0.0009949952,0.0012349188,0.008526713,0.0,0.0,0.0,0.0,0.0,0.27076313,0.27177036,0.57345587,1.098786,1.099458,4.057431,0.0025100934,0.0025093548,0.0025087476,0.09025617,0.0,0.0,0.0,0.0,0.0,0.0014626386,0.018653393,0.044282313,0.0,0.0,0.0,0.0,0.0,0.0
672292000,-0.357867,-0.3459518,0.1669664,-0.30453968,-0.404006,0.23574829,0.0012779906,-0.0014745891,0.0022500455,0.008526713,0.0,0.0,0.0,0.0,0.0,0.27076024,0.2717532,0.5735399,1.0983173,1.0990559,4.0573797,0.002509806,0.0025090883,0.0025084943,0.09025617,0.0,0.0,0.0,0.0,0.0,0.0015596268,0.0230323,0.05548019,0.0,0.0,0.0,0.0,0.0,0.0
672492000,-0.3464234,-0.33568072,0.16818404,-0.2862749,-0.3809023,0.14053345,0.0015171617,-0.0035020113,0.0005301833,0.008526713,0.0,0.0,0.0,0.0,0.0,0.27074906,0.27171022,0.5735369,1.0979294,1.0987245,4.057336,0.0025095595,0.002508851,0.0025082554,0.09025617,0.0,0.0,0.0,0.0,0.0,0.00150732,0.022752963,0.05574879,0.0,0.0,0.0,0.0,0.0,0.0
672692000,-0.33968496,-0.34818506,0.14818397,-0.25974178,-0.3475418,0.15270996,-0.0025371537,0.00054496527,-2.1785498e-05,0.008526713,0.0,0.0,0.0,0.0,0.0,0.27069822,0.27162012,0.5735343,1.0975991,1.098446,4.0575128,0.0025093588,0.0025086647,0.0025080538,0.09025617,0.0,0.0,0.0,0.0,0.0,0.0014454846,0.019630589,0.049656946,0.0,0.0,0.0,0.0,0.0,0.0
672892000,-0.3512199,-0.35038042,0.22503296,-0.25101185,-0.32722855,0.2211914,-0.0024113655,0.00014291704,0.0023230612,0.008526713,0.0,0.0,0.0,0.0,0.0,0.2706201,0.2714833,0.5736253,1.0973281,1.0982141,4.057494,0.0025091437,0.0025084747,0.0025078421,0.09025617,0.0,0.0,0.0,0.0,0.0,0.0013884268,0.017695934,0.04493952,0.0,0.0,0.0,0.0,0.0,0.0
673092000,-0.3309517,-0.30346465,0.19391775,-0.24563408,-0.30464935,0.2268982,-0.0025537312,0.0011826009,0.0031086504,0.008526713,0.0,0.0,0.0,0.0,0.0,0.27051958,0.2713235,0.5736242,1.0970978,1.0980166,4.057373,0.0025089676,0.002508314,0.002507666,0.09025617,0.0,0.0,0.0,0.0,0.0,0.0012278067,0.013189404,0.03495729,0.0,0.0,0.0,0.0,0.0,0.0
673292000,-0.34549165,-0.30592465,0.15711772,-0.257864,-0.3000145,0.13357544,-0.003154017,0.0019981414,0.0043333173,0.008526713,0.0,0.0,0.0,0.0,0.0,0.27039763,0.27114424,0.5737115,1.0969046,1.0978475,4.0576763,0.0025087972,0.0025081597,0.0025074785,0.09025617,0.0,0.0,0.0,0.0,0.0,0.0011952724,0.010813104,0.028753832,0.0,0.0,0.0,0.0,0.0,0.0
673492000,-0.33777928,-0.31056666,0.14504759,-0.24805355,-0.2758131,0.20065308,-0.0028441772,0.004120216,0.003011465,0.008526713,0.0,0.0,0.0,0.0,0.0,0.2702582,0.27094585,0.5737023,1.0967453,1.0977015,4.057573,0.0025086473,0.0025080307,0.002507317,0.09025617,0.0,0.0,0.0,0.0,0.0,0.0011165756,0.007776217,0.020879695,0.0,0.0,0.0,0.0,0.0,0.0
673692000,-0.3025384,-0.27950454,0.08766397,-0.22092247,-0.24810123,0.19989014,-0.0021698102,0.0011553913,0.00219661,0.008526713,0.0,0.0,0.0,0.0,0.0,0.27010632,0.27073562,0.57378405,1.0966057,1.09757,4.057577,0.0025084964,0.0025079001,0.0025071464,0.09025617,0.0,0.0,0.0,0.0,0.0,0.0010550992,0.0065579633,0.015665501,0.0,0.0,0.0,0.0,0.0,0.0
673892000,-0.29568028,-0.2552681,0.14239416,-0.21335888,-0.22877693,0.17980957,0.00044298172,-0.00052274764,0.00090929866,0.008526713,0.0,0.0,0.0,0.0,0.0,0.26995194,0.27052423,0.57376754,1.0964879,1.0974513,4.057581,0.0025083597,0.0025077802,0.0025069863,0.09025617,0.0,0.0,0.0,0.0,0.0,0.00097227376,0.008630653,0.018847458,0.0,0.0,0.0,0.0,0.0,0.0
674092000,-0.30685425,-0.25851107,0.12225382,-0.22110558,-0.22994614,0.1559143,-0.001358211,-0.0016028434,-0.0014721751,0.008526713,0.0,0.0,0.0,0.0,0.0,0.26978913,0.27030873,0.5737453,1.0963805,1.097339,4.0577946,0.0025082517,0.0025076864,0.0025068517,0.09025617,0.0,0.0,0.0,0.0,0.0,0.0009570294,0.009540695,0.020219661,0.0,0.0,0.0,0.0,0.0,0.0
674292000,-0.28327847,-0.26118088,0.18992749,-0.20616913,-0.20140076,0.2116394,-0.0027546436,0.002655238,0.002686739,0.008526713,0.0,0.0,0.0,0.0,0.0,0.2696133,0.27008104,0.5738126,1.0962857,1.0972317,4.057805,0.0025081208,0.0025075919,0.0025066976,0.09025617,0.0,0.0,0.0,0.0,0.0,0.00088266196,0.0115234,0.024356622,0.0,0.0,0.0,0.0,0.0,0.0
674492000,-0.25511694,-0.20199513,0.14312099,-0.19545937,-0.18014145,0.23825073,-0.0030403621,0.0011333674,-0.0018935204,0.008526713,0.0,0.0,0.0,0.0,0.0,0.2694416,0.26986688,0.5737789,1.0961924,1.0971242,4.0576982,0.0025080126,0.0025075078,0.002506583,0.09025617,0.0,0.0,0.0,0.0,0.0,0.00070653687,0.015021824,0.029409863,0.0,0.0,0.0,0.0,0.0,0.0
674692000,-0.23636603,-0.19824982,0.14469807,-0.19093132,-0.18225288,0.20883179,-0.0037773289,0.0025651902,0.0026592314,0.008526713,0.0,0.0,0.0,0.0,0.0,0.26932555,0.26971987,0.5738284,1.0961066,1.0970238,4.058013,0.0025079246,0.0025074212,0.0025064696,0.09025617,0.0,0.0,0.0,0.0,0.0,0.0005859287,0.016721722,0.032953534,0.0,0.0,0.0,0.0,0.0,0.0
674892000,-0.22276449,-0.2159431,0.09581031,-0.19101429,-0.17045593,0.17980957,-0.0014488772,0.00055001676,-0.00070533156,0.008526713,0.0,0.0,0.0,0.0,0.0,0.26922357,0.26959348,0.5737753,1.0960287,1.0969316,4.0579047,0.0025078456,0.0025073441,0.0025063672,0.09025617,0.0,0.0,0.0,0.0,0.0,0.0005666766,0.0169647,0.033766508,0.0,0.0,0.0,0.0,0.0,0.0
675092000,-0.26134562,-0.22819829,0.14671,-0.18115616,-0.14508057,0.061676025,-0.0022310615,-0.0016347468,-0.0013229251,0.008526713,0.0,0.0,0.0,0.0,0.0,0.2691071,0.26945934,0.57381815,1.0959507,1.0968415,4.0578966,0.0025077718,0.0025072794,0.002506253,0.09025617,0.0,0.0,0.0,0.0,0.0,0.0005863025,0.016256075,0.033379465,0.0,0.0,0.0,0.0,0.0,0.0
675292000,-0.21209359,-0.23729873,0.13512728,-0.16768265,-0.14012718,0.16448975,-0.0030093417,0.0013845116,-0.0018289089,0.008526713,0.0,0.0,0.0,0.0,0.0,0.26900947,0.26933601,0.57376343,1.0958781,1.0967547,4.0578794,0.0025077008,0.002507232,0.0025061243,0.09025617,0.0,0.0,0.0,0.0,0.0,0.0006580616,0.016287183,0.034636617,0.0,0.0,0.0,0.0,0.0,0.0
675492000,-0.21360946,-0.22269154,0.1280854,-0.16423225,-0.13134575,0.11087036,-0.0020216927,0.003585562,2.488494e-05,0.008526713,0.0,0.0,0.0,0.0,0.0,0.26889887,0.2691833,0.57370794,1.0958049,1.0966657,4.0580697,0.0025076512,0.002507178,0.0025060487,0.09025617,0.0,0.0,0.0,0.0,0.0,0.0005418928,0.01695748,0.03521172,0.0,0.0,0.0,0.0,0.0,0.0
675692000,-0.22081816,-0.24372578,0.10248029,-0.16944885,-0.13099289,0.07879639,-0.0028419849,0.0042364,-0.0019562244,0.008526713,0.0,0.0,0.0,0.0,0.0,0.26879308,0.2690325,0.5737463,1.0957351,1.0965743,4.0580487,0.0025076019,0.0025071115,0.0025059797,0.09025617,0.0,0.0,0.0,0.0,0.0,0.000517479,0.016656516,0.03396207,0.0,0.0,0.0,0.0,0.0,0.0
675892000,-0.19888866,-0.19664931,0.09689365,-0.1674385,-0.12743759,0.3366089,-0.0044661113,0.0018404424,0.003186345,0.008526713,0.0,0.0,0.0,0.0,0.0,0.26868978,0.26891357,0.5736867,1.0956634,1.096482,4.05791,0.002507548,0.0025070775,0.0025058757,0.09025617,0.0,0.0,0.0,0.0,0.0,0.0004486374,0.017614383,0.035982374,0.0,0.0,0.0,0.0,0.0,0.0
676092000,-0.2155956,-0.20866585,0.102618925,-0.15834045,-0.10742378,0.14151001,-0.0018556259,0.0012285709,-0.0002542436,0.008526713,0.0,0.0,0.0,0.0,0.0,0.2685849,0.2687931,0.5737214,1.0955926,1.0963905,4.0581884,0.0025075078,0.0025070424,0.002505785,0.09025617,0.0,0.0,0.0,0.0,0.0,0.00044732672,0.017442156,0.035979632,0.0,0.0,0.0,0.0,0.0,0.0
676300000,-0.21684146,-0.20645857,0.11559986,-0.15497208,-0.104599,0.263031,-0.0042772028,0.00034970045,-0.0038298666,0.008526713,0.0,0.0,0.0,0.0,0.0,0.26847786,0.2686542,0.5736597,1.0955228,1.0962949,4.0581527,0.0025074752,0.0025069898,0.0025057301,0.09025617,0.0,0.0,0.0,0.0,0.0,0.0004460705,0.01812582,0.037025094,0.0,0.0,0.0,0.0,0.0,0.0
676500000,-0.20593977,-0.2037282,0.09672564,-0.15826416,-0.11973953,0.0765686,-0.0028776703,0.0026095062,0.00052827597,0.008526713,0.0,0.0,0.0,0.0,0.0,0.26837885,0.26854658,0.5736929,1.0954512,1.0961988,4.0580034,0.0025074305,0.0025069641,0.0025056386,0.09025617,0.0,0.0,0.0,0.0,0.0,0.00043373555,0.017488303,0.03601218,0.0,0.0,0.0,0.0,0.0,0.0
676692000,-0.19333816,-0.20378602,0.06606034,-0.14445496,-0.10565376,0.09555054,0.00062753353,0.00035472214,-0.0016367137,0.008455515,0.0,0.0,0.0,0.0,0.0,0.2682791,0.26843515,0.57363015,1.0953813,1.0961027,4.057951,0.0025074002,0.002506944,0.002505584,0.09016388,0.0,0.0,0.0,0.0,0.0,0.00044316595,0.016857212,0.034983333,0.0,0.0,0.0,0.0,0.0,0.0
676892000,-0.18319046,-0.22286677,0.07838918,-0.13992119,-0.096977234,0.20343018,0.00062753353,0.00035472214,-0.0016367137,-0.00097584724,0.0,0.0,0.0,0.0,0.0,0.26818305,0.26831743,0.5735672,1.0953143,1.095999,4.0581098,0.0025074002,0.002506944,0.002505584,0.09016207,0.0,0.0,0.0,0.0,0.0,0.00047585284,0.015853263,0.03330827,0.0,0.0,0.0,0.0,0.0,0.0
677100000,-0.17610276,-0.19985211,0.08852988,-0.15613556,-0.09815025,0.17019653,0.00062753353,0.00035472214,-0.0016367137,-0.0045189857,0.0,0.0,0.0,0.0,0.0,0.268113,0.2682205,0.57359856,1.0952578,1.0958922,4.0580544,0.0025074002,0.002506944,0.002505584,0.09016023,0.0,0.0,0.0,0.0,0.0,0.00046403904,0.01632959,0.03415136,0.0,0.0,0.0,0.0,0.0,0.0
677292000,-0.1541884,-0.17122388,0.06347546,-0.30376816,-0.29008675,0.18585205,0.00062753353,0.00035472214,-0.0016367137,-0.004658222,0.0,0.0,0.0,0.0,0.0,0.26905987,0.26914215,0.5736732,1.1015958,1.1022427,4.0578685,0.0025074002,0.002506944,0.002505584,0.09015847,0.0,0.0,0.0,0.0,0.0,0.0005455846,0.006249504,0.0069488506,0.0,0.0,0.0,0.0,0.0,0.0
677492000,-0.1414305,-0.1632241,0.03899399,-0.2732563,-0.2585888,0.16421509,0.00062753353,0.00035472214,-0.0016367137,0.0081682205,0.0,0.0,0.0,0.0,0.0,0.26881716,0.26887536,0.5735998,1.1008102,1.1013883,4.058094,0.0025074002,0.002506944,0.002505584,0.09015683,0.0,0.0,0.0,0.0,0.0,0.0006409346,0.003155565,0.004553015,0.0,0.0,0.0,0.0,0.0,0.0
677692000,-0.118710995,-0.119134784,0.034563158,-0.2545185,-0.23674583,0.14974976,0.00062753353,0.00035472214,-0.0016367137,0.008838654,0.0,0.0,0.0,0.0,0.0,0.26860982,0.26865026,0.57362336,1.1001011,1.1006167,4.05791,0.0025074002,0.002506944,0.002505584,0.09015536,0.0,0.0,0.0,0.0,0.0,0.00060822273,0.0049308883,0.0062506776,0.0,0.0,0.0,0.0,0.0,0.0
677892000,-0.13784564,-0.113602996,0.037756998,-0.23836899,-0.21439362,0.12698364,0.00062753353,0.00035472214,-0.0016367137,0.008453369,0.0,0.0,0.0,0.0,0.0,0.26842827,0.2684507,0.5735524,1.0994619,1.0999207,4.057821,0.0025074002,0.002506944,0.002505584,0.0901539,0.0,0.0,0.0,0.0,0.0,0.0005524567,0.00586732,0.008087626,0.0,0.0,0.0,0.0,0.0,0.0
678092000,-0.12766683,-0.15551889,0.06228114,-0.23170853,-0.21077347,0.14932251,0.00062753353,0.00035472214,-0.0016367137,0.007024288,0.0,0.0,0.0,0.0,0.0,0.2682758,0.2682858,0.57357967,1.0988852,1.0992916,4.0577264,0.0025074002,0.002506944,0.002505584,0.09015255,0.0,0.0,0.0,0.0,0.0,0.000564931,0.004309059,0.005253375,0.0,0.0,0.0,0.0,0.0,0.0
678292000,-0.13081074,-0.15110075,0.030762512,-0.21545029,-0.18938637,0.07998657,0.00062753353,0.00035472214,-0.0016367137,0.00013923645,0.0,0.0,0.0,0.0,0.0,0.26814303,0.2681453,0.5735149,1.0983663,1.0987257,4.057848,0.0025074002,0.002506944,0.002505584,0.09015146,0.0,0.0,0.0,0.0,0.0,0.00058184937,0.0051711514,0.008671612,0.0,0.0,0.0,0.0,0.0,0.0
678492000,-0.109571695,-0.13923585,0.030498784,-0.18991852,-0.1720829,-0.0037841797,0.00062753353,0.00035472214,-0.0016367137,0.009999037,0.0,0.0,0.0,0.0,0.0,0.26803732,0.26802707,0.5734523,1.0978999,1.0982149,4.057758,0.0025074002,0.002506944,0.002505584,0.090150304,0.0,0.0,0.0,0.0,0.0,0.000549142,0.007519102,0.014976944,0.0,0.0,0.0,0.0,0.0,0.0
678692000,-0.11759311,-0.15682113,-0.005156353,-0.18106079,-0.16689682,0.018218994,0.00062753353,0.00035472214,-0.0016367137,0.016926289,0.0,0.0,0.0,0.0,0.0,0.26795045,0.26793522,0.57348543,1.0974818,1.0977565,4.0575657,0.0025074002,0.002506944,0.002505584,0.09014932,0.0,0.0,0.0,0.0,0.0,0.0005494115,0.007363477,0.015123002,0.0,0.0,0.0,0.0,0.0,0.0
678892000,-0.11743319,-0.10205877,-0.0010205358,-0.17287064,-0.15534973,0.072784424,0.00062753353,0.00035472214,-0.0016367137,-0.0025634766,0.0,0.0,0.0,0.0,0.0,0.26788157,0.26786137,0.5734293,1.0971088,1.0973474,4.057781,0.0025074002,0.002506944,0.002505584,0.09014841,0.0,0.0,0.0,0.0,0.0,0.00051426905,0.00931617,0.02031564,0.0,0.0,0.0,0.0,0.0,0.0
679092000,-0.11569065,-0.13118207,-0.035102293,-0.15541267,-0.14611244,0.06399536,0.00062753353,0.00035472214,-0.0016367137,0.00014829636,0.0,0.0,0.0,0.0,0.0,0.2678251,0.26780218,0.57346874,1.0967767,1.096982,4.057598,0.0025074002,0.002506944,0.002505584,0.09014757,0.0,0.0,0.0,0.0,0.0,0.00050364865,0.008939101,0.019868324,0.0,0.0,0.0,0.0,0.0,0.0
679292000,-0.102523506,-0.12403953,0.025030352,-0.1414051,-0.13773155,0.10479736,0.00062753353,0.00035472214,-0.0016367137,-0.003684044,0.0,0.0,0.0,0.0,0.0,0.2677831,0.26775753,0.5734169,1.0964829,1.0966583,4.057511,0.0025074002,0.002506944,0.002505584,0.09014675,0.0,0.0,0.0,0.0,0.0,0.00049470726,0.009076971,0.020918673,0.0,0.0,0.0,0.0,0.0,0.0
679500000,-0.08176947,-0.14886057,0.01761287,-0.14313698,-0.13479424,0.028320312,0.00062753353,0.00035472214,-0.0016367137,-0.0038793087,0.0,0.0,0.0,0.0,0.0,0.26774722,0.2677235,0.57346094,1.096223,1.0963717,4.057422,0.0025074002,0.002506944,0.002505584,0.090146005,0.0,0.0,0.0,0.0,0.0,0.0004883605,0.008993757,0.020211602,0.0,0.0,0.0,0.0,0.0,0.0
679692000,-0.09562653,-0.12241948,-0.029609162,-0.1263485,-0.12576866,0.00033569336,0.00062753353,0.00035472214,-0.0016367137,0.002919197,0.0,0.0,0.0,0.0,0.0,0.26772022,0.26769757,0.5734151,1.0959954,1.0961206,4.057551,0.0025074002,0.002506944,0.002505584,0.09014543,0.0,0.0,0.0,0.0,0.0,0.0004913074,0.009183908,0.021525964,0.0,0.0,0.0,0.0,0.0,0.0
679892000,-0.096324146,-0.10738593,0.0073884763,-0.12312698,-0.11702919,0.053619385,0.00062753353,0.00035472214,-0.0016367137,0.007855415,0.0,0.0,0.0,0.0,0.0,0.26769724,0.2676738,0.5733715,1.0957961,1.0958997,4.057473,0.0025074002,0.002506944,0.002505584,0.09014479,0.0,0.0,0.0,0.0,0.0,0.00046614677,0.009014545,0.021337979,0.0,0.0,0.0,0.0,0.0,0.0
680092000,-0.09420872,-0.10769832,-0.037197918,-0.11187172,-0.11532211,-0.106292725,0.00062753353,0.00035472214,-0.0016367137,-0.008071661,0.0,0.0,0.0,0.0,0.0,0.26768017,0.2676583,0.5734218,1.0956228,1.0957073,4.0572963,0.0025074002,0.002506944,0.002505584,0.09014424,0.0,0.0,0.0,0.0,0.0,0.00045614975,0.009857918,0.024087373,0.0,0.0,0.0,0.0,0.0,0.0
680292000,-0.09689534,-0.120382845,0.0004298836,-0.10397911,-0.11135292,-0.05328369,0.00062753353,0.00035472214,-0.0016367137,-0.0037755966,0.0,0.0,0.0,0.0,0.0,0.26766598,0.2676477,0.57338357,1.0954733,1.0955418,4.0575275,0.0025074002,0.002506944,0.002505584,0.090143785,0.0,0.0,0.0,0.0,0.0,0.0004670879,0.009282613,0.023866355,0.0,0.0,0.0,0.0,0.0,0.0
680500000,-0.10465664,-0.10130191,-0.03290898,-0.09872627,-0.11189842,0.062316895,0.00062753353,0.00035472214,-0.0016367137,0.004360676,0.0,0.0,0.0,0.0,0.0,0.26765597,0.26763964,0.5734392,1.0953451,1.0953996,4.057462,0.0025074002,0.002506944,0.002505584,0.09014331,0.0,0.0,0.0,0.0,0.0,0.00046046043,0.009477532,0.02436268,0.0,0.0,0.0,0.0,0.0,0.0
680692000,-0.052543223,-0.10723591,-0.052198768,-0.09567261,-0.10539055,0.12490845,0.00062753353,0.00035472214,-0.0016367137,0.005182028,0.0,0.0,0.0,0.0,0.0,0.26765117,0.26763713,0.57340354,1.0952369,1.0952795,4.0572977,0.0025074002,0.002506944,0.002505584,0.09014289,0.0,0.0,0.0,0.0,0.0,0.00042647243,0.010100226,0.024640046,0.0,0.0,0.0,0.0,0.0,0.0
680892000,-0.056251526,-0.1028415,-0.039308745,-0.09096146,-0.1048584,0.020019531,0.00062753353,0.00035472214,-0.0016367137,0.008347034,0.0,0.0,0.0,0.0,0.0,0.26764706,0.26763466,0.57346225,1.0951457,1.0951779,4.0572324,0.0025074002,0.002506944,0.002505584,0.090142466,0.0,0.0,0.0,0.0,0.0,0.00039628253,0.010128618,0.024194071,0.0,0.0,0.0,0.0,0.0,0.0
681092000,-0.0517765,-0.11286217,-0.0607327,-0.07900429,-0.10487938,-0.11929321,-0.0010192692,0.0034696758,-0.002685219,0.018021822,0.0,0.0,0.0,0.0,0.0,0.26758927,0.2676047,0.5734302,1.0950131,1.0950698,4.057382,0.0025145388,0.0025126706,0.0025166394,0.09014242,0.0,0.0,0.0,0.0,0.0,0.00039802602,0.012601526,0.027821591,0.0,0.0,0.0,0.0,0.0,0.0
681292000,-0.036607414,-0.104691684,-0.010283805,-0.08038902,-0.09882164,-0.122802734,-0.0041053444,0.00097346306,-0.0027071834,0.018021822,0.0,0.0,0.0,0.0,0.0,0.26747826,0.26757735,0.57339025,1.0948261,1.0949516,4.0573277,0.0025142215,0.0025112561,0.0025163211,0.09014242,0.0,0.0,0.0,0.0,0.0,0.00033682524,0.014791566,0.02945934,0.0,0.0,0.0,0.0,0.0,0.0
681492000,-0.015105173,-0.085136175,-0.0475614,-0.075862885,-0.09705734,-0.101501465,-0.00014015287,0.004976332,-0.00045531988,0.018021822,0.0,0.0,0.0,0.0,0.0,0.26737,0.26761547,0.57342184,1.0946538,1.0948614,4.057167,0.0025141735,0.0025101975,0.0025157712,0.09014242,0.0,0.0,0.0,0.0,0.0,0.0003568896,0.015972862,0.031890713,0.0,0.0,0.0,0.0,0.0,0.0
681692000,-0.0131287575,-0.12423009,-0.09255603,-0.064468384,-0.09710884,-0.05380249,0.000757616,0.006515652,-0.0033949614,0.018021822,0.0,0.0,0.0,0.0,0.0,0.26729628,0.2677163,0.573359,1.0945051,1.094802,4.0574074,0.002514182,0.0025093288,0.0025150042,0.09014242,0.0,0.0,0.0,0.0,0.0,0.00044315693,0.01538225,0.031099712,0.0,0.0,0.0,0.0,0.0,0.0
681892000,-0.00351727,-0.09667969,0.0069864127,-0.064977646,-0.095746994,0.03164673,0.00018059742,0.0041517615,-0.0009557605,0.018021822,0.0,0.0,0.0,0.0,0.0,0.26724452,0.26782963,0.5733923,1.0943556,1.094758,4.057248,0.0025139998,0.0025088084,0.0025143865,0.09014242,0.0,0.0,0.0,0.0,0.0,0.00047522198,0.014331131,0.02968595,0.0,0.0,0.0,0.0,0.0,0.0
682092000,-0.010097861,-0.105661035,-0.009096131,-0.064870834,-0.09667969,-0.082733154,-0.001164332,0.0032613575,-0.0025283098,0.018021822,0.0,0.0,0.0,0.0,0.0,0.26723498,0.26796478,0.5733331,1.0942268,1.0947345,4.0571814,0.0025135872,0.0025085385,0.00251377,0.09014242,0.0,0.0,0.0,0.0,0.0,0.00048486982,0.013050623,0.026952492,0.0,0.0,0.0,0.0,0.0,0.0
682292000,-0.010097861,-0.105661035,-0.009096131,-0.064870834,-0.09667969,0.029449463,-0.00021035969,0.005170703,-0.004541248,0.018021822,0.0,0.0,0.0,0.0,0.0,0.26723498,0.26796478,0.5733331,1.0942268,1.0947345,4.0577507,0.0025129833,0.0025086952,0.0025132105,0.09014242,0.0,0.0,0.0,0.0,0.0,0.00032170763,0.01640068,0.03655251,0.0,0.0,0.0,0.0,0.0,0.0
682492000,0.12681115,-0.058443666,-0.034701377,0.07980347,-0.15345573,0.0025024414,0.0027111173,0.0016285181,-0.004203677,0.018021822,0.0,0.0,0.0,0.0,0.0,0.26815468,0.26914832,0.57336766,1.0997403,1.1005682,4.057876,0.002512289,0.0025090282,0.0025126413,0.09014242,0.0,0.0,0.0,0.0,0.0,0.000489718,0.01920697,0.04341908,0.0,0.0,0.0,0.0,0.0,0.0
682692000,0.06777704,-0.05490482,-0.06016647,0.053239822,-0.14150047,-0.14541626,-6.455183e-05,0.001196295,-0.004101813,0.018021822,0.0,0.0,0.0,0.0,0.0,0.26807725,0.26910737,0.5733961,1.0989915,1.0999101,4.0577908,0.0025114706,0.0025095192,0.0025120329,0.09014242,0.0,0.0,0.0,0.0,0.0,0.00048822587,0.018427368,0.043489713,0.0,0.0,0.0,0.0,0.0,0.0
682892000,0.012047768,-0.054361254,-0.060735337,0.027107239,-0.12706947,0.07333374,0.003428638,0.0043091476,-0.002170682,0.018021822,0.0,0.0,0.0,0.0,0.0,0.26805753,0.26905778,0.57334274,1.0983058,1.0993121,4.057607,0.0025107209,0.002510024,0.0025115064,0.09014242,0.0,0.0,0.0,0.0,0.0,0.0004185698,0.014790001,0.0363036,0.0,0.0,0.0,0.0,0.0,0.0
683092000,-0.019169688,-0.050162256,-0.049313538,0.025808334,-0.12170029,-0.06829834,0.00044043362,0.0033861697,0.00022101402,0.018021822,0.0,0.0,0.0,0.0,0.0,0.26810336,0.26900706,0.5733895,1.0976886,1.0987664,4.057835,0.0025099288,0.002510642,0.0025109455,0.09014242,0.0,0.0,0.0,0.0,0.0,0.00036284077,0.011541528,0.029566148,0.0,0.0,0.0,0.0,0.0,0.0
683292000,-0.019494176,-0.079242796,-0.06340391,0.0040740967,-0.11713791,-0.06549072,0.004449457,0.0012805164,-0.00133273,0.018021822,0.0,0.0,0.0,0.0,0.0,0.26822183,0.26897055,0.5733495,1.0971456,1.0982683,4.0576677,0.0025093195,0.0025110224,0.0025105337,0.09014242,0.0,0.0,0.0,0.0,0.0,0.00040758392,0.0094509255,0.02359047,0.0,0.0,0.0,0.0,0.0,0.0
683492000,0.0036160946,-0.07678223,-0.045660518,-0.020568848,-0.10194588,-0.1322937,0.004392922,-0.0003695935,0.0015167296,0.018021822,0.0,0.0,0.0,0.0,0.0,0.2683797,0.2689761,0.57340574,1.0966535,1.0978069,4.0575995,0.002508732,0.0025113374,0.0025101558,0.09014242,0.0,0.0,0.0,0.0,0.0,0.00035921513,0.009250911,0.022351306,0.0,0.0,0.0,0.0,0.0,0.0
683692000,0.006697774,-0.04547748,-0.07105879,-0.016347885,-0.088682175,-0.039916992,0.00481987,0.0014138967,-0.0010705888,0.018021822,0.0,0.0,0.0,0.0,0.0,0.26858395,0.26906115,0.5733686,1.0962293,1.0973902,4.0575314,0.0025083127,0.002511512,0.0025098068,0.09014242,0.0,0.0,0.0,0.0,0.0,0.0003079216,0.009377077,0.02106794,0.0,0.0,0.0,0.0,0.0,0.0
683892000,0.0040888786,-0.021444604,-0.04631026,-0.022510529,-0.07897568,0.03692627,0.0036441386,0.00096249953,-0.0028826296,0.018021822,0.0,0.0,0.0,0.0,0.0,0.26881006,0.26920924,0.57332766,1.0958521,1.0970148,4.0576797,0.0025081106,0.0025114857,0.002509502,0.09014242,0.0,0.0,0.0,0.0,0.0,0.00024642178,0.009176692,0.020211559,0.0,0.0,0.0,0.0,0.0,0.0
684092000,0.057784438,-0.053649932,-0.042341128,-0.030939102,-0.07381821,-0.07559204,0.006882906,0.0019795238,0.00028005242,0.018021822,0.0,0.0,0.0,0.0,0.0,0.26906964,0.2694022,0.57337594,1.0955392,1.0966878,4.05762,0.0025079644,0.0025112447,0.002509182,0.09014242,0.0,0.0,0.0,0.0,0.0,0.00033805825,0.009997582,0.020190537,0.0,0.0,0.0,0.0,0.0,0.0
684292000,0.03686762,-0.035283044,-0.057183728,-0.025457382,-0.06961441,-0.25283813,0.004526496,0.0011286288,-0.0030462146,0.018021822,0.0,0.0,0.0,0.0,0.0,0.26932597,0.2696087,0.5733344,1.0952708,1.0964029,4.0574574,0.0025077974,0.0025109572,0.002508921,0.09014242,0.0,0.0,0.0,0.0,0.0,0.00034681777,0.010477256,0.021075813,0.0,0.0,0.0,0.0,0.0,0.0
684492000,0.06795502,-0.025894687,-0.07216481,-0.02031517,-0.06342125,-0.0032348633,0.0025574267,-0.0025902605,-0.0046037138,0.018021822,0.0,0.0,0.0,0.0,0.0,0.26956758,0.26981986,0.5733853,1.0950557,1.0961642,4.057704,0.002507605,0.0025106356,0.0025086498,0.09014242,0.0,0.0,0.0,0.0,0.0,0.00035145905,0.011290517,0.02271351,0.0,0.0,0.0,0.0,0.0,0.0
684692000,0.11600268,-0.008188903,-0.043749407,-0.018220901,-0.052505493,-0.15310669,0.0063831806,-0.0010807207,-0.0009357035,0.018021822,0.0,0.0,0.0,0.0,0.0,0.26980796,0.27003974,0.573345,1.0949005,1.0959755,4.05755,0.0025074168,0.0025103507,0.0025084214,0.09014242,0.0,0.0,0.0,0.0,0.0,0.00041943789,0.013375575,0.026931083,0.0,0.0,0.0,0.0,0.0,0.0
684892000,0.0850575,-0.00075370073,-0.035591736,-0.02184105,-0.03986168,0.062347412,0.003947586,0.00096852705,0.002540648,0.018021822,0.0,0.0,0.0,0.0,0.0,0.27001598,0.27023873,0.5733995,1.094786,1.0958294,4.057493,0.002507224,0.0025100608,0.002508184,0.09014242,0.0,0.0,0.0,0.0,0.0,0.00036087292,0.012494259,0.0249311,0.0,0.0,0.0,0.0,0.0,0.0
685092000,0.0773285,-0.004486054,-0.061209247,-0.01941681,-0.03421402,-0.09512329,0.00271824,2.5676563e-06,-0.0015593171,0.018021822,0.0,0.0,0.0,0.0,0.0,0.2701972,0.27041346,0.5733642,1.0947239,1.0957288,4.0574346,0.0025070426,0.0025097965,0.0025079662,0.09014242,0.0,0.0,0.0,0.0,0.0,0.00030865832,0.011567567,0.023645816,0.0,0.0,0.0,0.0,0.0,0.0
685300000,0.09207249,0.023112692,0.0026667304,-0.014039993,-0.024997711,0.038879395,0.0012878478,-0.0001880182,-0.00075158477,0.018021822,0.0,0.0,0.0,0.0,0.0,0.2703301,0.27055344,0.57332975,1.0946941,1.0956647,4.057591,0.002506897,0.002509582,0.002507781,0.09014242,0.0,0.0,0.0,0.0,0.0,0.00031178084,0.011161765,0.022840703,0.0,0.0,0.0,0.0,0.0,0.0
685492000,0.098930895,0.01989957,-0.052544117,-0.006465912,-0.023532867,-0.125,0.004870951,-0.0015349444,-0.001149416,0.018021822,0.0,0.0,0.0,0.0,0.0,0.27042457,0.27065593,0.5733884,1.0947044,1.095637,4.0575423,0.002506755,0.0025093614,0.0025075849,0.09014242,0.0,0.0,0.0,0.0,0.0,0.0003730799,0.011015208,0.022781026,0.0,0.0,0.0,0.0,0.0,0.0
685692000,0.10374355,0.034376897,-0.05737821,-0.0073184967,-0.010843277,-0.07785034,0.003933221,0.003979899,-0.00043690205,0.018021822,0.0,0.0,0.0,0.0,0.0,0.27046356,0.27070603,0.5733587,1.0947342,1.0956339,4.0573907,0.0025066335,0.002509178,0.0025074203,0.09014242,0.0,0.0,0.0,0.0,0.0,0.0003351874,0.011268803,0.02300857,0.0,0.0,0.0,0.0,0.0,0.0
685892000,0.100958526,0.03131549,-0.015672661,-0.015314102,-0.014915466,-0.12307739,0.001190275,0.0002581179,-0.0018058717,0.018021822,0.0,0.0,0.0,0.0,0.0,0.2704656,0.2707194,0.5734218,1.0947847,1.0956528,4.057652,0.0025065213,0.0025089993,0.0025072491,0.09014242,0.0,0.0,0.0,0.0,0.0,0.00029436016,0.010374835,0.02162261,0.0,0.0,0.0,0.0,0.0,0.0
686092000,0.1168741,0.033019282,-0.05396519,-0.00592041,-0.0009288788,0.013702393,0.0052698255,0.0015682746,-0.003213346,0.018021822,0.0,0.0,0.0,0.0,0.0,0.27043217,0.27069497,0.5733937,1.0948551,1.0956899,4.0575128,0.0025064177,0.0025088459,0.002507106,0.09014242,0.0,0.0,0.0,0.0,0.0,0.00029598174,0.009985892,0.020728208,0.0,0.0,0.0,0.0,0.0,0.0
686292000,0.097278,0.053288274,-0.08787097,0.0049419403,0.0064353943,-0.0793457,0.0032434762,0.0017131772,-0.0025793314,0.018021822,0.0,0.0,0.0,0.0,0.0,0.2703594,0.27063528,0.57345974,1.0949286,1.0957351,4.0574737,0.0025063232,0.0025086903,0.0025069525,0.09014242,0.0,0.0,0.0,0.0,0.0,0.0003059846,0.010148227,0.020941427,0.0,0.0,0.0,0.0,0.0,0.0
686492000,0.122341275,0.055111818,-0.033165246,-5.1498413e-05,0.0048179626,0.020965576,0.0014060736,0.0007034857,-0.0013395846,0.018021822,0.0,0.0,0.0,0.0,0.0,0.27026182,0.2705508,0.57343453,1.0950103,1.095788,4.0574346,0.0025062445,0.0025085479,0.002506803,0.09014242,0.0,0.0,0.0,0.0,0.0,0.00031490956,0.009921226,0.020429688,0.0,0.0,0.0,0.0,0.0,0.0
686692000,0.12201083,0.034168784,-0.08296085,0.009887695,0.005376816,-0.07852173,0.002774179,0.001705721,0.0016521513,0.018021822,0.0,0.0,0.0,0.0,0.0,0.27013722,0.27043757,0.57340956,1.0950863,1.0958406,4.0576096,0.0025061744,0.0025084333,0.002506682,0.09014242,0.0,0.0,0.0,0.0,0.0,0.0003164905,0.008588364,0.018093642,0.0,0.0,0.0,0.0,0.0,0.0
686892000,0.093548596,0.04827047,-0.041980013,0.0017414093,0.018304825,0.0079956055,0.005935997,-0.00049401633,-6.785989e-05,0.018021822,0.0,0.0,0.0,0.0,0.0,0.26999453,0.27030465,0.5734768,1.0951631,1.0958928,4.0575814,0.0025061052,0.0025083125,0.0025065527,0.09014242,0.0,0.0,0.0,0.0,0.0,0.00027372816,0.0076221908,0.016602967,0.0,0.0,0.0,0.0,0.0,0.0
687092000,0.09011114,0.050765686,-0.024010833,0.014656067,0.023763657,-0.04309082,0.00096799433,0.0009444542,0.00178653,0.018021822,0.0,0.0,0.0,0.0,0.0,0.26983213,0.27015337,0.5734533,1.0952275,1.0959375,4.0574474,0.002506049,0.0025082105,0.0025064398,0.09014242,0.0,0.0,0.0,0.0,0.0,0.00022621415,0.007410903,0.015987711,0.0,0.0,0.0,0.0,0.0,0.0
687300000,0.093881786,0.03596399,-0.038474485,0.083768845,0.022212982,-0.12942505,0.0039775074,-0.0015526414,-0.00024804473,0.018021822,0.0,0.0,0.0,0.0,0.0,0.27076048,0.2711305,0.5735833,1.1018548,1.1026552,4.057709,0.0025059935,0.0025081113,0.0025063236,0.09014242,0.0,0.0,0.0,0.0,0.0,0.00024825527,0.007643768,0.017480267,0.0,0.0,0.0,0.0,0.0,0.0
687492000,0.07832998,0.079280116,-0.030280448,0.07661438,0.033636093,-0.018096924,0.0012626946,0.0013845023,0.0024258792,0.018021822,0.0,0.0,0.0,0.0,0.0,0.27035323,0.2707233,0.5736406,1.1011413,1.1019047,4.057565,0.0025059474,0.0025080224,0.00250622,0.09014242,0.0,0.0,0.0,0.0,0.0,0.00031041994,0.010335031,0.022515768,0.0,0.0,0.0,0.0,0.0,0.0
687692000,0.07132912,0.06263951,0.006543085,0.067251205,0.039894104,-0.020996094,0.0034419,0.00022930838,0.00095155835,0.018021822,0.0,0.0,0.0,0.0,0.0,0.26998866,0.27035528,0.5736029,1.1004952,1.1012245,4.0575223,0.0025059045,0.0025079327,0.0025061108,0.09014242,0.0,0.0,0.0,0.0,0.0,0.0003420116,0.00977291,0.02168668,0.0,0.0,0.0,0.0,0.0,0.0
687892000,0.054854393,0.07747689,-0.02545579,0.06523514,0.041467667,-0.05545044,0.00091950595,-0.0001061745,-0.002624154,0.018021822,0.0,0.0,0.0,0.0,0.0,0.269648,0.27001286,0.5736604,1.0999012,1.1006024,4.057477,0.0025058624,0.0025078505,0.00250601,0.09014242,0.0,0.0,0.0,0.0,0.0,0.00033888387,0.009754072,0.021266965,0.0,0.0,0.0,0.0,0.0,0.0
688092000,0.067780435,0.09171507,-0.03466037,0.061296463,0.041427612,-0.11383057,0.00069344044,-0.0023443997,0.002097845,0.018021822,0.0,0.0,0.0,0.0,0.0,0.26933697,0.26970258,0.57362396,1.0993596,1.1000351,4.057644,0.0025058351,0.0025077867,0.0025059218,0.09014242,0.0,0.0,0.0,0.0,0.0,0.00031959,0.01045926,0.022069542,0.0,0.0,0.0,0.0,0.0,0.0
688292000,0.046292543,0.0972412,-0.03269217,0.04140663,0.04114151,-0.1217041,0.0019992143,-0.00065875426,-0.0019697547,0.018021822,0.0,0.0,0.0,0.0,0.0,0.2690478,0.26941434,0.5735868,1.0988581,1.0995132,4.057606,0.0025058072,0.0025077167,0.002505827,0.09014242,0.0,0.0,0.0,0.0,0.0,0.00035499837,0.010312111,0.021342281,0.0,0.0,0.0,0.0,0.0,0.0
688492000,0.0487535,0.07300127,-0.06929174,0.04451561,0.041419983,-0.16732788,0.003282234,-5.786121e-05,0.00038841367,0.018021822,0.0,0.0,0.0,0.0,0.0,0.26878566,0.26915422,0.57364327,1.0983958,1.0990334,4.0574603,0.0025057828,0.0025076559,0.0025057448,0.09014242,0.0,0.0,0.0,0.0,0.0,0.0003638183,0.008442061,0.01793115,0.0,0.0,0.0,0.0,0.0,0.0
688692000,0.08190906,0.050672222,-0.07529384,0.04381752,0.045999527,-0.0067443848,0.0017412007,-0.0007489994,0.0020415783,0.018021822,0.0,0.0,0.0,0.0,0.0,0.26854503,0.26891473,0.57360715,1.0979713,1.0985929,4.0577292,0.002505772,0.0025076014,0.0025056577,0.09014242,0.0,0.0,0.0,0.0,0.0,0.0003035935,0.0063415677,0.014433313,0.0,0.0,0.0,0.0,0.0,0.0
688892000,0.049448162,0.06168768,-0.0043820497,0.024145126,0.054719925,-0.051971436,0.001089409,-0.0025506988,-0.0015960932,0.018021822,0.0,0.0,0.0,0.0,0.0,0.26832277,0.26869416,0.57366496,1.0975754,1.0981848,4.057591,0.0025057597,0.0025075476,0.00250558,0.09014242,0.0,0.0,0.0,0.0,0.0,0.0002460605,0.0056694997,0.012517874,0.0,0.0,0.0,0.0,0.0,0.0
689092000,0.049321324,0.072444424,-0.03989081,0.027589798,0.05631256,-0.064697266,0.0016885698,-0.0011573695,-0.0012756884,0.018021822,0.0,0.0,0.0,0.0,0.0,0.26812664,0.268499,0.5736272,1.0972111,1.0978092,4.0575533,0.002505751,0.002507492,0.0025054985,0.09014242,0.0,0.0,0.0,0.0,0.0,0.0002578178,0.0059179454,0.013412463,0.0,0.0,0.0,0.0,0.0,0.0
689292000,0.05648926,0.07694048,-0.036263194,0.026953697,0.0580101,-0.056488037,0.003336668,-0.0002831146,-3.567338e-05,0.018021822,0.0,0.0,0.0,0.0,0.0,0.26794127,0.26831415,0.5736846,1.09687,1.0974599,4.0575123,0.0025057327,0.0025074424,0.0025054214,0.09014242,0.0,0.0,0.0,0.0,0.0,0.000272002,0.0057963002,0.012704526,0.0,0.0,0.0,0.0,0.0,0.0
689492000,0.05112475,0.077801235,-0.01776586,0.03273201,0.059541702,0.03048706,0.00016720593,-0.001312919,0.0025871694,0.018021822,0.0,0.0,0.0,0.0,0.0,0.267783,0.26815805,0.5736476,1.0965563,1.0971386,4.0576825,0.0025056226,0.002507415,0.002505398,0.09014242,0.0,0.0,0.0,0.0,0.0,0.0002614163,0.0058906814,0.0127340425,0.0,0.0,0.0,0.0,0.0,0.0
689692000,0.06598431,0.08138576,0.016806886,0.029335022,0.06774521,-0.016723633,0.0028691292,-0.0023747515,-0.0024336576,0.018021822,0.0,0.0,0.0,0.0,0.0,0.26762894,0.26802877,0.57360893,1.0962626,1.096842,4.0576468,0.0025053425,0.0025073977,0.002505506,0.09014242,0.0,0.0,0.0,0.0,0.0,0.00033716744,0.006028946,0.013192295,0.0,0.0,0.0,0.0,0.0,0.0
689892000,0.081385314,0.07878358,-0.031261742,0.024912834,0.06727409,-0.08026123,0.0010974407,-0.00066220295,0.002926886,0.018021822,0.0,0.0,0.0,0.0,0.0,0.26747945,0.26797244,0.57365763,1.0959888,1.0965765,4.057501,0.0025051173,0.0025073835,0.0025056815,0.09014242,0.0,0.0,0.0,0.0,0.0,0.0003436726,0.0061247954,0.012541883,0.0,0.0,0.0,0.0,0.0,0.0
690092000,0.06359702,0.085652396,-0.04269389,0.028993607,0.0690918,-0.003540039,0.00013566017,0.0005276506,-0.0003669262,0.018021822,0.0,0.0,0.0,0.0,0.0,0.2673228,0.26798722,0.57360196,1.0957327,1.0963464,4.057766,0.0025049897,0.0025073837,0.0025058102,0.09014242,0.0,0.0,0.0,0.0,0.0,0.00035385267,0.006014208,0.012757983,0.0,0.0,0.0,0.0,0.0,0.0
690292000,0.08868313,0.085898444,0.046046168,0.029277802,0.07050705,0.029022217,-0.0011175573,-0.0013940101,0.0011816025,0.018021822,0.0,0.0,0.0,0.0,0.0,0.26717937,0.2680577,0.5736333,1.0954881,1.096149,4.0576186,0.002504924,0.0025073807,0.00250585,0.09014242,0.0,0.0,0.0,0.0,0.0,0.000384893,0.006083023,0.01264406,0.0,0.0,0.0,0.0,0.0,0.0
690492000,0.060459256,0.103478834,0.007933758,0.02329731,0.07115555,0.05126953,0.0009098649,-0.00028348155,-0.00074619055,0.018021822,0.0,0.0,0.0,0.0,0.0,0.26705778,0.26814774,0.57356554,1.0952591,1.0959826,4.0575633,0.0025048638,0.0025073865,0.0025058964,0.09014242,0.0,0.0,0.0,0.0,0.0,0.0003981729,0.0069764266,0.014956615,0.0,0.0,0.0,0.0,0.0,0.0
690692000,0.03220892,0.080377765,-0.0013239589,0.0031337738,0.06931114,0.014190674,-0.0010724962,-0.0012374555,-0.002729386,0.018021822,0.0,0.0,0.0,0.0,0.0,0.26694497,0.2682395,0.57358944,1.0950401,1.0958422,4.057497,0.0025048142,0.002507397,0.0025059166,0.09014242,0.0,0.0,0.0,0.0,0.0,0.00040043474,0.0062136557,0.013735437,0.0,0.0,0.0,0.0,0.0,0.0
690892000,0.002831459,0.07253081,0.016822161,-0.0012931824,0.07016754,0.08706665,-0.00013712049,-0.0012174675,0.0021039248,0.018021822,0.0,0.0,0.0,0.0,0.0,0.2668453,0.2682874,0.5735198,1.0948344,1.0957241,4.0576377,0.0025047981,0.0025074151,0.0025058123,0.09014242,0.0,0.0,0.0,0.0,0.0,0.00040734545,0.007077144,0.014049241,0.0,0.0,0.0,0.0,0.0,0.0
691092000,-0.026736021,0.06919849,0.01568041,-0.009421349,0.07274246,-0.07122803,-0.001552105,-0.0012387063,0.0011042058,0.018021822,0.0,0.0,0.0,0.0,0.0,0.26677173,0.26822376,0.5734561,1.0946394,1.095617,4.057566,0.0025048251,0.002507428,0.002505602,0.09014242,0.0,0.0,0.0,0.0,0.0,0.00040968964,0.009821641,0.017743599,0.0,0.0,0.0,0.0,0.0,0.0
691292000,-0.036864996,0.06481753,0.018191172,-0.043444633,0.07672882,-0.14529419,0.0015894771,-0.0011105395,0.00091457367,0.018021822,0.0,0.0,0.0,0.0,0.0,0.2667181,0.26802394,0.57349247,1.0944589,1.0955086,4.0573907,0.002504887,0.0025074333,0.0025053914,0.09014242,0.0,0.0,0.0,0.0,0.0,0.0003119,0.011819294,0.022372002,0.0,0.0,0.0,0.0,0.0,0.0
