timestamp,lat,lon,alt,alt_ellipsoid,delta_alt,vel_n,vel_e,vel_d,yaw,eph,epv,terrain_alt,lat_lon_reset_counter,alt_reset_counter,terrain_alt_valid,dead_reckoning
657300000,47.39775128233757,8.545605646442572,488.1013,-0.016784668,-0.0,0.05530595,-0.06604733,-0.005303977,0.39087838,1.0866297,1.0285386,0.0,2,0,0,0
657492000,47.397751307014126,8.54560565832931,488.10037,-0.017364502,-0.0,0.061289884,-0.06425434,-0.0022168937,0.39097396,1.0858287,1.0282058,0.0,2,0,0,0
657692000,47.39775131617481,8.545605671450609,488.09863,-0.018737793,-0.0,0.0607902,-0.055262376,-0.07251423,0.391033,1.08546,1.0284249,0.0,2,0,0,0
657892000,47.39775130425129,8.545605741225453,488.15262,0.03543091,-0.0,0.046819035,-0.01765297,-0.5633258,0.39093208,1.0851291,1.0282402,0.0,2,0,0,0
658092000,47.397751274666774,8.545605881979707,488.32886,0.2098999,-0.0,0.037978753,-0.0007974014,-1.287568,0.39105025,1.0848472,1.0284634,0.0,2,0,0,0
658292000,47.397751244161356,8.545606025127565,488.6169,0.49154663,-0.0,0.040227965,-0.0015551485,-1.7075722,0.39108074,1.0846316,1.028282,0.0,2,0,0,0
658492000,47.39775123318612,8.545606150886499,488.98413,0.8459778,-0.0,0.048874352,-0.006535238,-1.7572048,0.39103034,1.0844814,1.0281006,0.0,2,0,0,0
658692000,47.397751232853146,8.545606292372861,489.33417,1.1763,-0.0,0.044844616,-0.006015595,-1.7280067,0.39119494,1.0843638,1.028321,0.0,2,0,0,0
658892000,47.39775122876579,8.545606447536237,489.6765,1.4986572,-0.0,0.043324083,-0.011498866,-1.6786022,0.39135516,1.0842396,1.028143,0.0,2,0,0,0
659092000,47.39775122159736,8.545606572301196,490.0112,1.8133545,-0.0,0.045363706,-0.016780753,-1.6438428,0.3940239,1.0841057,1.028364,0.0,2,0,0,0
659292000,47.3977512120839,8.545606663913723,490.34183,2.123993,-0.0,0.047721572,-0.023655666,-1.6107695,0.39181066,1.0839143,1.0281829,0.0,2,0,0,0
659492000,47.39775120048302,8.545606734447993,490.66772,2.4299011,-0.0,0.046825703,-0.027556764,-1.5802443,0.389739,1.0836129,1.0284084,0.0,2,0,0,0
659692000,47.39775119140281,8.545606778000723,490.98895,2.7311401,-0.0,0.04719784,-0.030199448,-1.561418,0.38943204,1.0832258,1.028231,0.0,2,0,0,0
659892000,47.39775118855201,8.545606812822468,491.30487,3.027069,-0.0,0.050527688,-0.034679435,-1.5390798,0.39027566,1.0827792,1.0280536,0.0,2,0,0,0
660092000,47.397751192068604,8.54560684132865,491.61966,3.321869,-0.0,0.052058846,-0.03821126,-1.5246125,0.39118588,1.0823004,1.0282767,0.0,2,0,0,0
660292000,47.397751191557404,8.54560687487099,491.93283,3.6150513,-0.0,0.050106842,-0.03830077,-1.510288,0.39161074,1.0818161,1.0281028,0.0,2,0,0,0
660492000,47.397751190834654,8.545606916349747,492.24112,3.9033508,-0.0,0.052076597,-0.033867832,-1.499053,0.39144748,1.0813521,1.0283267,0.0,2,0,0,0
660692000,47.39775117942275,8.545606950749756,492.54926,4.191498,-0.0,0.049323525,-0.03292525,-1.4943329,0.3914925,1.0809311,1.02815,0.0,2,0,0,0
660892000,47.39775114792549,8.545606969732367,492.8574,4.479645,-0.0,0.047333173,-0.031790607,-1.4850931,0.39185676,1.0805722,1.0283788,0.0,2,0,0,0
661092000,47.39775111099811,8.545606963355882,493.16394,4.766205,-0.0,0.049576562,-0.032941252,-1.4682962,0.3920962,1.0802902,1.0282055,0.0,2,0,0,0
661292000,47.39775108707348,8.545606945822984,493.4584,5.04068,-0.0,0.054907102,-0.030803446,-1.3695273,0.3918823,1.0800943,1.0280322,0.0,2,0,0,0
661492000,47.39775105917923,8.545606925520929,493.73187,5.294159,-0.0,0.051997077,-0.028323308,-1.2811849,0.391639,1.0799868,1.0282586,0.0,2,0,0,0
661692000,47.39775102323524,8.545606893667257,493.9881,5.5303955,-0.0,0.05115743,-0.028377911,-1.1874751,0.3915302,1.0799651,1.0280883,0.0,2,0,0,0
661900000,47.39775101732238,8.54560683846927,494.2355,5.7478027,-0.0,0.056143567,-0.028495008,-1.1121538,0.39123398,1.0896186,1.0283835,0.0,2,0,0,0
662092000,47.397750986272456,8.545606790414666,494.45218,5.9444885,-0.0,0.05581408,-0.02633265,-1.0408057,0.39085495,1.0889779,1.0284517,0.0,2,0,0,0
662292000,47.397750932439166,8.545606737355588,494.66858,6.1408997,-0.0,0.05607351,-0.023312975,-0.9702182,0.39068243,1.0888352,1.0286787,0.0,2,0,0,0
662492000,47.39775086582344,8.545606688458014,494.873,6.3253174,-0.0,0.054727536,-0.018404793,-0.88900924,0.39048687,1.0887734,1.0284948,0.0,2,0,0,0
662692000,47.39775079726849,8.545606614511126,495.06052,6.492859,-0.0,0.06049848,-0.017340029,-0.82376426,0.39083284,1.0887768,1.0283108,0.0,2,0,0,0
662892000,47.39775072675192,8.545606515712153,495.23575,6.648102,-0.0,0.06115488,-0.017271437,-0.7672796,0.39104447,1.0888323,1.0285344,0.0,2,0,0,0
663100000,47.39775067022113,8.545606396700757,495.4059,6.798279,-0.0,0.063171566,-0.012849233,-0.711329,0.3911873,1.0893581,1.0285054,0.0,2,0,0,0
663292000,47.39775061824839,8.545606297143943,495.5513,6.9236755,-0.0,0.063923,-0.00895211,-0.66884255,0.3913049,1.089049,1.0285773,0.0,2,0,0,0
663500000,47.39775056575541,8.545606183462395,495.70142,7.0538025,-0.0,0.06883129,-0.0061110086,-0.62587583,0.39116898,1.0896258,1.0285453,0.0,2,0,0,0
663692000,47.397750541031805,8.54560610207818,495.83163,7.164032,-0.0,0.0728353,-0.0025113109,-0.5856789,0.3910116,1.0893344,1.0286216,0.0,2,0,0,0
663892000,47.39775052415101,8.545606012312549,495.96082,7.273224,-0.0,0.07490635,-0.00023773045,-0.5474181,0.3909554,1.0894803,1.0284407,0.0,2,0,0,0
664092000,47.397750504977104,8.545605922323405,496.0811,7.3735046,-0.0,0.07243395,0.0022357823,-0.51222074,0.39112854,1.0896194,1.0282596,0.0,2,0,0,0
664292000,47.39775048801074,8.545605829112537,496.1957,7.4681396,-0.0,0.07016709,0.0049654124,-0.48289987,0.39076746,1.0897466,1.0284851,0.0,2,0,0,0
664492000,47.39775047179705,8.545605737291542,496.30365,7.5560913,-0.0,0.06899421,0.00915919,-0.45065737,0.39100853,1.0898587,1.0283073,0.0,2,0,0,0
664692000,47.39775045485248,8.545605642601117,496.40524,7.6376953,-0.0,0.06991851,0.009970148,-0.42044118,0.39100814,1.0899522,1.0285331,0.0,2,0,0,0
664892000,47.3977504403812,8.545605537159929,496.5027,7.715149,-0.0,0.06904772,0.013469818,-0.39307866,0.3908058,1.0900259,1.0283521,0.0,2,0,0,0
665092000,47.39775044566271,8.545605461881816,496.59503,7.787506,-0.0,0.06817851,0.016870216,-0.3633733,0.39084622,1.0900788,1.0285823,0.0,2,0,0,0
665292000,47.39775046635942,8.545605405043961,496.6793,7.851776,-0.0,0.06522196,0.020087602,-0.33952206,0.39094454,1.0901105,1.0284047,0.0,2,0,0,0
665492000,47.39775050511807,8.54560537138071,496.76016,7.9126587,-0.0,0.065788314,0.022440504,-0.31641248,0.390988,1.0901215,1.0282267,0.0,2,0,0,0
665692000,47.39775053176501,8.545605335424725,496.83606,7.968567,-0.0,0.063666634,0.024327854,-0.29261357,0.39090702,1.0901128,1.0284542,0.0,2,0,0,0
665892000,47.397750582321635,8.545605307534782,496.90884,8.021362,-0.0,0.060591724,0.01895473,-0.26839727,0.3911544,1.0900849,1.0282793,0.0,2,0,0,0
666092000,47.397750626534076,8.545605283417228,496.97513,8.067657,-0.0,0.058469366,0.021710474,-0.25213832,0.39109412,1.0900397,1.028507,0.0,2,0,0,0
666292000,47.397750679320374,8.545605268806172,497.0378,8.110352,-0.0,0.055490233,0.021312546,-0.23736835,0.39111498,1.089979,1.0283288,0.0,2,0,0,0
666492000,47.39775072603752,8.545605277040293,497.09747,8.150024,-0.0,0.05137792,0.023338467,-0.21855779,0.3911846,1.0899044,1.0285609,0.0,2,0,0,0
666692000,47.39775076399822,8.545605277038904,497.15225,8.184814,-0.0,0.04725511,0.019356236,-0.20499873,0.39114743,1.0898176,1.0283855,0.0,2,0,0,0
666892000,47.397750799930705,8.545605276463395,497.20444,8.2369995,-0.0,0.04676446,0.021703742,-0.1922791,0.39111546,1.0897206,1.0282098,0.0,2,0,0,0
667092000,47.39775084914785,8.545605290102989,497.25418,8.256744,-0.0,0.041186754,0.017875612,-0.18411008,0.39044318,1.0890415,1.0284288,0.0,2,0,0,0
667292000,47.39775087950336,8.545605299266795,497.3071,8.289673,-0.0,0.022606982,-0.0044686818,-0.21004276,0.36845937,1.088418,1.0282459,0.0,2,0,0,0
667492000,47.39775078810933,8.545605101008409,497.36194,8.324524,-0.0,-0.12918666,-0.18813892,-0.22496861,0.28735474,1.087808,1.0284646,0.0,2,0,0,0
667692000,47.397750286550554,8.545604130439793,497.41443,8.357025,-0.0,-0.46294966,-0.599822,-0.18774435,0.15235347,1.0872085,1.0282776,0.0,2,0,0,0
667892000,47.39774919693888,8.545602053676387,497.45737,8.379974,-0.0,-0.83122337,-1.0752648,-0.15461244,0.0056410846,1.0866688,1.0284969,0.0,2,0,0,0
668092000,47.39774755328974,8.545598884065118,497.4944,8.397003,-0.0,-1.1499788,-1.5040338,-0.14057909,-0.14898345,1.0861648,1.0283045,0.0,2,0,0,0
668292000,47.3977454166422,8.545594695944894,497.52423,8.40686,-0.0,-1.4300071,-1.8988936,-0.1299173,-0.31087738,1.0857006,1.0281062,0.0,2,0,0,0
668492000,47.39774277643999,8.545589492275667,497.5534,8.416046,-0.0,-1.6999676,-2.2553496,-0.11363492,-0.4714022,1.0852795,1.028304,0.0,2,0,0,0
668692000,47.39773966134728,8.545583362986864,497.58032,8.422974,-0.0,-1.944641,-2.586529,-0.10572773,-0.6285114,1.0848876,1.0280986,0.0,2,0,0,0
668892000,47.39773609632886,8.545576391682282,497.6073,8.429962,-0.0,-2.175808,-2.8929763,-0.08808243,-0.7878306,1.0845335,1.0282861,0.0,2,0,0,0
669092000,47.397732103789885,8.545568692727656,497.63132,8.4339905,-0.0,-2.3946738,-3.13349,-0.06300461,-0.9502738,1.0842044,1.02807,0.0,2,0,0,0
669300000,47.39772756631975,8.545560154784672,497.64926,8.431946,-0.0,-2.5515077,-3.2845798,-0.0317272,-1.1187756,1.0842763,1.0280038,0.0,2,0,0,0
669492000,47.39772319059526,8.545552017326155,497.65952,8.422211,-0.0,-2.5808609,-3.3225574,-0.0205348,-1.2808895,1.083632,1.0280384,0.0,2,0,0,0
669692000,47.39771863462636,8.54554358491708,497.67163,8.414337,-0.0,-2.5384521,-3.254373,-0.059251335,-1.4447519,1.0833799,1.027825,0.0,2,0,0,0
669892000,47.39771411986966,8.545535343064506,497.6925,8.415222,-0.0,-2.5271225,-3.20548,-0.06473816,-1.5922362,1.0831573,1.0280087,0.0,2,0,0,0
670092000,47.397709588628175,8.545527123684158,497.71237,8.4151,-0.0,-2.5484192,-3.23917,-0.042741716,-1.7479224,1.0829558,1.0278066,0.0,2,0,0,0
670292000,47.397705033577424,8.54551886389332,497.72815,8.410889,-0.0,-2.565492,-3.2661972,-0.044096027,-1.9094292,1.0827857,1.0279976,0.0,2,0,0,0
670492000,47.39770048184526,8.545510661120282,497.74515,8.407898,-0.0,-2.5729492,-3.2654588,-0.051817555,-2.0651007,1.0826408,1.0277997,0.0,2,0,0,0
670692000,47.397695954440096,8.545502498557818,497.76337,8.406128,-0.0,-2.584913,-3.2867637,-0.044712856,-2.184843,1.0825336,1.0280004,0.0,2,0,0,0
670892000,47.397691443917346,8.545494313874372,497.78134,8.404114,-0.0,-2.6020346,-3.3213882,-0.035171725,-2.2489069,1.0824555,1.0278118,0.0,2,0,0,0
671092000,47.397686940555474,8.545486129109953,497.79892,8.401703,-0.0,-2.6169822,-3.3341842,-0.034345824,-2.2736125,1.0824128,1.0276257,0.0,2,0,0,0
671292000,47.39768245567563,8.54547796339035,497.81668,8.399475,-0.0,-2.6357484,-3.344142,-0.027082294,-2.2788706,1.0824099,1.0278301,0.0,2,0,0,0
671492000,47.397677990868715,8.545469790424674,497.8373,8.400116,-0.0,-2.6541545,-3.3643634,-0.021130905,-2.2760825,1.082437,1.0276529,0.0,2,0,0,0
671692000,47.397673545512916,8.545461592233766,497.85727,8.400085,-0.0,-2.666365,-3.3797362,-0.00783426,-2.2712216,1.0824996,1.0278643,0.0,2,0,0,0
671892000,47.3976690359261,8.545453179853054,497.87714,8.389954,-0.0,-2.681795,-3.4049754,0.0028273547,-2.2662768,1.0928303,1.0279937,0.0,2,0,0,0
672092000,47.39766468320503,8.54544503627363,497.89774,8.390564,-0.0,-2.6894345,-3.4107473,0.0088480655,-2.2620332,1.0924397,1.0282146,0.0,2,0,0,0
672292000,47.39766045835215,8.54543705159331,497.91855,8.391388,-0.0,-2.692899,-3.4197757,0.017662968,-2.259236,1.092108,1.0280423,0.0,2,0,0,0
672492000,47.39765627983811,8.545429085716833,497.9397,8.392548,-0.0,-2.7065585,-3.4392738,0.035007637,-2.2570367,1.091831,1.0278744,0.0,2,0,0,0
672692000,47.39765208038796,8.54542107702877,497.95914,8.391998,-0.0,-2.7268174,-3.453386,0.044172145,-2.2559114,1.0916021,1.028106,0.0,2,0,0,0
672892000,47.397647851476584,8.545413031991025,497.98114,8.394012,-0.0,-2.739465,-3.4594867,0.05826867,-2.2544093,1.0914078,1.0279492,0.0,2,0,0,0
673092000,47.39764358582234,8.545404898807497,498.00113,8.394012,-0.0,-2.7493064,-3.4700253,0.07208983,-2.2531571,1.0912464,1.0281892,0.0,2,0,0,0
673292000,47.39763930080141,8.545396687867793,498.01822,8.391113,-0.0,-2.7592847,-3.4777627,0.08509199,-2.2522779,1.091106,1.0280352,0.0,2,0,0,0
673492000,47.39763498342027,8.545388416859717,498.03098,8.383881,-0.0,-2.767826,-3.4799075,0.0921064,-2.2515895,1.0909867,1.0282855,0.0,2,0,0,0
673692000,47.39763060637958,8.545380070807141,498.04187,8.374786,-0.0,-2.776651,-3.4795918,0.09641106,-2.2509017,1.0908794,1.0281379,0.0,2,0,0,0
673892000,47.39762618154928,8.545371643007472,498.0542,8.367126,-0.0,-2.7833223,-3.4804275,0.103110164,-2.250682,1.0907825,1.0279902,0.0,2,0,0,0
674092000,47.39762174291856,8.54536318193711,498.06323,8.356171,-0.0,-2.7735372,-3.459824,0.13480926,-2.2503605,1.0906943,1.0282415,0.0,2,0,0,0
674292000,47.3976173336966,8.545354830263273,498.07135,8.344299,-0.0,-2.71178,-3.3586304,0.13212556,-2.2504478,1.0906074,1.0280962,0.0,2,0,0,0
674492000,47.397613049924594,8.545346754422292,498.0821,8.3350525,-0.0,-2.5966637,-3.2010407,0.12432661,-2.2510219,1.0905274,1.0283471,0.0,2,0,0,0
674692000,47.39760893666417,8.54533901079657,498.09064,8.323608,-0.0,-2.4805553,-3.0680554,0.13462742,-2.250769,1.0904515,1.0281943,0.0,2,0,0,0
674892000,47.39760499276607,8.54533158055792,498.09525,8.308228,-0.0,-2.370376,-2.9396684,0.12642524,-2.250212,1.09038,1.0284456,0.0,2,0,0,0
675092000,47.39760123237321,8.545324478986485,498.10074,8.293732,-0.0,-2.2798266,-2.811469,0.12513123,-2.2494404,1.0903095,1.0282902,0.0,2,0,0,0
675292000,47.39759758107507,8.545317699443302,498.1064,8.279419,-0.0,-2.20795,-2.6919875,0.12725002,-2.250464,1.0902399,1.0281312,0.0,2,0,0,0
675492000,47.39759405245696,8.545311217601249,498.11185,8.264862,-0.0,-2.1157894,-2.574703,0.12662898,-2.2514553,1.0901709,1.0283724,0.0,2,0,0,0
675692000,47.39759070314172,8.545305050083302,498.11572,8.248749,-0.0,-2.0113595,-2.461725,0.11722426,-2.2500448,1.0901003,1.0282111,0.0,2,0,0,0
675892000,47.39758749208158,8.54529913224582,498.11795,8.230988,-0.0,-1.9409119,-2.358628,0.12042017,-2.2497094,1.0900315,1.0284476,0.0,2,0,0,0
676092000,47.39758440805839,8.545293460237014,498.122,8.215057,-0.0,-1.8567204,-2.2556956,0.11237775,-2.25011,1.0899597,1.0282772,0.0,2,0,0,0
676300000,47.39758136842752,8.545287829483025,498.12634,8.199402,-0.0,-1.7648791,-2.149189,0.10757305,-2.2492642,1.0903189,1.0282605,0.0,2,0,0,0
676500000,47.39757859175625,8.545282676802897,498.13025,8.183319,-0.0,-1.6906397,-2.0597644,0.11281388,-2.2491634,1.0902466,1.0284919,0.0,2,0,0,0
676692000,47.39757603437249,8.545277957926812,498.13153,8.164612,-0.0,-1.6208372,-1.96953,0.104469925,-2.2492247,1.0897428,1.028165,0.0,2,0,0,0
676892000,47.39757348632,8.545273279443958,498.13577,8.148865,-0.0,-1.5495405,-1.880322,0.10127135,-2.2488155,1.0896721,1.0283908,0.0,2,0,0,0
677100000,47.39757095348228,8.545268635323243,498.1413,8.154388,-0.0,-1.4830716,-1.7965211,0.10656943,-2.24901,1.0900283,1.0283643,0.0,2,0,0,0
677292000,47.397568676777446,8.54526449056211,498.14288,8.125977,-0.0,-1.4172577,-1.7179801,0.10023206,-2.2486913,1.0889531,1.028426,0.0,2,0,0,0
677492000,47.39756650884139,8.54526051644385,498.14612,8.109222,-0.0,-1.3485079,-1.6372417,0.09583209,-2.2477279,1.088364,1.0282326,0.0,2,0,0,0
677692000,47.3975644745465,8.54525677847356,498.14816,8.091278,-0.0,-1.288096,-1.5622524,0.09573369,-2.2471972,1.0878308,1.0284452,0.0,2,0,0,0
677892000,47.3975625470821,8.545253203037085,498.1484,8.071533,-0.0,-1.2276595,-1.4932649,0.09113373,-2.2469528,1.0873464,1.0282525,0.0,2,0,0,0
678100000,47.39756065064782,8.545249654385612,498.1496,8.052734,-0.0,-1.1715696,-1.426139,0.088851176,-2.2467263,1.0873129,1.0282074,0.0,2,0,0,0
678292000,47.39755897832136,8.545246554285788,498.15097,8.034119,-0.0,-1.1204766,-1.3586587,0.088547654,-2.2467544,1.0865119,1.028265,0.0,2,0,0,0
678492000,47.39755731249598,8.545243482060709,498.1483,8.011444,-0.0,-1.0671216,-1.2956002,0.08256485,-2.2467089,1.0861536,1.0280737,0.0,2,0,0,0
678692000,47.397555715095095,8.545240560712923,498.14438,7.987549,-0.0,-1.0164273,-1.2307204,0.07416232,-2.247013,1.0858316,1.0282791,0.0,2,0,0,0
678892000,47.397554196016095,8.54523778104372,498.13977,7.9629517,-0.0,-0.96616507,-1.1689305,0.068240665,-2.2469702,1.0855422,1.0280848,0.0,2,0,0,0
679092000,47.39755274613344,8.545235120854828,498.1346,7.937805,-0.0,-0.92100984,-1.1128672,0.05933609,-2.2466578,1.0852842,1.0282942,0.0,2,0,0,0
679292000,47.397551366682166,8.545232593627384,498.13,7.913208,-0.0,-0.87033415,-1.058139,0.05286931,-2.2460434,1.085054,1.0281043,0.0,2,0,0,0
679500000,47.39755000277179,8.545230114040171,498.12823,7.891449,-0.0,-0.823514,-1.000761,0.049025845,-2.2457628,1.0852426,1.0280622,0.0,2,0,0,0
679692000,47.3975487965518,8.545227963372117,498.1265,7.8697205,-0.0,-0.7848494,-0.9459034,0.046572126,-2.2452223,1.0846709,1.0281233,0.0,2,0,0,0
679892000,47.39754760499786,8.545225837892547,498.12476,7.847992,-0.0,-0.7419998,-0.89677256,0.04011167,-2.2443678,1.0845132,1.0279393,0.0,2,0,0,0
680092000,47.397546489724476,8.545223817474378,498.12198,7.825226,-0.0,-0.69436294,-0.8504442,0.03447253,-2.2431314,1.084376,1.0281494,0.0,2,0,0,0
680292000,47.39754544539709,8.545221912862022,498.11774,7.800995,-0.0,-0.6545384,-0.80166817,0.028914949,-2.2417917,1.0842565,1.0279648,0.0,2,0,0,0
680500000,47.39754443432988,8.545220058043647,498.1126,7.775879,-0.0,-0.61054105,-0.75594056,0.022585668,-2.2405422,1.0845443,1.0279341,0.0,2,0,0,0
680692000,47.39754355822483,8.545218445834621,498.10907,7.75235,-0.0,-0.5753028,-0.7131744,0.014752138,-2.2386057,1.0840669,1.0280029,0.0,2,0,0,0
680892000,47.39754270227481,8.545216844420567,498.10663,7.7299194,-0.0,-0.50572205,-0.70314306,0.0030130146,-2.2085466,1.083993,1.0278255,0.0,2,0,0,0
681092000,47.397542087687206,8.545215183581217,498.1069,7.710205,-0.0,-0.25850618,-0.75287455,-0.018958857,-2.1215954,1.0838821,1.028043,0.0,2,0,0,0
681292000,47.39754207862416,8.545213383491149,498.10532,7.688629,-0.0,0.1740403,-0.7972955,-0.011947371,-1.9901408,1.0837705,1.0278704,0.0,2,0,0,0
681492000,47.397542832826666,8.545211495463692,498.10138,7.6647034,-0.0,0.594483,-0.81458706,-0.009701832,-1.843141,1.08368,1.0280876,0.0,2,0,0,0
681692000,47.39754424765012,8.545209564250925,498.09692,7.640259,-0.0,0.9445075,-0.82632184,-0.0102926325,-1.6833819,1.0835962,1.0279082,0.0,2,0,0,0
681892000,47.39754623959296,8.545207656600374,498.093,7.616333,-0.0,1.2649621,-0.79851866,-0.01193909,-1.5182478,1.08353,1.0281258,0.0,2,0,0,0
682092000,47.39754877440059,8.54520586318068,498.08966,7.5930176,-0.0,1.5534989,-0.74517065,-0.0026124571,-1.3548722,1.0834675,1.0279471,0.0,2,0,0,0
682292000,47.39755175426544,8.545204168585505,498.08405,7.5574036,-0.0,1.7682815,-0.6733628,0.0024394859,-1.1896206,1.0937914,1.0280704,0.0,2,0,0,0
682492000,47.3975548872063,8.545202731448846,498.07733,7.5307007,-0.0,1.8724828,-0.57017845,-0.00041306115,-1.0252962,1.0931679,1.0282782,0.0,2,0,0,0
682692000,47.397558089001194,8.545201610155988,498.0668,7.500183,-0.0,1.8782616,-0.45726603,-0.0033195976,-0.86536974,1.0925987,1.0280894,0.0,2,0,0,0
682892000,47.397561244466154,8.545200730054638,498.05634,7.4697266,-0.0,1.786519,-0.39250416,-0.014498903,-0.7077865,1.0920888,1.0282989,0.0,2,0,0,0
683092000,47.39756421766162,8.545199963201485,498.0518,7.4451904,-0.0,1.6414877,-0.35937035,-0.029003974,-0.55231607,1.0916204,1.0281103,0.0,2,0,0,0
683292000,47.39756697042168,8.545199296394427,498.0482,7.4216003,-0.0,1.5077863,-0.32227635,-0.037477262,-0.39673483,1.0912018,1.0283281,0.0,2,0,0,0
683492000,47.397569545389246,8.545198745394977,498.04572,7.3991394,-0.0,1.417363,-0.27569476,-0.04292994,-0.23941657,1.0908201,1.0281469,0.0,2,0,0,0
683692000,47.39757198728259,8.545198274320592,498.04227,7.375702,-0.0,1.3461,-0.24400184,-0.047696594,-0.09813478,1.0904816,1.0279666,0.0,2,0,0,0
683892000,47.39757431375205,8.54519780590782,498.04132,7.354767,-0.0,1.2797112,-0.22925085,-0.049371075,-0.0059285825,1.0901916,1.0281849,0.0,2,0,0,0
684092000,47.39757650069759,8.545197386910166,498.04333,7.336792,-0.0,1.2169427,-0.20256886,-0.050073724,0.041102882,1.089939,1.0280087,0.0,2,0,0,0
684292000,47.39757857700522,8.54519703334264,498.04352,7.316986,-0.0,1.1651956,-0.17300215,-0.050945632,0.061161466,1.0897343,1.0282276,0.0,2,0,0,0
684492000,47.39758054300081,8.545196727036078,498.04147,7.2949524,-0.0,1.1181543,-0.15156846,-0.052645054,0.06753135,1.0895675,1.0280483,0.0,2,0,0,0
684692000,47.397582383915335,8.545196441864487,498.03854,7.2720337,-0.0,1.0687301,-0.13276416,-0.055839177,0.06888533,1.0894468,1.0282717,0.0,2,0,0,0
684892000,47.397584132459954,8.545196172455423,498.0353,7.24881,-0.0,1.0264821,-0.115915895,-0.061996963,0.069721036,1.0893601,1.0280962,0.0,2,0,0,0
685092000,47.3975858187557,8.545195927956593,498.03482,7.2283325,-0.0,0.9913018,-0.09666196,-0.06566837,0.071765244,1.0893092,1.027921,0.0,2,0,0,0
685300000,47.39758750357629,8.545195686194539,498.03906,7.2125854,-0.0,0.9571716,-0.07991187,-0.06071421,0.07472104,1.0897233,1.0282915,0.0,2,0,0,0
685492000,47.39758898990017,8.545195476160396,498.0429,7.1964417,-0.0,0.92493623,-0.07092155,-0.058803223,0.0786919,1.0892973,1.027972,0.0,2,0,0,0
685692000,47.397590470940834,8.545195255280523,498.04584,7.1793823,-0.0,0.88981605,-0.05933466,-0.0565422,0.08375008,1.0893255,1.0281959,0.0,2,0,0,0
685892000,47.39759189359206,8.545195047476826,498.05087,7.1644287,-0.0,0.8588977,-0.049742755,-0.053024698,0.08938165,1.0893648,1.0280238,0.0,2,0,0,0
686092000,47.3975932570991,8.545194854193719,498.0548,7.1483765,-0.0,0.8301915,-0.036792703,-0.047304586,0.095775194,1.0894171,1.0282544,0.0,2,0,0,0
686292000,47.39759457129071,8.545194664407985,498.05637,7.129944,-0.0,0.8039967,-0.027344843,-0.04788906,0.10176636,1.0894711,1.0280874,0.0,2,0,0,0
686492000,47.39759582265019,8.545194483213184,498.0568,7.110382,-0.0,0.7737736,-0.015777608,-0.047679164,0.10852063,1.0895271,1.027921,0.0,2,0,0,0
686692000,47.397597012447,8.545194346466198,498.05862,7.092224,-0.0,0.7450303,-0.0015936282,-0.045798235,0.1157445,1.0895842,1.0281521,0.0,2,0,0,0
686892000,47.39759816994439,8.545194225861396,498.06168,7.075287,-0.0,0.7192861,0.0037453668,-0.044099346,0.12293439,1.0896337,1.0279905,0.0,2,0,0,0
687092000,47.39759928913872,8.54519411425279,498.06644,7.0800476,-0.0,0.6903622,0.016238997,-0.038701497,0.1302523,1.0896786,1.028224,0.0,2,0,0,0
687300000,47.397600426052506,8.5451940603445,498.06857,7.052185,-0.0,0.6679651,0.02670743,-0.03259761,0.13844429,1.0895442,1.0281996,0.0,2,0,0,0
687492000,47.39760140136603,8.54519400813529,498.06635,7.0299683,-0.0,0.64292914,0.033788886,-0.03741462,0.14545184,1.088595,1.0282803,0.0,2,0,0,0
687692000,47.397602366198846,8.545193931193772,498.0658,7.00943,-0.0,0.6174262,0.03801129,-0.03613041,0.15255839,1.0881221,1.0281107,0.0,2,0,0,0
687892000,47.397603300018666,8.545193846523624,498.06693,6.99057,-0.0,0.59719706,0.043516405,-0.03715532,0.16040291,1.0876893,1.0279411,0.0,2,0,0,0
688092000,47.39760420411197,8.545193757672513,498.06662,6.970276,-0.0,0.5765927,0.048617367,-0.036179725,0.16841073,1.0872935,1.0281687,0.0,2,0,0,0
688292000,47.397605086317775,8.545193661903596,498.06516,6.948822,-0.0,0.55684155,0.056043535,-0.040226106,0.17677605,1.0869273,1.0280021,0.0,2,0,0,0
688492000,47.39760595559013,8.545193584760094,498.06555,6.9292297,-0.0,0.53809166,0.06152442,-0.038547643,0.18630187,1.0865909,1.0282304,0.0,2,0,0,0
688692000,47.39760679134527,8.545193547350856,498.06348,6.9071655,-0.0,0.5170657,0.071510024,-0.039073493,0.19656736,1.0862782,1.0280603,0.0,2,0,0,0
688892000,47.39760759241681,8.545193552361996,498.06314,6.886841,-0.0,0.49621892,0.079916045,-0.043090403,0.2072866,1.08599,1.028293,0.0,2,0,0,0
689092000,47.397608366935266,8.54519357650547,498.0612,6.8648987,-0.0,0.47320867,0.08492285,-0.042171553,0.21355239,1.0857211,1.0281258,0.0,2,0,0,0
689292000,47.39760911165861,8.545193599204769,498.0604,6.844116,-0.0,0.46082845,0.083385155,-0.05012562,0.19460271,1.0854714,1.0279578,0.0,2,0,0,0
689492000,47.39760989272091,8.545193598185012,498.0635,6.82724,-0.0,0.52649516,0.07814697,-0.054063007,0.13950431,1.0852407,1.028187,0.0,2,0,0,0
689692000,47.397610929322994,8.54519359903845,498.0706,6.814331,-0.0,0.7509318,0.08765031,-0.05772068,0.08810783,1.0850261,1.0280213,0.0,2,0,0,0
689892000,47.39761248362582,8.545193616891344,498.0769,6.800659,-0.0,1.0968798,0.09234864,-0.04019648,0.054594897,1.0848299,1.02825,0.0,2,0,0,0
690092000,47.39761469032483,8.54519363714647,498.08084,6.784607,-0.0,1.4714361,0.091557495,-0.03342927,0.03821783,1.0846497,1.0280777,0.0,2,0,0,0
690292000,47.39761755136684,8.545193643991297,498.08353,6.7673035,-0.0,1.8313969,0.08984439,-0.03033389,0.033187978,1.0844876,1.0283056,0.0,2,0,0,0
690492000,47.39762105187146,8.54519363288998,498.08743,6.7512207,-0.0,2.1762812,0.08706938,-0.0142399,0.03402177,1.0843396,1.0281299,0.0,2,0,0,0
690692000,47.39762515079967,8.545193615727564,498.08746,6.731262,-0.0,2.4589849,0.0887701,0.008570469,0.03629766,1.084206,1.0279505,0.0,2,0,0,0
690892000,47.397629662219515,8.545193623091583,498.0836,6.7073975,-0.0,2.58498,0.09556159,0.018253528,0.03840301,1.0840858,1.028165,0.0,2,0,0,0
691092000,47.39763429382334,8.545193657999867,498.0797,6.6835327,-0.0,2.5466142,0.09943158,0.019445961,0.040886547,1.0839744,1.0279833,0.0,2,0,0,0
691292000,47.397638775310995,8.545193705528947,498.0761,6.6599426,-0.0,2.378693,0.10044086,0.008843717,0.04330155,1.0838705,1.0281951,0.0,2,0,0,0
691492000,47.3976429421233,8.545193772420708,498.07745,6.6412964,-0.0,2.1650217,0.105294466,-0.0014751258,0.045713942,1.0837682,1.0280104,0.0,2,0,0,0
691692000,47.397646798231214,8.545193859232617,498.07953,6.6233826,-0.0,2.006155,0.1114176,-0.00049921504,0.048096485,1.0836684,1.028228,0.0,2,0,0,0
691892000,47.39765042501806,8.545193955675764,498.08136,6.6052246,-0.0,1.8922936,0.1098471,-0.00040398602,0.05028476,1.0835683,1.0280492,0.0,2,0,0,0
692092000,47.3976538574677,8.545194043631348,498.08447,6.5883484,-0.0,1.7881835,0.105817296,-0.003268698,0.052836593,1.0834713,1.0278718,0.0,2,0,0,0
692292000,47.39765710819632,8.54519411777775,498.0892,6.5730896,-0.0,1.6957272,0.09926862,-0.0010652033,0.054992113,1.0833803,1.0280912,0.0,2,0,0,0
692500000,47.39766030093873,8.545194242631137,498.09308,6.5469666,-0.0,1.6180401,0.1020727,0.0016746188,0.057555128,1.093964,1.0283799,0.0,2,0,0,0
692692000,47.39766309037502,8.54519433619207,498.09598,6.5298767,-0.0,1.5499415,0.09986799,0.0038281423,0.059497233,1.0928743,1.0284487,0.0,2,0,0,0
692892000,47.39766585015353,8.545194451014002,498.09802,6.5119324,-0.0,1.4809736,0.09883979,0.005853624,0.06155281,1.0922806,1.0282648,0.0,2,0,0,0
693092000,47.397668500177225,8.54519454979621,498.09967,6.4935913,-0.0,1.4154446,0.093121745,0.0077857184,0.06358529,1.0917463,1.0284907,0.0,2,0,0,0
693292000,47.39767105643298,8.545194654255456,498.0992,6.4731445,-0.0,1.3573148,0.09439169,0.00675748,0.06567525,1.091261,1.0283123,0.0,2,0,0,0
693492000,47.397673509409366,8.545194765988272,498.09863,6.4525757,-0.0,1.2994735,0.09245013,0.00442493,0.06795657,1.0908282,1.0281345,0.0,2,0,0,0
693692000,47.397675865290076,8.545194881827035,498.10208,6.436035,-0.0,1.2378993,0.09075423,0.0001754573,0.06992813,1.0904579,1.02836,0.0,2,0,0,0
693892000,47.39767814095383,8.545194989912215,498.10635,6.4203186,-0.0,1.1866564,0.084047094,0.007923107,0.072225235,1.0901299,1.0281863,0.0,2,0,0,0
694100000,47.397680416501714,8.545195075799038,498.1099,6.4038696,-0.0,1.133312,0.08118035,0.0065535316,0.07467864,1.0902538,1.028162,0.0,2,0,0,0
694292000,47.397682420124255,8.545195165134317,498.1131,6.387085,-0.0,1.0826006,0.079936236,0.012122085,0.077244945,1.0895882,1.0282364,0.0,2,0,0,0
694492000,47.397684424167124,8.54519527507151,498.1146,6.3685913,-0.0,1.0351993,0.076569915,0.01437337,0.08047357,1.0893679,1.0284675,0.0,2,0,0,0
694692000,47.39768634737557,8.545195394030598,498.11505,6.34906,-0.0,0.9860102,0.07873128,0.010415695,0.08381946,1.0891774,1.0282938,0.0,2,0,0,0
694892000,47.39768818543984,8.545195515727146,498.1172,6.3312073,-0.0,0.9371351,0.077862,0.011870306,0.08672196,1.0890142,1.0281197,0.0,2,0,0,0
695092000,47.397689938685836,8.545195636512101,498.12045,6.3144836,-0.0,0.89057904,0.07280902,0.01675126,0.08954872,1.0888754,1.0283473,0.0,2,0,0,0
695292000,47.39769161004667,8.545195737405331,498.1235,6.2975464,-0.0,0.846723,0.07102373,0.01741773,0.09265005,1.0887582,1.0281752,0.0,2,0,0,0
695492000,47.397693191777805,8.545195852008534,498.1273,6.2813416,-0.0,0.805774,0.068831496,0.020670606,0.09576797,1.0886608,1.0284026,0.0,2,0,0,0
695692000,47.397694698592325,8.545195959390258,498.13065,6.2647095,-0.0,0.76428866,0.06813159,0.023966761,0.09925524,1.0885804,1.0282264,0.0,2,0,0,0
695892000,47.397696124512365,8.545196068191691,498.13293,6.2470093,-0.0,0.7211693,0.065344445,0.027298458,0.10270425,1.088515,1.0284573,0.0,2,0,0,0
696092000,47.39769748413954,8.54519616695877,498.13275,6.226837,-0.0,0.6823506,0.064164385,0.026187679,0.10618862,1.0884628,1.0282834,0.0,2,0,0,0
696292000,47.39769876032918,8.545196236838208,498.13452,6.208618,-0.0,0.6397559,0.061695315,0.026151638,0.110116825,1.0884224,1.0281087,0.0,2,0,0,0
696492000,47.397699963986476,8.545196299090694,498.13568,6.189789,-0.0,0.60196877,0.05988581,0.023530109,0.115733005,1.0883917,1.0283356,0.0,2,0,0,0
696692000,47.39770111754373,8.545196403915797,498.13766,6.1717834,-0.0,0.60101134,0.084030285,0.013630105,0.13970576,1.0883696,1.0281633,0.0,2,0,0,0
696892000,47.39770242411221,8.545196622595073,498.14127,6.1553955,-0.0,0.7944637,0.14390358,-0.0072060097,0.1689108,1.0883553,1.0283899,0.0,2,0,0,0
697092000,47.39770430438722,8.545197027979519,498.143,6.137146,-0.0,1.2129958,0.21715161,0.015749428,0.1923719,1.0883495,1.0282136,0.0,2,0,0,0
697292000,47.39770699579476,8.545197619965954,498.14404,6.1181946,-0.0,1.6695646,0.28871766,0.020937229,0.20499618,1.0883476,1.0284425,0.0,2,0,0,0
697492000,47.39771048926505,8.545198387582019,498.1438,6.1179504,-0.0,2.089382,0.356757,0.02152829,0.2099559,1.0883508,1.028264,0.0,2,0,0,0
697692000,47.397714605461346,8.54519932297358,498.14294,6.087097,-0.0,2.4980571,0.4186714,0.01987014,0.21104868,1.0877753,1.0280728,0.0,2,0,0,0
697892000,47.39771928421866,8.545200383974391,498.14294,6.067108,-0.0,2.8912427,0.48362485,0.02374703,0.21074963,1.087191,1.0282782,0.0,2,0,0,0
698092000,47.39772462457113,8.545201610723296,498.14148,6.0456543,-0.0,3.2786105,0.5475816,0.029302983,0.21042389,1.0866612,1.0280821,0.0,2,0,0,0
698292000,47.39773064854346,8.545203010695708,498.1356,6.0197754,-0.0,3.6439989,0.61188626,0.033290945,0.21038853,1.0862006,1.0282784,0.0,2,0,0,0
698492000,47.39773730470718,8.545204587338459,498.1282,5.992401,-0.0,3.941273,0.6803248,0.05653263,0.21050632,1.0857848,1.0280703,0.0,2,0,0,0
698692000,47.397744426627014,8.545206371315102,498.11874,5.9629517,-0.0,4.0845656,0.75841993,0.058382865,0.2115921,1.0854251,1.0282611,0.0,2,0,0,0
698892000,47.397751735813,8.545208346029764,498.11118,5.9353943,-0.0,4.0692606,0.8016937,0.038683366,0.21549308,1.0850991,1.0280492,0.0,2,0,0,0
699092000,47.39775908339393,8.54521039291482,498.10907,5.9132996,-0.0,4.0276985,0.8084058,0.020934567,0.21622641,1.0848079,1.0278363,0.0,2,0,0,0
699292000,47.3977665066514,8.545212477633457,498.10577,5.8900146,-0.0,4.041372,0.8211044,0.03563645,0.21583134,1.0845512,1.0280164,0.0,2,0,0,0
699492000,47.397773998957064,8.545214618456354,498.1031,5.86734,-0.0,4.0491924,0.83234787,0.02907942,0.21685141,1.0843121,1.0278063,0.0,2,0,0,0
699692000,47.39778148514342,8.545216795491694,498.103,5.8472595,-0.0,4.022342,0.83815444,0.015724208,0.21716289,1.0840989,1.0279856,0.0,2,0,0,0
699892000,47.39778896521479,8.545219026376582,498.10312,5.8273926,-0.0,4.0231605,0.8457982,0.022944914,0.2174403,1.0838994,1.0277747,0.0,2,0,0,0
700092000,47.39779647742708,8.545221303305842,498.10446,5.8087463,-0.0,4.036786,0.8582997,0.025238836,0.21826416,1.0837208,1.0279601,0.0,2,0,0,0
700292000,47.397804009897264,8.545223582972392,498.1078,5.7920837,-0.0,4.0366983,0.8600145,0.022853816,0.21869728,1.083552,1.027757,0.0,2,0,0,0
700492000,47.39781155262077,8.54522587361203,498.1107,5.774994,-0.0,4.0373683,0.86299574,0.025098905,0.21871683,1.0833966,1.0275573,0.0,2,0,0,0
700692000,47.39781911347526,8.545228196890967,498.11316,5.757477,-0.0,4.050026,0.871891,0.027725976,0.21947886,1.0832576,1.0277464,0.0,2,0,0,0
700892000,47.39782669719925,8.545230534944023,498.1144,5.738739,-0.0,4.0597887,0.8754152,0.027869213,0.22006038,1.0831251,1.0275558,0.0,2,0,0,0
701092000,47.39783429989033,8.545232869677987,498.11624,5.720581,-0.0,4.0653105,0.87795657,0.027271438,0.22111806,1.0830071,1.0277504,0.0,2,0,0,0
701292000,47.39784191978598,8.545235189056053,498.1188,5.7031555,-0.0,4.0765758,0.8802834,0.034212988,0.22160706,1.0828946,1.0275629,0.0,2,0,0,0
701492000,47.39784953213414,8.545237497817094,498.1168,5.6811523,-0.0,4.054636,0.87886,0.059736934,0.22183512,1.0827948,1.0277663,0.0,2,0,0,0
701692000,47.39785699368849,8.545239806554518,498.11108,5.6554565,-0.0,3.9180436,0.8672164,0.039562177,0.22334467,1.082698,1.0275873,0.0,2,0,0,0
701892000,47.39786414097888,8.545242066285882,498.1091,5.633484,-0.0,3.726681,0.84327644,0.03029595,0.22425613,1.0826226,1.0274111,0.0,2,0,0,0
702092000,47.39787097090057,8.54524426396069,498.10602,5.6104126,-0.0,3.5627744,0.82011557,0.035028066,0.22495316,1.0825664,1.0276197,0.0,2,0,0,0
702292000,47.39787751473239,8.5452464014032,498.10336,5.5877686,-0.0,3.39342,0.78792995,0.025475508,0.22537048,1.0825143,1.0274522,0.0,2,0,0,0
702492000,47.397883735509104,8.545248436345315,498.10107,5.5654907,-0.0,3.223671,0.74503636,0.019558655,0.22585146,1.0824689,1.0276663,0.0,2,0,0,0
702692000,47.39788959031336,8.54525035875234,498.0987,5.5331116,-0.0,3.069863,0.7054558,0.015376434,0.22581583,1.0923587,1.0277935,0.0,2,0,0,0
702892000,47.397895109120384,8.545252167331617,498.098,5.5124207,-0.0,2.9242463,0.6779926,0.010367419,0.22582501,1.0917968,1.0280123,0.0,2,0,0,0
703092000,47.397900344487724,8.545253907113157,498.09775,5.4921875,-0.0,2.788241,0.6557631,0.009944617,0.22642426,1.0912931,1.0278399,0.0,2,0,0,0
703292000,47.3979053082339,8.545255568999519,498.09787,5.4723206,-0.0,2.6604528,0.6262402,0.00930457,0.22703901,1.0908431,1.0276678,0.0,2,0,0,0
703492000,47.39791003672371,8.545257153699955,498.0985,5.4529724,-0.0,2.5369148,0.5969947,0.006205515,0.22716817,1.0904431,1.0278851,0.0,2,0,0,0
703692000,47.397914541535606,8.545258680447946,498.10062,5.435089,-0.0,2.4183097,0.5681152,0.0068375305,0.22769271,1.0900884,1.0277158,0.0,2,0,0,0
703892000,47.39791882887902,8.545260137890775,498.1029,5.417389,-0.0,2.3026166,0.54032505,0.0054441663,0.2274832,1.0897754,1.0279324,0.0,2,0,0,0
704092000,47.397922912339325,8.545261530969759,498.10406,5.3985596,-0.0,2.191288,0.5182424,0.0050038896,0.22779104,1.0894997,1.0277586,0.0,2,0,0,0
704292000,47.39792680013285,8.545262854439287,498.10538,5.379883,-0.0,2.0815318,0.4902333,0.0063829087,0.2281519,1.0892589,1.0279778,0.0,2,0,0,0
704492000,47.397930488382954,8.545264089521876,498.10654,5.3610535,-0.0,1.973095,0.46212995,0.0065410947,0.22836293,1.0890487,1.0278051,0.0,2,0,0,0
704692000,47.397933982184206,8.545265265435313,498.1051,5.33963,-0.0,1.8729184,0.43738076,0.0053380923,0.22859477,1.0888666,1.0276313,0.0,2,0,0,0
704892000,47.3979372857906,8.545266379493432,498.10507,5.3196106,-0.0,1.7711453,0.418868,8.893283e-05,0.2286325,1.0887101,1.0278448,0.0,2,0,0,0
705092000,47.39794040650943,8.545267441579043,498.1066,5.3011475,-0.0,1.6739769,0.3961343,0.0001730957,0.22917567,1.0885762,1.0276722,0.0,2,0,0,0
705292000,47.397943360138775,8.545268448499094,498.1055,5.28006,-0.0,1.582583,0.373228,-0.0013546378,0.22926569,1.0884625,1.0278845,0.0,2,0,0,0
705492000,47.397946159955204,8.545269392397852,498.10623,5.260803,-0.0,1.5036205,0.35128647,-0.004388217,0.22956538,1.0883663,1.0277079,0.0,2,0,0,0
705692000,47.39794881746848,8.54527026493813,498.10992,5.244507,-0.0,1.4293811,0.32973954,5.3493295e-05,0.22984207,1.0882858,1.0279238,0.0,2,0,0,0
705892000,47.397951326503495,8.545271082642103,498.1101,5.224701,-0.0,1.3483435,0.31211093,0.0023939854,0.23033771,1.0882179,1.0277505,0.0,2,0,0,0
706092000,47.39795368536208,8.545271837121984,498.1117,5.206299,-0.0,1.2651733,0.2911331,-0.0033248304,0.23091277,1.0881612,1.0275772,0.0,2,0,0,0
706292000,47.397955874472544,8.545272570823611,498.11325,5.187866,-0.0,1.1889764,0.27468058,0.0010456872,0.23231646,1.0881158,1.0277913,0.0,2,0,0,0
706492000,47.3979579137497,8.545273260610758,498.11133,5.1659546,-0.0,1.1209732,0.25819835,-0.0012236958,0.23344184,1.088078,1.0276225,0.0,2,0,0,0
706692000,47.39795982923209,8.545273909068003,498.10858,5.143219,-0.0,1.0577531,0.24648699,-0.0057687946,0.23441589,1.088048,1.0278387,0.0,2,0,0,0
706892000,47.3979616340934,8.545274522910551,498.1097,5.124359,-0.0,0.99867696,0.22992426,-0.004446274,0.23553483,1.0880241,1.0276693,0.0,2,0,0,0
707100000,47.3979633867575,8.545275131457256,498.11133,5.1059875,-0.0,0.9381675,0.21546564,-0.0040889657,0.23629197,1.0884124,1.0276502,0.0,2,0,0,0
707292000,47.39796489505694,8.545275668113868,498.1102,5.0848694,-0.0,0.8836587,0.20146096,-0.0061415895,0.23689595,1.0879905,1.0277294,0.0,2,0,0,0
707492000,47.39796635364631,8.54527617056083,498.10953,5.064209,-0.0,0.83294165,0.18550803,-0.0089014135,0.23763491,1.0879792,1.0275673,0.0,2,0,0,0
707692000,47.397967733656756,8.54527663821548,498.10757,5.062256,-0.0,0.7793119,0.17651461,-0.010089798,0.24501723,1.0879709,1.0277933,0.0,2,0,0,0
707892000,47.39796898057556,8.545277107670179,498.10757,5.032257,-0.0,0.65542066,0.18837896,-0.026011627,0.29486236,1.0873846,1.0276285,0.0,2,0,0,0
708092000,47.39796978904159,8.54527762699822,498.114,5.0187073,-0.0,0.31995603,0.20897652,-0.029989969,0.40009114,1.0867558,1.0278485,0.0,2,0,0,0
708292000,47.397969921911866,8.545278179526866,498.11984,5.004547,-0.0,-0.08775286,0.21189234,-0.01802503,0.5368061,1.0861783,1.0276805,0.0,2,0,0,0
708492000,47.397969457782146,8.5452787162973,498.12457,4.9892883,-0.0,-0.42311382,0.21089622,-0.01041279,0.69096535,1.085674,1.0279025,0.0,2,0,0,0
708692000,47.3979684776671,8.545279261636107,498.12772,4.9724426,-0.0,-0.7168582,0.21508296,-0.0040465477,0.85510075,1.0852065,1.0277342,0.0,2,0,0,0
708892000,47.39796697458527,8.545279781333319,498.12784,4.9525757,-0.0,-1.0013688,0.2009576,0.0073848856,1.0195915,1.0847842,1.0275654,0.0,2,0,0,0
709092000,47.3979649575935,8.545280258081144,498.12408,4.928833,-0.0,-1.2692956,0.1906586,0.009834299,1.1804072,1.0844133,1.0277832,0.0,2,0,0,0
709292000,47.39796248760286,8.545280722060008,498.1189,4.903656,-0.0,-1.4916166,0.17496182,0.013601118,1.3391186,1.084067,1.0276173,0.0,2,0,0,0
709492000,47.397959672421244,8.545281174054802,498.11258,4.87735,-0.0,-1.6381104,0.15367293,0.017779373,1.4973909,1.0837648,1.0278358,0.0,2,0,0,0
709692000,47.39795663760999,8.545281603725716,498.10736,4.8521423,-0.0,-1.6961552,0.13320762,0.017729588,1.6568321,1.0834842,1.0276676,0.0,2,0,0,0
709892000,47.397953550258336,8.545281980257393,498.10367,4.8284607,-0.0,-1.6518502,0.10466439,0.01766597,1.81809,1.0832437,1.0278927,0.0,2,0,0,0
710092000,47.39795059122958,8.545282288038834,498.10373,4.8085327,-0.0,-1.5231878,0.07830049,0.0119025465,1.9782896,1.0830249,1.0277313,0.0,2,0,0,0
710300000,47.39794772505088,8.545282525727211,498.1043,4.7891235,-0.0,-1.3985857,0.05830395,0.0057758777,2.14315,1.0832086,1.0277174,0.0,2,0,0,0
710492000,47.39794524682594,8.545282719599056,498.1036,4.7684326,-0.0,-1.310314,0.04651038,0.002211036,2.295624,1.082692,1.0278035,0.0,2,0,0,0
710692000,47.397942798344594,8.54528289745536,498.1041,4.748932,-0.0,-1.2407014,0.035567567,0.0024759658,2.4547143,1.0825725,1.0276513,0.0,2,0,0,0
710892000,47.3979404673454,8.545283033143958,498.10385,4.7286987,-0.0,-1.1826128,0.021407511,0.00021170147,2.6136637,1.0824962,1.0278838,0.0,2,0,0,0
711092000,47.39793824753312,8.545283129503057,498.10516,4.710022,-0.0,-1.127304,0.010458073,0.0004947523,2.7725353,1.0824481,1.0277264,0.0,2,0,0,0
711292000,47.397936125545485,8.545283211873466,498.10446,4.689331,-0.0,-1.072469,0.0037804435,0.000574513,2.9300416,1.0824422,1.0279604,0.0,2,0,0,0
711492000,47.39793411302955,8.545283286742341,498.1043,4.6691895,-0.0,-1.0253319,0.002804512,-0.00051702687,3.0666416,1.0824622,1.0278016,0.0,2,0,0,0
711692000,47.39793221967685,8.545283354058943,498.1044,4.649292,-0.0,-0.98005444,0.004692537,-0.0005417185,-3.1311593,1.0825124,1.0276397,0.0,2,0,0,0
711892000,47.397930427305006,8.545283409870233,498.10324,4.6281433,-0.0,-0.9361369,-0.00067228865,-0.0021687602,-3.0911238,1.0825951,1.0278642,0.0,2,0,0,0
712092000,47.397928714318176,8.54528346922873,498.1009,4.6058044,-0.0,-0.8989545,-0.004124055,-0.003066389,-3.0781238,1.0826946,1.027701,0.0,2,0,0,0
712292000,47.39792707671963,8.545283522048855,498.09952,4.584442,-0.0,-0.8615342,-0.0070762434,-0.0031008802,-3.0785344,1.0828184,1.0279226,0.0,2,0,0,0
712492000,47.39792550704768,8.545283552340662,498.09756,4.5625,-0.0,-0.8288427,-0.014944955,-0.0068980223,-3.0826192,1.0829518,1.0277538,0.0,2,0,0,0
712692000,47.397923996640024,8.545283573788192,498.0958,4.540741,-0.0,-0.7982208,-0.015702026,-0.010354657,-3.0867784,1.0831007,1.0279788,0.0,2,0,0,0
712892000,47.39792256053995,8.545283576837903,498.09598,4.5109253,-0.0,-0.7669254,-0.016800653,-0.013370828,-3.0902205,1.0938889,1.0281286,0.0,2,0,0,0
713092000,47.397921217049976,8.545283568128955,498.09753,4.4924927,-0.0,-0.7393677,-0.016078591,-0.011445163,-3.0924466,1.0934932,1.0279491,0.0,2,0,0,0
713292000,47.3979199281072,8.54528356930255,498.09738,4.472351,-0.0,-0.7087288,-0.01737713,-0.00854891,-3.0937216,1.0931493,1.0281682,0.0,2,0,0,0
713492000,47.39791869352292,8.545283578078024,498.09622,4.4512024,-0.0,-0.6827303,-0.016887821,-0.013114617,-3.0946078,1.0928398,1.0279946,0.0,2,0,0,0
713700000,47.39791746449627,8.545283580416923,498.097,4.4319763,-0.0,-0.6572298,-0.015658757,-0.011767215,-3.094857,1.0930256,1.0279698,0.0,2,0,0,0
713892000,47.39791637679483,8.545283586758787,498.09787,4.4128723,-0.0,-0.63607496,-0.013773902,-0.010038985,-3.0951457,1.0923201,1.0280437,0.0,2,0,0,0
714092000,47.39791529089446,8.545283589527598,498.09915,4.394165,-0.0,-0.6086133,-0.018245393,-0.011321878,-3.0952578,1.0920979,1.0282743,0.0,2,0,0,0
714292000,47.39791424770553,8.545283583883029,498.10327,4.378296,-0.0,-0.5857745,-0.016605433,-0.0034083189,-3.0951474,1.0918906,1.0281074,0.0,2,0,0,0
714492000,47.397913242819634,8.54528355806702,498.1044,4.359436,-0.0,-0.567182,-0.018969571,-0.0059391367,-3.0947511,1.0916972,1.0279417,0.0,2,0,0,0
714692000,47.39791227153682,8.545283519529768,498.10553,4.340576,-0.0,-0.54543513,-0.019425511,-0.0015992478,-3.0942702,1.091518,1.0281745,0.0,2,0,0,0
714892000,47.39791133987792,8.545283490368337,498.1055,4.3205566,-0.0,-0.5241421,-0.016596587,-0.001794768,-3.094272,1.0913447,1.0280141,0.0,2,0,0,0
715092000,47.39791043183902,8.545283475676307,498.1053,4.300354,-0.0,-0.50584745,-0.012924201,-0.002694307,-3.0944035,1.0911807,1.0282499,0.0,2,0,0,0
715292000,47.3979095500102,8.545283456220062,498.10535,4.280426,-0.0,-0.48466364,-0.011493492,-0.0011493439,-3.0941439,1.0910194,1.0280877,0.0,2,0,0,0
715492000,47.397908717153726,8.545283427387455,498.1044,4.259491,-0.0,-0.46841633,-0.009964109,-0.006071144,-3.0988603,1.0908641,1.0283297,0.0,2,0,0,0
715692000,47.39790785635471,8.545283408919369,498.10602,4.2411194,-0.0,-0.5266849,-0.0068861498,-0.018721597,-3.1119697,1.0907097,1.0281712,0.0,2,0,0,0
715892000,47.397906747486125,8.545283378517338,498.10938,4.2244873,-0.0,-0.76242787,-0.009238699,-0.024647042,-3.1239195,1.090556,1.0280119,0.0,2,0,0,0
716092000,47.39790507479189,8.54528334616754,498.11008,4.2052,-0.0,-1.1489271,-0.007888768,-0.012735023,-3.1314023,1.0903983,1.0282508,0.0,2,0,0,0
716292000,47.397902728868935,8.545283311819968,498.11014,4.185272,-0.0,-1.5440425,-0.00690194,-0.0076902136,-3.1349473,1.0902286,1.0280902,0.0,2,0,0,0
716492000,47.397899721244166,8.545283270431757,498.1101,4.1652527,-0.0,-1.9137104,-0.0049749594,-0.009487387,-3.1360612,1.0900589,1.0283229,0.0,2,0,0,0
716692000,47.39789605893331,8.545283235585476,498.1128,4.147949,-0.0,-2.269052,-0.0037861646,-0.0025893794,-3.136199,1.0898876,1.0281513,0.0,2,0,0,0
716892000,47.39789173939767,8.545283212298607,498.11465,4.129822,-0.0,-2.6154962,0.0011278451,0.004292939,-3.1363173,1.0896976,1.0283811,0.0,2,0,0,0
717092000,47.39788679178913,8.545283193323524,498.11642,4.111603,-0.0,-2.9464722,0.0004036914,0.005661011,-3.136313,1.0895073,1.028205,0.0,2,0,0,0
717292000,47.397881244144536,8.545283173161122,498.11618,4.0913696,-0.0,-3.2680109,0.00060751446,0.0060328124,-3.1364243,1.0893229,1.0280256,0.0,2,0,0,0
717492000,47.39787507885613,8.54528314180194,498.11844,4.073639,-0.0,-3.6002312,-0.0005634342,0.013080982,-3.1362376,1.0891494,1.0282428,0.0,2,0,0,0
717692000,47.397868286206574,8.545283086854447,498.11807,4.0532837,-0.0,-3.8967984,0.00073148636,0.044370793,-3.1363108,1.08898,1.0280613,0.0,2,0,0,0
717892000,47.397861070559145,8.545283025042243,498.11417,4.0493774,-0.0,-4.040988,-0.0012220507,0.051948167,-3.136221,1.0888221,1.0282739,0.0,2,0,0,0
718092000,47.39785385903708,8.545282973873116,498.11038,4.0155945,-0.0,-4.026969,0.0045052106,0.026258139,-3.1368392,1.0881286,1.0280775,0.0,2,0,0,0
718292000,47.397846836020065,8.545282917888114,498.1111,3.996338,-0.0,-4.011142,0.0073180655,0.022067036,-3.137228,1.0875056,1.0282848,0.0,2,0,0,0
718492000,47.39783979000061,8.545282860838961,498.1092,3.9744263,-0.0,-4.0580354,0.0054148166,0.035438087,-3.1373959,1.0869415,1.0280936,0.0,2,0,0,0
718692000,47.39783265231447,8.545282801687113,498.1075,3.9527588,-0.0,-4.081149,0.0057137813,0.027073395,-3.1377382,1.0864319,1.0279037,0.0,2,0,0,0
718900000,47.39782520551913,8.545282749379167,498.10883,3.934082,-0.0,-4.0801225,0.00786684,0.022851802,-3.138437,1.0863646,1.0282594,0.0,2,0,0,0
719092000,47.39781827952925,8.54528271551603,498.10803,3.9132996,-0.0,-4.10498,0.009867519,0.029594986,-3.1386988,1.0855598,1.0279282,0.0,2,0,0,0
719292000,47.39781097753268,8.545282681249768,498.10706,3.892334,-0.0,-4.1287885,0.010682669,0.026266625,-3.1390443,1.0851899,1.0281398,0.0,2,0,0,0
719492000,47.39780361884906,8.545282638038612,498.1078,3.8730774,-0.0,-4.135842,0.010103123,0.022891901,-3.1388874,1.0848548,1.0279577,0.0,2,0,0,0
719692000,47.3977962089417,8.545282595157214,498.1076,3.8529053,-0.0,-4.1443725,0.009785325,0.023520987,-3.139118,1.0845581,1.0281775,0.0,2,0,0,0
719892000,47.39778873484709,8.545282560258526,498.10583,3.8311462,-0.0,-4.1652117,0.011919649,0.026253337,-3.1392293,1.0842913,1.0280026,0.0,2,0,0,0
720092000,47.3977812020264,8.545282534280123,498.1062,3.8115234,-0.0,-4.174829,0.012015478,0.01941995,-3.139372,1.0840542,1.0278294,0.0,2,0,0,0
720292000,47.39777363721716,8.54528251891965,498.10825,3.793579,-0.0,-4.1850324,0.015351527,0.02152864,-3.14007,1.0838479,1.0280516,0.0,2,0,0,0
720492000,47.397766037600896,8.545282515925633,498.109,3.774353,-0.0,-4.202764,0.017553275,0.023671206,-3.1404655,1.0836642,1.0278842,0.0,2,0,0,0
720692000,47.39775839761993,8.545282509358833,498.10718,3.752533,-0.0,-4.21434,0.0141049465,0.030149518,-3.140451,1.0835066,1.0281094,0.0,2,0,0,0
720900000,47.39775046356735,8.54528249797913,498.1049,3.7302551,-0.0,-4.155882,0.013106524,0.045838486,-3.14034,1.0837445,1.0280881,0.0,2,0,0,0
721092000,47.39774330807296,8.545282488444494,498.10342,3.7088013,-0.0,-3.9903295,0.012867815,0.033625353,-3.1404936,1.0832496,1.0281714,0.0,2,0,0,0
721292000,47.39773618811107,8.545282488893848,498.1024,3.6877747,-0.0,-3.7753813,0.010377967,0.022353478,-3.1409495,1.0831718,1.0280067,0.0,2,0,0,0
721492000,47.397729420851626,8.54528249184975,498.10165,3.6670532,-0.0,-3.5978534,0.008793803,0.023256432,-3.1408865,1.0831165,1.0278422,0.0,2,0,0,0
721692000,47.397722942798296,8.545282483831379,498.10278,3.6481934,-0.0,-3.4363556,0.0034373184,0.021540513,-3.1412222,1.0830785,1.028072,0.0,2,0,0,0
721892000,47.39771674844385,8.545282470287006,498.10226,3.6276855,-0.0,-3.2721,0.0040706038,0.022744719,-3.1410701,1.0830547,1.0279104,0.0,2,0,0,0
722092000,47.397710860008175,8.54528247828027,498.09995,3.6053772,-0.0,-3.1091397,0.0053601707,0.018495675,3.1415002,1.0830438,1.0281403,0.0,2,0,0,0
722292000,47.39770526833143,8.545282492961627,498.0938,3.5792542,-0.0,-2.9562516,0.0029800907,0.0131054465,3.1414309,1.0830442,1.0279737,0.0,2,0,0,0
722492000,47.397699944862076,8.545282503738871,498.0888,3.5542603,-0.0,-2.815703,0.0026175738,0.0037707093,-3.1414204,1.0830542,1.0282062,0.0,2,0,0,0
722692000,47.39769488508459,8.545282526956726,498.0874,3.5328674,-0.0,-2.683296,-0.0008445326,-0.005266319,-3.1412075,1.0830718,1.0280396,0.0,2,0,0,0
722892000,47.39769006539185,8.545282547309608,498.08664,3.5121155,-0.0,-2.5681603,-0.002301836,-0.005718791,-3.1410615,1.0830957,1.0278708,0.0,2,0,0,0
723092000,47.39768548595108,8.54528257001768,498.08273,3.4782104,-0.0,-2.4480553,-0.003224643,-0.008848622,-3.1407213,1.0934272,1.0284097,0.0,2,0,0,0
723292000,47.397681223016924,8.545282618900638,498.078,3.4534912,-0.0,-2.319172,-0.0049113426,-0.020822454,-3.1403227,1.0929061,1.0282263,0.0,2,0,0,0
723492000,47.3976772176209,8.545282675054754,498.07425,3.4297485,-0.0,-2.2086744,-0.0052905995,-0.025979254,-3.139923,1.0924404,1.0284413,0.0,2,0,0,0
723700000,47.39767323590919,8.545282737543863,498.07294,3.4084473,-0.0,-2.1136885,-0.008603125,-0.026016422,-3.1394303,1.0924581,1.0283997,0.0,2,0,0,0
723892000,47.39766975354418,8.545282788069125,498.07364,3.3891602,-0.0,-2.012631,-0.010476075,-0.031760287,-3.138397,1.091647,1.0284642,0.0,2,0,0,0
724092000,47.397666315597355,8.545282823845882,498.07425,3.3697815,-0.0,-1.9145753,-0.013473551,-0.03064616,-3.1375012,1.09131,1.0282719,0.0,2,0,0,0
724292000,47.39766304103475,8.545282863701464,498.07504,3.350586,-0.0,-1.8298051,-0.015549235,-0.032936864,-3.136715,1.0910072,1.0280781,0.0,2,0,0,0
724492000,47.39765990972705,8.545282892963792,498.0789,3.3344421,-0.0,-1.7407796,-0.019147351,-0.03251346,-3.1359432,1.0907359,1.0282838,0.0,2,0,0,0
724692000,47.39765692929029,8.545282917663881,498.08075,3.3163147,-0.0,-1.6523403,-0.022998987,-0.027616164,-3.1351066,1.0904918,1.028091,0.0,2,0,0,0
724892000,47.39765411402164,8.54528293113707,498.07996,3.2955322,-0.0,-1.5686244,-0.024362963,-0.03129989,-3.134258,1.0902727,1.0282944,0.0,2,0,0,0
725092000,47.39765142355967,8.545282942835648,498.08215,3.2777405,-0.0,-1.4905849,-0.028926803,-0.02818952,-3.1331594,1.0900759,1.0280977,0.0,2,0,0,0
725292000,47.39764887534059,8.545282956890025,498.0819,3.2575073,-0.0,-1.4106562,-0.026158666,-0.027891045,-3.1322908,1.0898992,1.0283046,0.0,2,0,0,0
725492000,47.3976464743475,8.545282996233393,498.08032,3.2359314,-0.0,-1.3340145,-0.024933442,-0.031414244,-3.1312978,1.08974,1.0281116,0.0,2,0,0,0
725692000,47.39764420567414,8.545283024324727,498.08102,3.2166443,-0.0,-1.2612301,-0.02969773,-0.031454355,-3.1297858,1.0895975,1.0279194,0.0,2,0,0,0
725892000,47.39764206324835,8.545283061233803,498.0844,3.2000427,-0.0,-1.189181,-0.0286647,-0.027169626,-3.1284757,1.0894697,1.0281246,0.0,2,0,0,0
726100000,47.397639963293884,8.5452831010061,498.08478,3.18042,-0.0,-1.1218642,-0.029601585,-0.026658375,-3.1271157,1.089773,1.0280843,0.0,2,0,0,0
726292000,47.39763813658124,8.545283127295525,498.0857,3.1613464,-0.0,-1.0624082,-0.031256914,-0.028308108,-3.1252742,1.08925,1.0281452,0.0,2,0,0,0
726492000,47.397636324706085,8.545283138051081,498.08643,3.1420898,-0.0,-1.0045894,-0.03582586,-0.028346537,-3.1230483,1.0891558,1.0279585,0.0,2,0,0,0
726692000,47.397634612576766,8.545283143180415,498.08914,3.124817,-0.0,-0.94644797,-0.040011525,-0.026441706,-3.120829,1.0890713,1.0281732,0.0,2,0,0,0
726892000,47.39763300705458,8.545283155176389,498.09192,3.107605,-0.0,-0.8878826,-0.035789397,-0.024116239,-3.1183946,1.0889941,1.0279933,0.0,2,0,0,0
727092000,47.39763151809698,8.545283172999975,498.0942,3.0899048,-0.0,-0.835144,-0.034939785,-0.022845471,-3.1163743,1.0889239,1.0278152,0.0,2,0,0,0
727292000,47.397630137041546,8.545283182485848,498.09445,3.07016,-0.0,-0.78255993,-0.037884146,-0.02230891,-3.11588,1.0888605,1.0280327,0.0,2,0,0,0
727492000,47.39762883082554,8.545283199167985,498.09445,3.050171,-0.0,-0.77707785,-0.03722747,-0.04060245,-3.121909,1.0888025,1.0278615,0.0,2,0,0,0
727692000,47.39762736439013,8.545283231688964,498.0986,3.0343323,-0.0,-0.9817552,-0.035427596,-0.059973154,-3.1284776,1.0887506,1.0280831,0.0,2,0,0,0
727892000,47.397625287343764,8.545283274704698,498.10376,3.0195007,-0.0,-1.439683,-0.038653232,-0.04480979,-3.132918,1.0887014,1.0279129,0.0,2,0,0,0
728092000,47.397622279324644,8.54528329020629,498.1032,3.0189514,-0.0,-1.9950068,-0.041652065,-0.033965923,-3.1348019,1.088649,1.0281422,0.0,2,0,0,0
728292000,47.39761838502539,8.545283269222914,498.10162,2.9873657,-0.0,-2.5034726,-0.044504285,-0.008284282,-3.1350977,1.0880429,1.0279663,0.0,2,0,0,0
728492000,47.39761389531294,8.545283265728193,498.0935,2.959259,-0.0,-2.8502665,-0.040521078,0.018276205,-3.134897,1.0873997,1.0277865,0.0,2,0,0,0
728700000,47.3976088662868,8.545283276782277,498.08334,2.9291077,-0.0,-2.9369156,-0.0360815,0.01927701,-3.1347535,1.0871985,1.0281419,0.0,2,0,0,0
728892000,47.39760423105521,8.545283280814598,498.0772,2.9029846,-0.0,-2.792804,-0.03335655,0.008816641,-3.1347017,1.0862459,1.0278105,0.0,2,0,0,0
729092000,47.39759964144253,8.545283275014501,498.0734,2.879181,-0.0,-2.5579453,-0.032903228,-0.0122673465,-3.1342375,1.0857563,1.0280113,0.0,2,0,0,0
729292000,47.39759529923037,8.545283251119724,498.07175,2.857544,-0.0,-2.3818567,-0.035084352,-0.014694142,-3.1338074,1.0853055,1.0278165,0.0,2,0,0,0
729492000,47.39759112371299,8.545283225779515,498.07037,2.8361816,-0.0,-2.2611675,-0.031337604,-0.01938476,-3.1333659,1.0849097,1.0280151,0.0,2,0,0,0
729700000,47.397586963616405,8.545283225627724,498.06906,2.8148804,-0.0,-2.1376626,-0.026995834,-0.021653466,-3.1328766,1.0849237,1.0279645,0.0,2,0,0,0
729892000,47.397583306777484,8.545283218884295,498.06656,2.792389,-0.0,-2.0279987,-0.029213587,-0.027002467,-3.1326802,1.0842109,1.0276252,0.0,2,0,0,0
730092000,47.39757966939023,8.545283188827439,498.06583,2.7716675,-0.0,-1.9229943,-0.032045007,-0.027487302,-3.1320958,1.0839202,1.0278189,0.0,2,0,0,0
730292000,47.397576206450964,8.545283142095434,498.065,2.7508545,-0.0,-1.8242635,-0.029592782,-0.03238092,-3.131886,1.0836499,1.0276293,0.0,2,0,0,0
730492000,47.39757292881766,8.54528308601163,498.0646,2.7304688,-0.0,-1.7305609,-0.027701655,-0.03207262,-3.1315675,1.0834143,1.0278257,0.0,2,0,0,0
730692000,47.39756982096665,8.545283010313206,498.0648,2.7106628,-0.0,-1.6392502,-0.023032663,-0.03362491,-3.131422,1.0831951,1.0276374,0.0,2,0,0,0
730900000,47.39756676169353,8.545282935704133,498.0662,2.6920776,-0.0,-1.5445089,-0.020449754,-0.035281066,-3.131378,1.0833693,1.0276002,0.0,2,0,0,0
731100000,47.397563996340494,8.545282879085045,498.068,2.6738892,-0.0,-1.4627479,-0.016397964,-0.034242157,-3.1319015,1.0831994,1.0278063,0.0,2,0,0,0
731292000,47.39756148269355,8.545282839366557,498.0681,2.6540222,-0.0,-1.3863604,-0.01389744,-0.03554186,-3.1323678,1.0826993,1.0274868,0.0,2,0,0,0
731492000,47.39755900184352,8.545282805070745,498.06757,2.633484,-0.0,-1.3110042,-0.008958777,-0.033998318,-3.1322489,1.0826188,1.0276983,0.0,2,0,0,0
731692000,47.397556655731876,8.545282777540029,498.065,2.6109314,-0.0,-1.2396044,-0.005863621,-0.039237607,-3.1323986,1.082552,1.0275313,0.0,2,0,0,0
731892000,47.397554446159674,8.545282735513688,498.06464,2.5905762,-0.0,-1.1675116,-0.0038930485,-0.04155999,-3.132488,1.0824972,1.0277485,0.0,2,0,0,0
732092000,47.39755237480793,8.545282690521654,498.0645,2.570465,-0.0,-1.0970469,-0.0024812564,-0.043945387,-3.132655,1.0824537,1.0275836,0.0,2,0,0,0
732292000,47.39755043478107,8.545282643045445,498.0648,2.5507507,-0.0,-1.0339441,-0.0012943948,-0.045290887,-3.1328707,1.0824203,1.0278101,0.0,2,0,0,0
732492000,47.39754863064185,8.545282600357758,498.06732,2.5332947,-0.0,-0.968125,0.0023910438,-0.042657126,-3.1334953,1.0823954,1.0276525,0.0,2,0,0,0
732692000,47.3975469396966,8.545282565727671,498.0713,2.517273,-0.0,-0.91302145,0.0036116838,-0.038306937,-3.1340134,1.0823784,1.0274963,0.0,2,0,0,0
732900000,47.39754527350339,8.545282514854147,498.07413,2.500122,-0.0,-0.8587916,0.005674851,-0.039058324,-3.1347132,1.0827396,1.0278713,0.0,2,0,0,0
733092000,47.39754382743718,8.545282473710037,498.07712,2.4831238,-0.0,-0.81206375,0.012542986,-0.034259684,-3.1357443,1.0823634,1.027576,0.0,2,0,0,0
733292000,47.397542412418396,8.545282469106784,498.07986,2.4558716,-0.0,-0.7621269,0.019786352,-0.035789914,-3.138187,1.0923048,1.0281112,0.0,2,0,0,0
733500000,47.397541059322705,8.545282497623228,498.0852,2.4412231,-0.0,-0.75540966,0.08068344,-0.054017797,3.109438,1.0922064,1.0280956,0.0,2,0,0,0
733692000,47.39753971859543,8.54528284956081,498.09338,2.4294128,-0.0,-0.8879994,0.32054088,-0.06671091,3.0342953,1.091205,1.028184,0.0,2,0,0,0
733892000,47.3975379856455,8.545284057706665,498.10242,2.418457,-0.0,-1.1198013,0.75578076,-0.043645393,2.9123712,1.0906725,1.028023,0.0,2,0,0,0
734092000,47.3975359164102,8.545286366165671,498.102,2.3980408,-0.0,-1.316306,1.210148,0.0009987471,2.7465062,1.09019,1.0278584,0.0,2,0,0,0
734292000,47.397533669573235,8.545289615316706,498.09525,2.3713074,-0.0,-1.3628439,1.5233133,0.007569423,2.5673087,1.0897638,1.0280832,0.0,2,0,0,0
734492000,47.39753142870701,8.545293425557405,498.08966,2.3457336,-0.0,-1.2963299,1.6511523,0.01111507,2.398628,1.0893728,1.0279111,0.0,2,0,0,0
734692000,47.397529298753696,8.54529739969966,498.08618,2.3222656,-0.0,-1.1913722,1.6138123,0.011129467,2.2391973,1.0890371,1.0281279,0.0,2,0,0,0
734892000,47.397527335460246,8.545301198889629,498.08414,2.300232,-0.0,-1.0413857,1.4439886,0.00022449209,2.0873685,1.088732,1.027948,0.0,2,0,0,0
735092000,47.39752564198548,8.545304613611314,498.083,2.2791138,-0.0,-0.8533,1.2513736,-0.013076281,1.9594039,1.0884752,1.0281677,0.0,2,0,0,0
735292000,47.39752421676871,8.545307737067263,498.0849,2.2610168,-0.0,-0.72283196,1.1626067,-0.018353347,1.8722506,1.0882453,1.0279915,0.0,2,0,0,0
735492000,47.397522940681526,8.545310767674522,498.08698,2.243103,-0.0,-0.6592491,1.144052,-0.010701207,1.8203641,1.0880506,1.027816,0.0,2,0,0,0
735692000,47.3975218000871,8.545313681967874,498.09167,2.2278137,-0.0,-0.5947216,1.0913332,-0.011479765,1.7911541,1.0878968,1.0280352,0.0,2,0,0,0
735892000,47.3975207771974,8.545316428810274,498.09924,2.215393,-0.0,-0.5360099,1.0351186,-0.0054285363,1.7720695,1.0877665,1.027865,0.0,2,0,0,0
736092000,47.39751985525393,8.5453190692725,498.1059,2.202057,-0.0,-0.4824726,0.9983907,0.0031058122,1.7570244,1.0876743,1.0280869,0.0,2,0,0,0
736292000,47.397519018990494,8.545321648131361,498.11313,2.1893005,-0.0,-0.43649518,0.9594791,0.0105265295,1.7421545,1.0876031,1.027916,0.0,2,0,0,0
736492000,47.397518256794285,8.545324133660598,498.1174,2.173584,-0.0,-0.3963519,0.916283,0.009888848,1.7272496,1.0875664,1.0281447,0.0,2,0,0,0
736692000,47.39751756768751,8.545326507082903,498.12042,2.1566162,-0.0,-0.36211967,0.8775514,0.018092161,1.7119212,1.0875475,1.027979,0.0,2,0,0,0
736892000,47.397516935769254,8.54532879710919,498.12482,2.1410217,-0.0,-0.32762244,0.8394211,0.01809233,1.6960171,1.0875509,1.0278139,0.0,2,0,0,0
737100000,47.39751633874049,8.545331060451671,498.1294,2.1256104,-0.0,-0.29640442,0.79520965,0.022810359,1.6793084,1.087991,1.0281911,0.0,2,0,0,0
737292000,47.397515853292575,8.545333043425996,498.13318,2.1094055,-0.0,-0.26917982,0.7583732,0.026822051,1.6632149,1.0876207,1.0278829,0.0,2,0,0,0
737492000,47.397515391516045,8.5453350291116,498.1349,2.0911255,-0.0,-0.24407628,0.7193596,0.028594451,1.6465988,1.0876802,1.0281147,0.0,2,0,0,0
737692000,47.39751497085542,8.545336902741175,498.1362,2.0724487,-0.0,-0.22126032,0.6809968,0.0312144,1.6295676,1.087744,1.0279522,0.0,2,0,0,0
737892000,47.39751457901193,8.54533868071011,498.13617,2.0524292,-0.0,-0.20073576,0.6440322,0.026724419,1.612062,1.0878215,1.02819,0.0,2,0,0,0
738092000,47.39751422756395,8.545340355542896,498.1399,2.0561523,-0.0,-0.17990208,0.60985357,0.027457472,1.594255,1.0878981,1.0280315,0.0,2,0,0,0
738292000,47.39751394743875,8.545341946042052,498.14484,2.0310974,-0.0,-0.117606364,0.5996974,0.024381705,1.5528342,1.0874132,1.0278633,0.0,2,0,0,0
