timestamp,rollspeed,pitchspeed,yawspeed,q[0],q[1],q[2],q[3],delta_q_reset[0],delta_q_reset[1],delta_q_reset[2],delta_q_reset[3],quat_reset_counter
657300000,2.3510338e-06,-1.721697e-06,9.346873e-10,-0.97896755,-0.00061447936,-5.7681675e-05,-0.20403728,0.0,0.0,0.0,0.0,0
657312000,2.3510343e-06,-1.7216951e-06,9.346909e-10,-0.97896755,-0.00061449,-5.767334e-05,-0.20403728,0.0,0.0,0.0,0.0,0
657324000,2.3425832e-06,-1.738971e-06,9.462792e-10,-0.97896755,-0.0006145204,-5.767094e-05,-0.20403728,0.0,0.0,0.0,0.0,0
657336000,1.9766678e-06,-6.470543e-07,2.738084e-10,-0.97896755,-0.00061452866,-5.762403e-05,-0.20403728,0.0,0.0,0.0,0.0,0
657348000,1.8597483e-06,1.0242015e-07,-1.9813379e-10,-0.97896755,-0.0006145665,-5.7534002e-05,-0.20403728,0.0,0.0,0.0,0.0,0
657360000,1.4279498e-06,1.449929e-06,-1.027827e-09,-0.97896755,-0.000614573,-5.746155e-05,-0.20403726,0.0,0.0,0.0,0.0,0
657372000,8.9863613e-07,9.623969e-07,-6.787391e-10,-0.97896755,-0.0006146183,-5.7416684e-05,-0.20403726,0.0,0.0,0.0,0.0,0
657384000,8.044594e-07,2.6643104e-07,-2.2791558e-10,-0.97896755,-0.00061457645,-5.7378995e-05,-0.20403726,0.0,0.0,0.0,0.0,0
657396000,7.427951e-07,4.821383e-07,-3.6108053e-10,-0.97896755,-0.00061462115,-5.738235e-05,-0.20403726,0.0,0.0,0.0,0.0,0
657404000,1.007707e-06,8.969281e-07,-6.452747e-10,-0.97896755,-0.000614625,-5.7380817e-05,-0.20403726,0.0,0.0,0.0,0.0,0
657420000,7.993185e-07,9.279993e-07,-6.499031e-10,-0.97896755,-0.00061463,-5.7374942e-05,-0.20403726,0.0,0.0,0.0,0.0,0
657432000,7.795931e-07,8.15276e-07,-5.766254e-10,-0.97896755,-0.0006146784,-5.7386347e-05,-0.20403726,0.0,0.0,0.0,0.0,0
657444000,5.3853944e-07,4.969575e-07,-3.5603737e-10,-0.97896755,-0.0006146181,-5.7386198e-05,-0.20403726,0.0,0.0,0.0,0.0,0
657456000,4.514481e-07,4.8776224e-07,-3.439563e-10,-0.97896755,-0.00061466655,-5.7392994e-05,-0.20403726,0.0,0.0,0.0,0.0,0
657468000,3.917278e-07,7.678783e-07,-5.187092e-10,-0.97896755,-0.0006146098,-5.7376863e-05,-0.20403726,0.0,0.0,0.0,0.0,0
657480000,3.3923703e-07,6.423018e-07,-4.348356e-10,-0.97896755,-0.00061465555,-5.738227e-05,-0.20403726,0.0,0.0,0.0,0.0,0
657492000,3.8543953e-07,5.5675156e-07,-3.834487e-10,-0.97896755,-0.0006146995,-5.739508e-05,-0.20403726,0.0,0.0,0.0,0.0,0
657504000,8.477232e-07,9.026347e-07,-6.381023e-10,-0.97896755,-0.0006146307,-5.738039e-05,-0.20403726,0.0,0.0,0.0,0.0,0
657516000,7.830122e-07,8.0827414e-07,-5.722638e-10,-0.97896755,-0.0006146853,-5.7390193e-05,-0.20403726,0.0,0.0,0.0,0.0,0
657528000,1.057397e-06,7.5500475e-07,-5.582834e-10,-0.97896755,-0.00061461754,-5.7373687e-05,-0.20403726,0.0,0.0,0.0,0.0,0
657540000,2.8074949e-06,2.8322374e-08,-2.200615e-10,-0.97896755,-0.0006146792,-5.7387588e-05,-0.20403726,0.0,0.0,0.0,0.0,0
657552000,2.4853007e-06,-1.8820747e-07,-6.084958e-11,-0.97896755,-0.00061463064,-5.7371588e-05,-0.20403726,0.0,0.0,0.0,0.0,0
657564000,1.5353445e-06,-6.7762085e-07,3.1909336e-10,-0.97896755,-0.00061471306,-5.7374033e-05,-0.20403726,0.0,0.0,0.0,0.0,0
657576000,1.4133414e-05,-2.7843212e-06,-5.3748925e-09,-0.97896755,-0.0006146515,-5.733493e-05,-0.20403726,0.0,0.0,0.0,0.0,0
657588000,0.0037910324,-6.4514443e-06,1.115313e-06,-0.97896755,-0.00061777997,-5.8058915e-05,-0.20403731,0.0,0.0,0.0,0.0,0
657600000,0.014885448,-1.3442101e-05,4.080419e-06,-0.97896755,-0.00065911625,-6.678457e-05,-0.20403738,0.0,0.0,0.0,0.0,0
657612000,0.03180419,-2.5279498e-05,9.7749235e-06,-0.9789674,-0.00077584805,-9.113369e-05,-0.20403756,0.0,0.0,0.0,0.0,0
657624000,0.055171605,-5.2410873e-05,1.8841285e-05,-0.97896713,-0.0010055667,-0.0001389434,-0.20403796,0.0,0.0,0.0,0.0,0
657636000,0.084786125,8.878208e-06,0.0007557438,-0.9789665,-0.0013834276,-0.00021752423,-0.20403872,0.0,0.0,0.0,0.0,0
657648000,0.11859577,-0.0035344095,0.0015992307,-0.9789642,-0.0019477976,-0.00032964576,-0.20404492,0.0,0.0,0.0,0.0,0
657660000,0.14089476,-0.008021857,0.0017240888,-0.97896045,-0.0027032702,-0.0004555005,-0.20405388,0.0,0.0,0.0,0.0,0
657672000,0.14866036,-0.011998124,0.001596486,-0.97895575,-0.0035619114,-0.0005757407,-0.20406315,0.0,0.0,0.0,0.0,0
657684000,0.14833052,-0.015892778,0.0014604611,-0.9789503,-0.004452584,-0.0006793767,-0.20407124,0.0,0.0,0.0,0.0,0
657696000,0.14466543,-0.018578937,0.0012906197,-0.9789443,-0.0053416155,-0.0007622989,-0.20407845,0.0,0.0,0.0,0.0,0
657704000,0.13929966,-0.020253701,0.0010763152,-0.9789401,-0.0059176404,-0.00080350396,-0.20408241,0.0,0.0,0.0,0.0,0
657720000,0.12803337,-0.02269858,0.0005099348,-0.9789319,-0.007009808,-0.0008541983,-0.20408705,0.0,0.0,0.0,0.0,0
657732000,0.11779973,-0.024543801,0.00037771594,-0.97892594,-0.00777027,-0.0008710287,-0.20408806,0.0,0.0,0.0,0.0,0
657744000,0.10244774,-0.025454307,0.00036821014,-0.9789201,-0.008466874,-0.00086324324,-0.20408846,0.0,0.0,0.0,0.0,0
657756000,0.08702658,-0.025144001,0.00021785343,-0.97891474,-0.009069658,-0.00083295954,-0.20408855,0.0,0.0,0.0,0.0,0
657768000,0.07320384,-0.023586005,0.0002944486,-0.97890997,-0.009579395,-0.0007905622,-0.20408814,0.0,0.0,0.0,0.0,0
657780000,0.062204108,-0.022951877,0.00041520863,-0.9789056,-0.010013176,-0.0007384509,-0.20408852,0.0,0.0,0.0,0.0,0
657788000,0.0514204,-0.022511989,0.00047165673,-0.9789029,-0.010264938,-0.00069648726,-0.20408912,0.0,0.0,0.0,0.0,0
657804000,0.033776995,-0.020700991,0.00040347362,-0.9788985,-0.010653451,-0.0006007975,-0.2040906,0.0,0.0,0.0,0.0,0
657816000,0.020493047,-0.019721169,0.00046462027,-0.9788962,-0.010848907,-0.00051722943,-0.20409165,0.0,0.0,0.0,0.0,0
657824000,0.013905293,-0.018656775,0.00059577543,-0.97889495,-0.010940735,-0.0004564385,-0.20409273,0.0,0.0,0.0,0.0,0
657840000,-0.003981847,-0.018764561,0.00071817474,-0.97889346,-0.011022727,-0.00032210248,-0.20409591,0.0,0.0,0.0,0.0,0
657852000,-0.013516899,-0.017962482,0.00087684696,-0.9788929,-0.01100572,-0.00020496544,-0.20409933,0.0,0.0,0.0,0.0,0
657864000,-0.024234084,-0.015444612,0.00082606316,-0.97889304,-0.010925986,-8.392556e-05,-0.20410329,0.0,0.0,0.0,0.0,0
657876000,-0.03605664,-0.01374185,0.00083371106,-0.9788939,-0.010780518,3.7497954e-05,-0.20410712,0.0,0.0,0.0,0.0,0
657888000,-0.044058446,-0.011134753,0.00075691665,-0.9788953,-0.010569728,0.00016053715,-0.20411101,0.0,0.0,0.0,0.0,0
657900000,-0.051047575,-0.010336709,0.000712476,-0.9788974,-0.010307093,0.0002809917,-0.20411451,0.0,0.0,0.0,0.0,0
657912000,-0.056787636,-0.009502027,0.00072183326,-0.9788997,-0.010009516,0.00040710924,-0.20411797,0.0,0.0,0.0,0.0,0
657924000,-0.058873523,-0.008639526,0.00097058556,-0.97890204,-0.0096825585,0.0005319606,-0.20412204,0.0,0.0,0.0,0.0,0
657936000,-0.061752632,-0.00602121,0.0010741313,-0.9789042,-0.009341352,0.0006498229,-0.20412742,0.0,0.0,0.0,0.0,0
657948000,-0.062185798,-0.004845734,0.0011122989,-0.9789063,-0.008981951,0.0007598165,-0.20413327,0.0,0.0,0.0,0.0,0
657960000,-0.06244233,-0.0031822908,0.0010656297,-0.9789082,-0.00862197,0.00086001534,-0.20413914,0.0,0.0,0.0,0.0,0
657972000,-0.063603975,-0.001836652,0.0009488692,-0.97891,-0.008256223,0.0009526896,-0.20414492,0.0,0.0,0.0,0.0,0
657984000,-0.063033834,-0.0024654185,0.0006405142,-0.97891206,-0.007886524,0.0010417026,-0.20414941,0.0,0.0,0.0,0.0,0
657996000,-0.061473414,-0.0029642677,0.00053241104,-0.9789142,-0.0075219744,0.0011337163,-0.20415235,0.0,0.0,0.0,0.0,0
658008000,-0.056880362,-0.0023294427,0.0004727466,-0.9789163,-0.0071706185,0.0012218254,-0.20415464,0.0,0.0,0.0,0.0,0
658020000,-0.05384177,-0.0022206656,0.0006370122,-0.97891796,-0.0068445588,0.0013001624,-0.20415743,0.0,0.0,0.0,0.0,0
658032000,-0.051665876,-0.0010064202,0.0005941127,-0.97891927,-0.0065357727,0.0013762033,-0.20416075,0.0,0.0,0.0,0.0,0
658044000,-0.048777215,-0.00050074916,0.00048453076,-0.9789205,-0.006238578,0.0014432352,-0.20416345,0.0,0.0,0.0,0.0,0
658056000,-0.04538638,-0.00064959354,0.00056446274,-0.97892165,-0.005958629,0.001505387,-0.20416592,0.0,0.0,0.0,0.0,0
658068000,-0.04379848,-0.00021758134,0.0006115382,-0.9789225,-0.0056980853,0.0015631301,-0.20416898,0.0,0.0,0.0,0.0,0
658080000,-0.0436555,-0.0009802487,0.0006035825,-0.9789232,-0.005439294,0.0016206288,-0.20417216,0.0,0.0,0.0,0.0,0
658092000,-0.04322015,0.0003164956,0.00055394496,-0.97892386,-0.0051856125,0.0016809403,-0.2041751,0.0,0.0,0.0,0.0,0
658104000,-0.03929991,0.00056403904,0.00046928474,-0.97892445,-0.0049388967,0.0017283336,-0.20417792,0.0,0.0,0.0,0.0,0
658116000,-0.035683606,0.00055585994,0.0002577064,-0.9789251,-0.004714131,0.0017726244,-0.20417987,0.0,0.0,0.0,0.0,0
658128000,-0.03271411,0.0006766028,0.00019566303,-0.97892576,-0.004509878,0.0018096548,-0.20418093,0.0,0.0,0.0,0.0,0
658140000,-0.029311085,-0.0001805755,0.00011871359,-0.97892636,-0.004322187,0.0018477406,-0.20418166,0.0,0.0,0.0,0.0,0
658148000,-0.027379593,-0.00047128828,1.2511124e-05,-0.9789268,-0.004209663,0.0018719315,-0.20418178,0.0,0.0,0.0,0.0,0
658164000,-0.023945678,0.00072145194,-9.451657e-05,-0.97892773,-0.004006068,0.0019169229,-0.20418103,0.0,0.0,0.0,0.0,0
658176000,-0.021888778,0.002632936,-5.5809465e-05,-0.9789284,-0.0038673424,0.0019382647,-0.20418027,0.0,0.0,0.0,0.0,0
658188000,-0.019631617,0.005329917,6.061656e-06,-0.978929,-0.0037403984,0.0019441289,-0.20417987,0.0,0.0,0.0,0.0,0
658200000,-0.01623709,0.00883413,-1.4910055e-05,-0.97892946,-0.0036226113,0.0019299829,-0.20417982,0.0,0.0,0.0,0.0,0
658212000,-0.013519313,0.012174814,1.5567026e-05,-0.9789299,-0.0035218447,0.0018897079,-0.20417985,0.0,0.0,0.0,0.0,0
658224000,-0.009943243,0.015940886,5.7687033e-05,-0.97893023,-0.0034340548,0.0018275464,-0.20418017,0.0,0.0,0.0,0.0,0
658236000,-0.008307398,0.020421935,2.0562675e-05,-0.97893053,-0.0033588014,0.001736296,-0.20418072,0.0,0.0,0.0,0.0,0
658248000,-0.009462519,0.018822184,4.467936e-05,-0.9789309,-0.0032831535,0.0016258991,-0.20418122,0.0,0.0,0.0,0.0,0
658260000,-0.010237104,0.0139311105,-0.0002643517,-0.97893125,-0.0032061895,0.0015344688,-0.20418136,0.0,0.0,0.0,0.0,0
658272000,-0.00703109,0.010575505,-0.00038727344,-0.97893196,-0.0031380323,0.0014691252,-0.2041795,0.0,0.0,0.0,0.0,0
658284000,-0.007001308,0.0065030428,-0.0003585529,-0.9789327,-0.0030869397,0.0014249539,-0.2041774,0.0,0.0,0.0,0.0,0
658296000,-0.0064018103,0.003275228,-0.00028300137,-0.9789332,-0.0030429924,0.0013992,-0.20417549,0.0,0.0,0.0,0.0,0
658308000,-0.0064097154,-0.00017936202,-0.00020703484,-0.9789337,-0.0030025586,0.0013956451,-0.20417386,0.0,0.0,0.0,0.0,0
658320000,-0.0044962605,-0.002556776,-6.0198505e-05,-0.978934,-0.0029719758,0.0014100278,-0.20417283,0.0,0.0,0.0,0.0,0
658332000,-0.0040267827,-0.0032641126,4.524956e-05,-0.97893405,-0.0029482238,0.0014323421,-0.2041727,0.0,0.0,0.0,0.0,0
658344000,-0.000845951,-0.0013948353,9.516805e-05,-0.978934,-0.0029333746,0.0014499457,-0.20417298,0.0,0.0,0.0,0.0,0
658356000,0.002823605,0.00024771472,0.00016476246,-0.9789339,-0.002937814,0.001454466,-0.20417364,0.0,0.0,0.0,0.0,0
658368000,0.005259809,0.0037910298,0.00019640969,-0.9789336,-0.00295745,0.0014413256,-0.20417471,0.0,0.0,0.0,0.0,0
658380000,0.007847684,0.008227871,0.00025738688,-0.9789333,-0.002986657,0.0014024759,-0.20417614,0.0,0.0,0.0,0.0,0
658392000,0.010381445,0.012265355,0.00034210182,-0.9789328,-0.0030277977,0.0013366595,-0.20417808,0.0,0.0,0.0,0.0,0
658404000,0.011362183,0.016816638,0.00039841916,-0.97893226,-0.003073741,0.0012434636,-0.20418055,0.0,0.0,0.0,0.0,0
658416000,0.01151091,0.020864397,0.00042700736,-0.9789317,-0.0031175308,0.0011220737,-0.20418335,0.0,0.0,0.0,0.0,0
658428000,0.0124963885,0.02403057,0.00037225414,-0.9789311,-0.0031598287,0.0009779327,-0.20418625,0.0,0.0,0.0,0.0,0
658440000,0.012872665,0.027127177,0.0002908134,-0.97893065,-0.0032017455,0.0008140236,-0.20418869,0.0,0.0,0.0,0.0,0
658452000,0.011996241,0.029706487,0.00028411706,-0.9789302,-0.0032412584,0.00063187926,-0.20419094,0.0,0.0,0.0,0.0,0
658464000,0.012792803,0.032521844,0.00032326908,-0.97892964,-0.0032756117,0.00043813512,-0.20419326,0.0,0.0,0.0,0.0,0
658476000,0.010491338,0.035160985,0.0003845707,-0.9789291,-0.0033050256,0.00022617496,-0.20419596,0.0,0.0,0.0,0.0,0
658488000,0.0073022055,0.03448867,0.00024244512,-0.97892845,-0.0033191128,1.0274433e-05,-0.2041988,0.0,0.0,0.0,0.0,0
658500000,0.0038858783,0.034149744,0.000109418426,-0.9789281,-0.0033149342,-0.00019741259,-0.20420055,0.0,0.0,0.0,0.0,0
658512000,0.0038161986,0.033420905,9.181034e-05,-0.9789278,-0.0032961604,-0.0004002487,-0.20420188,0.0,0.0,0.0,0.0,0
658524000,0.0018285076,0.033559818,8.1998594e-05,-0.97892755,-0.0032745698,-0.00060252985,-0.20420302,0.0,0.0,0.0,0.0,0
658536000,-0.0017536053,0.032597758,0.00029407255,-0.9789272,-0.0032375325,-0.0008013902,-0.20420451,0.0,0.0,0.0,0.0,0
658548000,-0.0047883666,0.03112708,0.000362021,-0.9789267,-0.003179266,-0.0009866657,-0.2042071,0.0,0.0,0.0,0.0,0
658560000,-0.008506776,0.029637858,0.0005559401,-0.97892606,-0.0031046865,-0.0011603826,-0.20421025,0.0,0.0,0.0,0.0,0
658572000,-0.011720818,0.027166558,0.0006731945,-0.9789253,-0.003011532,-0.0013171618,-0.20421442,0.0,0.0,0.0,0.0,0
658584000,-0.013853263,0.024201212,0.00065352995,-0.9789245,-0.0029064515,-0.0014555845,-0.20421892,0.0,0.0,0.0,0.0,0
658596000,-0.013197772,0.021595357,0.00078676036,-0.9789237,-0.0027967626,-0.001575856,-0.2042235,0.0,0.0,0.0,0.0,0
658608000,-0.014107549,0.018190606,0.00089685124,-0.97892267,-0.0026914824,-0.0016796455,-0.20422882,0.0,0.0,0.0,0.0,0
658620000,-0.0136645455,0.014787162,0.0009704364,-0.9789216,-0.0025895548,-0.0017636952,-0.20423459,0.0,0.0,0.0,0.0,0
658632000,-0.01372301,0.011638269,0.00091537944,-0.97892046,-0.002491863,-0.0018273579,-0.20424062,0.0,0.0,0.0,0.0,0
658644000,-0.012766856,0.00911794,0.0007068964,-0.9789195,-0.0023997177,-0.0018740962,-0.20424601,0.0,0.0,0.0,0.0,0
658656000,-0.011998655,0.0064277104,0.00049565954,-0.97891885,-0.0023170526,-0.0019071267,-0.20424995,0.0,0.0,0.0,0.0,0
658668000,-0.012712234,0.0041752094,0.00032711768,-0.9789184,-0.002240824,-0.0019258212,-0.20425272,0.0,0.0,0.0,0.0,0
658680000,-0.013876433,0.0021574108,0.0003180421,-0.97891814,-0.0021588271,-0.0019292184,-0.20425478,0.0,0.0,0.0,0.0,0
658692000,-0.01405843,-0.00015805662,0.00025143838,-0.97891796,-0.0020733497,-0.0019203724,-0.20425661,0.0,0.0,0.0,0.0,0
658704000,-0.014759946,-0.0015688478,0.00042974245,-0.9789178,-0.0019890347,-0.001899577,-0.20425859,0.0,0.0,0.0,0.0,0
658716000,-0.014248702,-0.0023688867,0.00053918286,-0.97891736,-0.0019059016,-0.0018703874,-0.20426147,0.0,0.0,0.0,0.0,0
658728000,-0.016192522,-0.0035986146,0.00044258073,-0.97891694,-0.0018209685,-0.001834647,-0.20426466,0.0,0.0,0.0,0.0,0
658740000,-0.017080458,-0.003952545,0.00035562078,-0.97891665,-0.0017262936,-0.0017911295,-0.20426737,0.0,0.0,0.0,0.0,0
658752000,-0.018822197,-0.0045145643,0.00013730518,-0.9789165,-0.0016267758,-0.0017448498,-0.20426911,0.0,0.0,0.0,0.0,0
658764000,-0.018949382,-0.005419187,-9.506184e-05,-0.97891665,-0.0015219784,-0.0016936378,-0.2042697,0.0,0.0,0.0,0.0,0
658776000,-0.019289054,-0.007167048,-0.0005366801,-0.9789172,-0.0014167835,-0.0016341642,-0.20426852,0.0,0.0,0.0,0.0,0
658788000,-0.019733306,-0.0075288303,-0.0008504153,-0.9789182,-0.0013111896,-0.0015675821,-0.20426475,0.0,0.0,0.0,0.0,0
658800000,-0.01976383,-0.0077832066,-0.00097624597,-0.9789195,-0.0012050972,-0.0014981319,-0.20425965,0.0,0.0,0.0,0.0,0
658812000,-0.017026538,-0.007251345,-0.0011138105,-0.97892094,-0.0011031468,-0.0014303031,-0.20425378,0.0,0.0,0.0,0.0,0
658824000,-0.0126692755,-0.004722517,-0.0013368169,-0.97892255,-0.0010204387,-0.0013730733,-0.2042469,0.0,0.0,0.0,0.0,0
658836000,-0.012644646,-0.0024291049,-0.0016318957,-0.97892445,-0.00095145963,-0.0013321756,-0.20423847,0.0,0.0,0.0,0.0,0
658848000,-0.01192469,-0.0005778069,-0.0017267758,-0.9789266,-0.00088013033,-0.0013061048,-0.20422867,0.0,0.0,0.0,0.0,0
658860000,-0.010150642,0.0014630635,-0.0018922681,-0.9789288,-0.0008116847,-0.0012914345,-0.2042184,0.0,0.0,0.0,0.0,0
658872000,-0.007785255,0.003801505,-0.002074239,-0.97893125,-0.0007550041,-0.0012947604,-0.20420688,0.0,0.0,0.0,0.0,0
658884000,-0.005209347,0.003737307,-0.0021755493,-0.9789338,-0.00070873124,-0.0013087168,-0.20419458,0.0,0.0,0.0,0.0,0
658896000,-0.003370874,0.003893272,-0.0022142353,-0.9789365,-0.0006761603,-0.0013246452,-0.20418176,0.0,0.0,0.0,0.0,0
658908000,-0.0032843451,0.0018829339,-0.0022860144,-0.97893924,-0.0006519825,-0.0013406409,-0.2041687,0.0,0.0,0.0,0.0,0
658920000,-0.0057549267,0.00042505353,-0.002426299,-0.9789421,-0.00062546285,-0.001342283,-0.20415512,0.0,0.0,0.0,0.0,0
658932000,-0.00831857,-0.00053228805,-0.002558277,-0.97894514,-0.0005854156,-0.0013352695,-0.20414065,0.0,0.0,0.0,0.0,0
658944000,-0.009439083,-0.0008553711,-0.0026342853,-0.9789483,-0.0005360819,-0.0013214704,-0.20412557,0.0,0.0,0.0,0.0,0
658956000,-0.009974891,-0.0010314147,-0.002731432,-0.97895163,-0.00047840964,-0.0013051004,-0.20410998,0.0,0.0,0.0,0.0,0
658968000,-0.011750641,-0.002528222,-0.0026570589,-0.978955,-0.00041755725,-0.0012857269,-0.20409407,0.0,0.0,0.0,0.0,0
658980000,-0.012609001,-0.0026417251,-0.0024836306,-0.9789582,-0.00034898592,-0.001255714,-0.20407894,0.0,0.0,0.0,0.0,0
658992000,-0.013298739,-0.0014985168,-0.0022642962,-0.97896117,-0.0002754473,-0.0012242051,-0.20406495,0.0,0.0,0.0,0.0,0
659004000,-0.012141607,0.0006680041,-0.0019926713,-0.9789639,-0.00020087713,-0.0012017203,-0.20405221,0.0,0.0,0.0,0.0,0
659016000,-0.010626676,0.0042280015,-0.0017696981,-0.97896624,-0.00012815189,-0.0011993009,-0.20404106,0.0,0.0,0.0,0.0,0
659028000,-0.010315292,0.007138245,-0.0016435005,-0.9789683,-6.085398e-05,-0.0012183208,-0.204031,0.0,0.0,0.0,0.0,0
659040000,-0.007635947,0.009595845,-0.0015369399,-0.9789702,4.2020665e-06,-0.0012531606,-0.20402166,0.0,0.0,0.0,0.0,0
659052000,-0.0057718963,0.010752697,-0.0017486574,-0.978972,5.7118195e-05,-0.0013028149,-0.2040126,0.0,0.0,0.0,0.0,0
659064000,-0.0037088175,0.009904264,-0.0021813447,-0.9789743,0.00010096674,-0.0013594743,-0.20400153,0.0,0.0,0.0,0.0,0
659076000,-0.0038488873,0.010116276,-0.002594566,-0.978977,0.00013424334,-0.0014133515,-0.20398803,0.0,0.0,0.0,0.0,0
659088000,-0.0042396337,0.009502667,-0.0029909655,-0.97898024,0.00017088861,-0.0014677999,-0.20397203,0.0,0.0,0.0,0.0,0
659100000,-0.0035984986,0.008202607,-0.0032817877,-0.97898394,0.00020653696,-0.001515516,-0.20395389,0.0,0.0,0.0,0.0,0
659112000,-0.003596798,0.007897654,-0.003551106,-0.978988,0.00023675137,-0.0015591601,-0.20393403,0.0,0.0,0.0,0.0,0
659120000,-0.0033317502,0.00836451,-0.0036799307,-0.97899085,0.00025719567,-0.0015877889,-0.20392004,0.0,0.0,0.0,0.0,0
659136000,-0.0032869019,0.0068569463,-0.0041184654,-0.97899705,0.00029755308,-0.0016433724,-0.20388986,0.0,0.0,0.0,0.0,0
659148000,-0.0033539943,0.006956385,-0.00440205,-0.9790021,0.00032426472,-0.0016801758,-0.20386508,0.0,0.0,0.0,0.0,0
659160000,-0.0015374983,0.0064354693,-0.0047270395,-0.9790076,0.0003490188,-0.0017180134,-0.20383859,0.0,0.0,0.0,0.0,0
659172000,-0.0003466168,0.006747116,-0.0048370105,-0.9790134,0.00036431107,-0.0017551268,-0.20381045,0.0,0.0,0.0,0.0,0
659184000,0.00045603124,0.007263366,-0.0049294196,-0.9790192,0.00037191462,-0.0017960732,-0.20378193,0.0,0.0,0.0,0.0,0
659196000,0.0012084189,0.007254904,-0.0049720937,-0.9790252,0.0003765952,-0.001840368,-0.2037529,0.0,0.0,0.0,0.0,0
659208000,0.0016706174,0.0073955855,-0.004947911,-0.9790312,0.00038170742,-0.001885809,-0.20372362,0.0,0.0,0.0,0.0,0
659220000,0.0036180676,0.0069282153,-0.0049113235,-0.9790371,0.00037695956,-0.0019309573,-0.2036947,0.0,0.0,0.0,0.0,0
659232000,0.005086237,0.0050779753,-0.0048766304,-0.97904307,0.00035801652,-0.0019752602,-0.20366582,0.0,0.0,0.0,0.0,0
659244000,0.006150128,0.0033244677,-0.0047948733,-0.9790489,0.00033360368,-0.0020085655,-0.2036373,0.0,0.0,0.0,0.0,0
659256000,0.0052070403,0.0026237573,-0.0046458878,-0.9790547,0.00030675658,-0.0020327459,-0.20360938,0.0,0.0,0.0,0.0,0
659268000,0.00492973,0.0018873333,-0.0045486693,-0.9790603,0.00028155636,-0.0020515996,-0.20358235,0.0,0.0,0.0,0.0,0
659280000,0.006293988,0.0025893033,-0.0045437613,-0.97906584,0.00025437682,-0.0020712067,-0.20355545,0.0,0.0,0.0,0.0,0
659292000,0.0073076007,0.0018771286,-0.0045756963,-0.9790714,0.00021926027,-0.0020935987,-0.20352872,0.0,0.0,0.0,0.0,0
659304000,0.0073955623,0.0019367978,-0.004767999,-0.979077,0.00017942248,-0.0021123865,-0.20350142,0.0,0.0,0.0,0.0,0
659316000,0.0056959786,0.0015033256,-0.005019986,-0.9790829,0.00014215085,-0.0021318188,-0.20347284,0.0,0.0,0.0,0.0,0
659328000,0.006313141,0.0013459901,-0.005153588,-0.9790891,0.00010937256,-0.0021485013,-0.2034429,0.0,0.0,0.0,0.0,0
659340000,0.004931314,0.0015313379,-0.0051110657,-0.9790954,7.6639495e-05,-0.0021655874,-0.20341255,0.0,0.0,0.0,0.0,0
659348000,0.0033695993,0.0015697674,-0.004959585,-0.9790995,6.082738e-05,-0.0021753425,-0.20339262,0.0,0.0,0.0,0.0,0
659364000,-0.0006738448,0.0022379807,-0.004600497,-0.9791073,4.88571e-05,-0.0021928975,-0.20335472,0.0,0.0,0.0,0.0,0
659376000,-0.0018346271,0.0019283426,-0.004239893,-0.97911274,6.0124683e-05,-0.002204069,-0.20332837,0.0,0.0,0.0,0.0,0
659388000,-0.002739443,0.0010925031,-0.0038942157,-0.97911775,7.518512e-05,-0.002208836,-0.20330425,0.0,0.0,0.0,0.0,0
659400000,-0.0051596626,0.0013464515,-0.0036831703,-0.9791224,9.57139e-05,-0.0022121433,-0.20328188,0.0,0.0,0.0,0.0,0
659412000,-0.004215434,0.0004651202,-0.0035375783,-0.9791268,0.00012560759,-0.0022133666,-0.20326065,0.0,0.0,0.0,0.0,0
659424000,-0.0051660505,0.002862369,-0.0031618895,-0.9791309,0.0001556529,-0.002215226,-0.20324066,0.0,0.0,0.0,0.0,0
659436000,-0.0048386967,0.0009236138,-0.0027207583,-0.9791346,0.00018936119,-0.00222322,-0.20322289,0.0,0.0,0.0,0.0,0
659448000,-0.0029263664,5.925439e-05,-0.002305727,-0.9791378,0.00021423548,-0.0022226137,-0.20320773,0.0,0.0,0.0,0.0,0
659460000,-0.002625124,4.836214e-05,-0.0018963757,-0.9791404,0.00022730841,-0.002218978,-0.20319496,0.0,0.0,0.0,0.0,0
659472000,-0.004016559,0.00071713055,-0.0014593914,-0.97914255,0.0002449395,-0.0022171421,-0.20318471,0.0,0.0,0.0,0.0,0
659484000,-0.004467371,0.00052515196,-0.0009767481,-0.9791441,0.00026981524,-0.0022162548,-0.20317718,0.0,0.0,0.0,0.0,0
659496000,-0.0054038693,0.00161652,-0.0005314087,-0.97914505,0.00030183425,-0.0022151088,-0.2031724,0.0,0.0,0.0,0.0,0
659508000,-0.0050250026,0.0024194925,-0.00014534558,-0.9791455,0.00033399474,-0.0022197857,-0.20317021,0.0,0.0,0.0,0.0,0
659520000,-0.0042355554,0.0036595587,0.00024008035,-0.97914547,0.0003666404,-0.0022313045,-0.20317012,0.0,0.0,0.0,0.0,0
659532000,-0.0029186227,0.0031305184,0.00049639714,-0.97914505,0.0003957804,-0.0022461563,-0.20317212,0.0,0.0,0.0,0.0,0
659544000,-0.0029150986,0.0032060123,0.0008118878,-0.9791443,0.00041846425,-0.0022608591,-0.2031756,0.0,0.0,0.0,0.0,0
659556000,-0.0025258134,0.0028275768,0.0008381112,-0.9791432,0.0004396085,-0.0022736355,-0.20318067,0.0,0.0,0.0,0.0,0
659568000,-0.0018336183,0.002635449,0.00075440714,-0.9791421,0.00045468978,-0.0022872395,-0.2031855,0.0,0.0,0.0,0.0,0
659580000,-0.0015480485,0.0024490806,0.000608361,-0.97914124,0.00046663854,-0.002301983,-0.20318975,0.0,0.0,0.0,0.0,0
659592000,-0.003332488,0.003019574,0.0005455107,-0.97914046,0.00048224092,-0.0023157815,-0.20319316,0.0,0.0,0.0,0.0,0
659604000,-0.003968791,0.0032065432,0.0006244146,-0.97913975,0.0005096382,-0.002329914,-0.2031965,0.0,0.0,0.0,0.0,0
659616000,-0.002662163,0.0035326618,0.0008014697,-0.9791388,0.00053463917,-0.0023462481,-0.20320061,0.0,0.0,0.0,0.0,0
659628000,-0.0019398575,0.003098994,0.0008859558,-0.9791378,0.0005530064,-0.0023638995,-0.20320547,0.0,0.0,0.0,0.0,0
659640000,0.00053746667,0.00297938,0.0010132403,-0.9791366,0.00056510797,-0.0023784146,-0.20321102,0.0,0.0,0.0,0.0,0
659652000,0.003293728,0.002649671,0.0009832073,-0.97913533,0.00056237617,-0.002398402,-0.20321685,0.0,0.0,0.0,0.0,0
659664000,0.0044592316,0.0015193971,0.0010620971,-0.979134,0.0005438454,-0.0024137022,-0.20322275,0.0,0.0,0.0,0.0,0
659676000,0.0037552628,0.0016651261,0.0012063732,-0.9791327,0.000521313,-0.0024265011,-0.20322905,0.0,0.0,0.0,0.0,0
659688000,0.004088781,0.0019184359,0.0014254762,-0.97913116,0.00050082774,-0.0024410854,-0.20323652,0.0,0.0,0.0,0.0,0
659700000,0.002186085,0.0018984823,0.0016144594,-0.9791293,0.00048244587,-0.0024580117,-0.20324522,0.0,0.0,0.0,0.0,0
659712000,-0.0005639518,0.001150444,0.00182058,-0.9791272,0.0004749639,-0.0024694328,-0.20325504,0.0,0.0,0.0,0.0,0
659724000,-0.0039170687,0.0003596176,0.0021368652,-0.97912484,0.00048329536,-0.0024736645,-0.20326643,0.0,0.0,0.0,0.0,0
659736000,-0.005601412,6.648393e-05,0.0023725468,-0.97912216,0.0005125144,-0.0024689182,-0.2032794,0.0,0.0,0.0,0.0,0
659744000,-0.006067443,-0.0006402506,0.0025560157,-0.9791202,0.0005347436,-0.0024640695,-0.20328894,0.0,0.0,0.0,0.0,0
659760000,-0.0059411325,0.0005153299,0.0026487564,-0.97911596,0.0005810712,-0.0024511572,-0.20330942,0.0,0.0,0.0,0.0,0
659772000,-0.004682276,0.0006404865,0.0026606333,-0.9791127,0.00061501545,-0.002445478,-0.20332518,0.0,0.0,0.0,0.0,0
659784000,-0.0027782235,0.002348807,0.0026785869,-0.9791094,0.00064082,-0.002446751,-0.20334087,0.0,0.0,0.0,0.0,0
659796000,0.00028943052,0.0026869744,0.002831662,-0.97910607,0.0006535879,-0.0024585398,-0.20335679,0.0,0.0,0.0,0.0,0
659808000,0.002158271,0.003533207,0.0029677795,-0.9791025,0.0006496838,-0.002477926,-0.20337373,0.0,0.0,0.0,0.0,0
659820000,0.0037076273,0.0034729626,0.0030190954,-0.9790988,0.0006385632,-0.0024994207,-0.20339121,0.0,0.0,0.0,0.0,0
659832000,0.0047153644,0.0045182398,0.002992475,-0.97909504,0.000617637,-0.0025282633,-0.20340891,0.0,0.0,0.0,0.0,0
659844000,0.0077017047,0.0040874286,0.0029515843,-0.97909135,0.00059007,-0.0025608337,-0.20342644,0.0,0.0,0.0,0.0,0
659856000,0.0077344673,0.0023097629,0.0027925025,-0.97908777,0.000548301,-0.0025915147,-0.2034433,0.0,0.0,0.0,0.0,0
659864000,0.0082765855,0.0018522582,0.002606018,-0.97908556,0.00051845104,-0.0026070399,-0.20345399,0.0,0.0,0.0,0.0,0
659880000,0.008523949,0.0012923767,0.002323991,-0.97908145,0.0004573624,-0.0026318058,-0.20347357,0.0,0.0,0.0,0.0,0
659892000,0.006501935,0.001130798,0.0022031206,-0.9790787,0.00041187022,-0.002647348,-0.20348667,0.0,0.0,0.0,0.0,0
659904000,0.0059133363,0.00093058945,0.0022559953,-0.97907597,0.00037466918,-0.0026609509,-0.20349959,0.0,0.0,0.0,0.0,0
659916000,0.006661085,0.0013757746,0.0022129186,-0.9790732,0.0003415691,-0.0026757002,-0.20351274,0.0,0.0,0.0,0.0,0
659928000,0.007410071,0.00082301244,0.0023963102,-0.9790705,0.00030457458,-0.0026910605,-0.20352575,0.0,0.0,0.0,0.0,0
659940000,0.007728579,0.0009812025,0.002700844,-0.97906744,0.00026248544,-0.0027059717,-0.20354034,0.0,0.0,0.0,0.0,0
659952000,0.007067436,0.0037084648,0.0030211587,-0.979064,0.0002201799,-0.0027270399,-0.20355682,0.0,0.0,0.0,0.0,0
659964000,0.006416936,0.0059847203,0.0029388703,-0.97906023,0.00018167861,-0.0027624434,-0.20357433,0.0,0.0,0.0,0.0,0
659976000,0.003843444,0.0067253476,0.0028077357,-0.9790566,0.00015769177,-0.0028065697,-0.20359129,0.0,0.0,0.0,0.0,0
659988000,0.00340786,0.006955315,0.0025595198,-0.97905314,0.00014455817,-0.0028516732,-0.20360726,0.0,0.0,0.0,0.0,0
660000000,0.0031149397,0.006644544,0.0023603141,-0.97905,0.00013457092,-0.0028952362,-0.20362177,0.0,0.0,0.0,0.0,0
660012000,0.0023951686,0.005717072,0.0021239503,-0.9790471,0.00012533992,-0.0029364456,-0.20363511,0.0,0.0,0.0,0.0,0
660024000,0.0041712625,0.004822138,0.0019715712,-0.97904444,0.00011476766,-0.002971088,-0.20364729,0.0,0.0,0.0,0.0,0
660036000,0.0051771235,0.0042958795,0.0017704202,-0.97904205,9.189784e-05,-0.003003985,-0.20365842,0.0,0.0,0.0,0.0,0
660048000,0.0069078575,0.004052643,0.0016131881,-0.9790399,6.501894e-05,-0.0030356767,-0.20366825,0.0,0.0,0.0,0.0,0
660060000,0.006946577,0.0041725263,0.0013578112,-0.97903794,3.0310457e-05,-0.0030648652,-0.20367722,0.0,0.0,0.0,0.0,0
660072000,0.0075542815,0.0053810985,0.0010627225,-0.97903633,-6.947495e-06,-0.0030995586,-0.20368442,0.0,0.0,0.0,0.0,0
660084000,0.007619391,0.0056478432,0.0009860995,-0.97903496,-4.2208376e-05,-0.003140303,-0.2036903,0.0,0.0,0.0,0.0,0
660096000,0.008150699,0.005897871,0.0010040377,-0.9790337,-8.0882935e-05,-0.0031840205,-0.20369588,0.0,0.0,0.0,0.0,0
660108000,0.0064595025,0.0053511187,0.0011691548,-0.9790323,-0.00011813365,-0.003227573,-0.20370203,0.0,0.0,0.0,0.0,0
660120000,0.00537349,0.0046399715,0.0011024097,-0.9790307,-0.00014839583,-0.0032662863,-0.20370874,0.0,0.0,0.0,0.0,0
660132000,0.0042345873,0.004193807,0.000876905,-0.9790294,-0.00017334477,-0.0032992412,-0.20371462,0.0,0.0,0.0,0.0,0
660144000,0.0016293047,0.0035762873,0.00070499873,-0.97902834,-0.00018725738,-0.0033258554,-0.20371932,0.0,0.0,0.0,0.0,0
660156000,0.0019180116,0.002403479,0.0005742728,-0.97902745,-0.00019312435,-0.0033453775,-0.20372328,0.0,0.0,0.0,0.0,0
660168000,-0.00037505868,0.0020323768,0.00032664931,-0.97902673,-0.00019512397,-0.0033600912,-0.20372625,0.0,0.0,0.0,0.0,0
660180000,-0.001713483,0.0013701578,1.0963845e-05,-0.97902644,-0.00018523261,-0.003369524,-0.20372762,0.0,0.0,0.0,0.0,0
660192000,-0.0029243068,0.00046013427,-0.000209298,-0.97902656,-0.00017399137,-0.0033717174,-0.20372717,0.0,0.0,0.0,0.0,0
660204000,-0.003116271,0.00015371454,-0.00038790726,-0.97902685,-0.0001508166,-0.0033697623,-0.20372552,0.0,0.0,0.0,0.0,0
660216000,-0.005033057,-0.0006761359,-0.00037953418,-0.97902733,-0.00012981925,-0.003363731,-0.20372336,0.0,0.0,0.0,0.0,0
660228000,-0.005576366,-0.0007068502,-0.00039711062,-0.9790278,-0.000100358106,-0.0033527513,-0.20372134,0.0,0.0,0.0,0.0,0
660240000,-0.0051376927,0.0005922129,-0.000585966,-0.9790284,-7.031594e-05,-0.003344675,-0.20371874,0.0,0.0,0.0,0.0,0
660252000,-0.0054851226,0.0007719831,-0.00074679806,-0.9790292,-3.8557613e-05,-0.003342992,-0.20371512,0.0,0.0,0.0,0.0,0
660264000,-0.0041041845,0.0017097759,-0.0008987453,-0.97903013,-8.098509e-06,-0.003344829,-0.20371044,0.0,0.0,0.0,0.0,0
660276000,-0.0027663014,0.0014332038,-0.0010489078,-0.97903126,1.7101906e-05,-0.0033492364,-0.20370498,0.0,0.0,0.0,0.0,0
660288000,-0.0034354893,0.001479802,-0.0011612029,-0.9790325,3.639358e-05,-0.0033562167,-0.20369871,0.0,0.0,0.0,0.0,0
660300000,-0.0034990218,0.0015669072,-0.0013189443,-0.979034,5.742127e-05,-0.0033603036,-0.20369157,0.0,0.0,0.0,0.0,0
660312000,-0.005507789,0.0021601915,-0.0015694733,-0.9790357,8.263257e-05,-0.0033653723,-0.20368351,0.0,0.0,0.0,0.0,0
660320000,-0.0050652274,0.0013668963,-0.0016027358,-0.9790369,0.0001051403,-0.0033688648,-0.20367737,0.0,0.0,0.0,0.0,0
660336000,-0.007703979,6.2639614e-05,-0.0014414404,-0.9790394,0.0001568958,-0.0033655143,-0.20366555,0.0,0.0,0.0,0.0,0
660348000,-0.009837649,0.0010987982,-0.001394429,-0.9790411,0.00020971139,-0.0033558602,-0.20365745,0.0,0.0,0.0,0.0,0
660360000,-0.010013713,0.0010988135,-0.0014912384,-0.97904277,0.00026920193,-0.0033519922,-0.20364927,0.0,0.0,0.0,0.0,0
660372000,-0.011567925,0.00046993504,-0.0015572134,-0.9790446,0.00033183375,-0.0033439668,-0.20364058,0.0,0.0,0.0,0.0,0
660384000,-0.012433517,0.0005150372,-0.0015900598,-0.9790465,0.00040304734,-0.0033323246,-0.20363146,0.0,0.0,0.0,0.0,0
660396000,-0.010483235,0.0017072771,-0.0017022497,-0.97904843,0.00047040248,-0.0033248677,-0.20362207,0.0,0.0,0.0,0.0,0
660408000,-0.0118479235,0.0038246105,-0.001800548,-0.97905046,0.0005376125,-0.0033266025,-0.20361218,0.0,0.0,0.0,0.0,0
660420000,-0.013103378,0.0054111043,-0.0018834294,-0.97905254,0.00061532744,-0.0033382352,-0.20360169,0.0,0.0,0.0,0.0,0
660432000,-0.013672953,0.006656506,-0.0018473632,-0.9790547,0.0007013501,-0.0033563462,-0.2035909,0.0,0.0,0.0,0.0,0
660444000,-0.012340376,0.0068111536,-0.0018589455,-0.9790567,0.0007879451,-0.0033795233,-0.20358044,0.0,0.0,0.0,0.0,0
660456000,-0.011636753,0.007242217,-0.0019183479,-0.9790588,0.00086956687,-0.0034062627,-0.20356959,0.0,0.0,0.0,0.0,0
660468000,-0.0102154575,0.008752114,-0.0019382626,-0.97906095,0.00094567874,-0.003438122,-0.20355853,0.0,0.0,0.0,0.0,0
660480000,-0.010740975,0.010479595,-0.0018009865,-0.979063,0.001020071,-0.0034799536,-0.20354754,0.0,0.0,0.0,0.0,0
660492000,-0.011485603,0.010458162,-0.0017665065,-0.9790649,0.0010970103,-0.0035285985,-0.20353718,0.0,0.0,0.0,0.0,0
660504000,-0.011643095,0.010858113,-0.0016950282,-0.9790667,0.0011767616,-0.0035781756,-0.20352708,0.0,0.0,0.0,0.0,0
660516000,-0.01321385,0.01096831,-0.0014554138,-0.9790684,0.0012607743,-0.0036276046,-0.20351754,0.0,0.0,0.0,0.0,0
660528000,-0.013383369,0.010967693,-0.0011403733,-0.9790697,0.0013530347,-0.0036755023,-0.20350988,0.0,0.0,0.0,0.0,0
660540000,-0.012041142,0.010230671,-0.00079810846,-0.9790706,0.0014419429,-0.0037219992,-0.20350415,0.0,0.0,0.0,0.0,0
660552000,-0.011390972,0.00972391,-0.0006471674,-0.9790712,0.0015244657,-0.0037659125,-0.20349997,0.0,0.0,0.0,0.0,0
660564000,-0.01152403,0.009291152,-0.00045125163,-0.97907156,0.0016033609,-0.0038093396,-0.20349677,0.0,0.0,0.0,0.0,0
660576000,-0.011439014,0.007892745,-0.0005211481,-0.97907174,0.0016798994,-0.0038472933,-0.20349437,0.0,0.0,0.0,0.0,0
660588000,-0.009680861,0.0059084157,-0.0007652756,-0.9790722,0.0017543691,-0.003874569,-0.20349109,0.0,0.0,0.0,0.0,0
660600000,-0.008696592,0.004470423,-0.0011407202,-0.97907305,0.0018166134,-0.0038955342,-0.20348608,0.0,0.0,0.0,0.0,0
660612000,-0.009763582,0.003951541,-0.0014034896,-0.97907436,0.0018781698,-0.003907709,-0.20347896,0.0,0.0,0.0,0.0,0
660624000,-0.010379338,0.0045134407,-0.001578932,-0.97907597,0.0019452856,-0.0039177667,-0.20347054,0.0,0.0,0.0,0.0,0
660636000,-0.010483806,0.0038251504,-0.0015972863,-0.9790777,0.0020093953,-0.0039306264,-0.20346132,0.0,0.0,0.0,0.0,0
660648000,-0.010562545,0.0038191802,-0.0016400008,-0.9790794,0.0020750437,-0.003942242,-0.20345207,0.0,0.0,0.0,0.0,0
660660000,-0.010126466,0.0041108103,-0.0016573297,-0.9790812,0.0021424375,-0.003954422,-0.20344245,0.0,0.0,0.0,0.0,0
660672000,-0.0071926583,0.003116468,-0.0015698591,-0.979083,0.0022004575,-0.003967007,-0.203433,0.0,0.0,0.0,0.0,0
660684000,-0.0068917274,0.0017861694,-0.0013149597,-0.9790847,0.002247452,-0.003972978,-0.2034244,0.0,0.0,0.0,0.0,0
660696000,-0.006747696,0.00047852192,-0.0011523883,-0.9790861,0.0022891443,-0.003972486,-0.20341715,0.0,0.0,0.0,0.0,0
660708000,-0.006152204,-0.0013620339,-0.0011497788,-0.97908735,0.002328552,-0.0039647333,-0.20341074,0.0,0.0,0.0,0.0,0
660720000,-0.0046785586,-0.0018905683,-0.001356604,-0.97908884,0.0023567998,-0.003948222,-0.20340359,0.0,0.0,0.0,0.0,0
660732000,-0.0037405097,-0.001840619,-0.0014704411,-0.9790905,0.002380432,-0.0039328462,-0.2033955,0.0,0.0,0.0,0.0,0
660740000,-0.0043031727,-0.0029490052,-0.0015250011,-0.9790917,0.0023929158,-0.0039215502,-0.20338978,0.0,0.0,0.0,0.0,0
660756000,-0.004916953,-0.0033906372,-0.0016117886,-0.97909427,0.0024208308,-0.0038887956,-0.2033777,0.0,0.0,0.0,0.0,0
660768000,-0.007807144,-0.0029558465,-0.0016080507,-0.97909623,0.0024516126,-0.0038635903,-0.20336837,0.0,0.0,0.0,0.0,0
660780000,-0.009176648,-0.002857973,-0.0016549125,-0.9790982,0.0024976013,-0.0038393242,-0.20335902,0.0,0.0,0.0,0.0,0
660792000,-0.010282884,-0.0027912145,-0.0016189406,-0.9791001,0.0025500148,-0.0038111338,-0.20334964,0.0,0.0,0.0,0.0,0
660800000,-0.01001862,-0.0030236293,-0.0015956581,-0.97910136,0.0025875028,-0.0037915094,-0.20334354,0.0,0.0,0.0,0.0,0
660816000,-0.009568094,-0.0046215723,-0.0016423304,-0.97910386,0.0026574156,-0.0037470963,-0.20333137,0.0,0.0,0.0,0.0,0
660828000,-0.0065155113,-0.0044437367,-0.0016749604,-0.97910583,0.002702011,-0.0037104625,-0.20332193,0.0,0.0,0.0,0.0,0
660840000,-0.0067309258,-0.0046476666,-0.0016501878,-0.97910786,0.0027349798,-0.0036759728,-0.20331244,0.0,0.0,0.0,0.0,0
660852000,-0.0063872314,-0.004511508,-0.001758428,-0.9791099,0.00276734,-0.0036412107,-0.20330286,0.0,0.0,0.0,0.0,0
660864000,-0.0071518575,-0.0042311675,-0.001816903,-0.979112,0.0028020986,-0.0036075714,-0.20329255,0.0,0.0,0.0,0.0,0
660876000,-0.0084278695,-0.0033653474,-0.001888906,-0.97911423,0.002842575,-0.0035729243,-0.2032819,0.0,0.0,0.0,0.0,0
660888000,-0.006896503,-0.003949951,-0.0018449487,-0.9791165,0.0028863952,-0.0035402698,-0.20327118,0.0,0.0,0.0,0.0,0
660900000,-0.0067935563,-0.0043745013,-0.0019789725,-0.97911876,0.0029212404,-0.003508994,-0.20326032,0.0,0.0,0.0,0.0,0
660912000,-0.008097563,-0.005295197,-0.0021136047,-0.9791212,0.0029569382,-0.0034723063,-0.20324863,0.0,0.0,0.0,0.0,0
660924000,-0.007691323,-0.0055929055,-0.0022754937,-0.9791238,0.002997663,-0.0034306017,-0.20323615,0.0,0.0,0.0,0.0,0
660936000,-0.0060115363,-0.0054387245,-0.002354469,-0.9791266,0.0030329125,-0.0033899697,-0.20322287,0.0,0.0,0.0,0.0,0
660948000,-0.0056819473,-0.005932745,-0.0025001261,-0.9791295,0.0030608405,-0.0033499328,-0.20320904,0.0,0.0,0.0,0.0,0
660960000,-0.0041791643,-0.006497103,-0.002642319,-0.97913265,0.0030871925,-0.0033070818,-0.20319434,0.0,0.0,0.0,0.0,0
660972000,-0.0015095939,-0.0061407713,-0.0027472617,-0.979136,0.0030965416,-0.0032637143,-0.20317876,0.0,0.0,0.0,0.0,0
660984000,-0.002204227,-0.0070225154,-0.0028975876,-0.9791395,0.0030982236,-0.0032238732,-0.20316245,0.0,0.0,0.0,0.0,0
660996000,-0.0024737655,-0.00821393,-0.0029407162,-0.97914314,0.0031012786,-0.0031773548,-0.20314555,0.0,0.0,0.0,0.0,0
661008000,-0.0019217142,-0.0071868813,-0.0031614932,-0.9791469,0.0031022802,-0.0031283149,-0.20312801,0.0,0.0,0.0,0.0,0
661020000,-0.002721412,-0.007216658,-0.003229575,-0.9791509,0.0031063491,-0.0030843373,-0.20310944,0.0,0.0,0.0,0.0,0
661032000,-0.0020639154,-0.0072917757,-0.0033673034,-0.97915494,0.0031117436,-0.0030399258,-0.20309046,0.0,0.0,0.0,0.0,0
661044000,-0.0013923849,-0.0070319776,-0.0035311074,-0.97915924,0.0031126968,-0.0029940489,-0.20307048,0.0,0.0,0.0,0.0,0
661056000,-0.0010275507,-0.0048741093,-0.0036098366,-0.97916365,0.0031152216,-0.0029543287,-0.20304972,0.0,0.0,0.0,0.0,0
661068000,-0.000604931,-0.0032730405,-0.003591234,-0.9791681,0.0031162254,-0.0029291022,-0.2030286,0.0,0.0,0.0,0.0,0
661080000,-0.0010491784,-0.001784843,-0.0034432723,-0.97917247,0.0031162389,-0.0029100408,-0.20300783,0.0,0.0,0.0,0.0,0
661092000,-0.0013428235,0.0017587004,-0.0034516037,-0.97917664,0.0031227134,-0.0029050037,-0.2029877,0.0,0.0,0.0,0.0,0
661104000,-0.0018341942,0.0034525022,-0.0035152417,-0.9791808,0.003134803,-0.0029176222,-0.20296735,0.0,0.0,0.0,0.0,0
661116000,-0.0028074472,0.004902478,-0.0036302328,-0.979185,0.0031522666,-0.002937942,-0.20294642,0.0,0.0,0.0,0.0,0
661128000,-0.0030890906,0.0066195596,-0.003785289,-0.97918934,0.00317636,-0.002966353,-0.20292476,0.0,0.0,0.0,0.0,0
661140000,-0.005430082,0.007848074,-0.0039533186,-0.9791938,0.0032075013,-0.0030033414,-0.20290217,0.0,0.0,0.0,0.0,0
661152000,-0.005386175,0.0087220175,-0.00402237,-0.9791984,0.0032486194,-0.0030448174,-0.2028787,0.0,0.0,0.0,0.0,0
661164000,-0.004764506,0.009736407,-0.0040351804,-0.97920305,0.0032880655,-0.0030925153,-0.20285492,0.0,0.0,0.0,0.0,0
661176000,-0.005199096,0.009527823,-0.0041317493,-0.9792077,0.003328437,-0.0031445837,-0.202831,0.0,0.0,0.0,0.0,0
661188000,-0.004671349,0.009779799,-0.0040696324,-0.97921246,0.0033715533,-0.003196089,-0.2028066,0.0,0.0,0.0,0.0,0
661200000,-0.0026902377,0.009412262,-0.003941782,-0.9792171,0.0034063284,-0.0032479367,-0.20278278,0.0,0.0,0.0,0.0,0
661212000,-0.0007833247,0.010144028,-0.0038201232,-0.9792216,0.003428092,-0.003301719,-0.2027597,0.0,0.0,0.0,0.0,0
661224000,-0.0008478933,0.011286745,-0.0037376357,-0.979226,0.0034454837,-0.0033615609,-0.20273724,0.0,0.0,0.0,0.0,0
661236000,0.00094373967,0.011989696,-0.0036703697,-0.9792303,0.0034614895,-0.003429045,-0.20271519,0.0,0.0,0.0,0.0,0
661248000,0.0014330369,0.01349922,-0.003659856,-0.97923446,0.0034689468,-0.0035054155,-0.20269354,0.0,0.0,0.0,0.0,0
661260000,0.0015863936,0.013057945,-0.0036828292,-0.9792387,0.0034765375,-0.003586214,-0.20267157,0.0,0.0,0.0,0.0,0
661272000,0.0012485734,0.012658849,-0.003584234,-0.97924286,0.0034834854,-0.0036646954,-0.2026498,0.0,0.0,0.0,0.0,0
661284000,0.0016008606,0.012036387,-0.0035220007,-0.979247,0.0034906687,-0.0037398015,-0.20262861,0.0,0.0,0.0,0.0,0
661296000,0.0017753558,0.011290567,-0.003421802,-0.97925097,0.0034964755,-0.0038098362,-0.2026078,0.0,0.0,0.0,0.0,0
661308000,0.0008902937,0.009822968,-0.003226649,-0.97925484,0.0034986746,-0.0038753722,-0.20258772,0.0,0.0,0.0,0.0,0
661320000,-0.00096502365,0.007971387,-0.0030135415,-0.9792585,0.0035068118,-0.003929188,-0.20256905,0.0,0.0,0.0,0.0,0
661332000,-0.0032370377,0.0064926622,-0.0029379588,-0.9792619,0.003528091,-0.0039707026,-0.20255145,0.0,0.0,0.0,0.0,0
661344000,-0.0037946117,0.0057126693,-0.002871657,-0.9792652,0.0035555626,-0.00400242,-0.20253423,0.0,0.0,0.0,0.0,0
661356000,-0.0039642286,0.006177498,-0.0026302661,-0.9792684,0.0035871603,-0.0040320996,-0.20251782,0.0,0.0,0.0,0.0,0
661368000,-0.005451051,0.004622982,-0.0023066164,-0.97927123,0.003618827,-0.00405976,-0.20250282,0.0,0.0,0.0,0.0,0
661380000,-0.004325498,0.0029447363,-0.002027482,-0.9792737,0.0036536597,-0.0040790737,-0.20248981,0.0,0.0,0.0,0.0,0
661392000,-0.0027878112,0.0020661848,-0.0019382498,-0.979276,0.0036793766,-0.00409142,-0.20247813,0.0,0.0,0.0,0.0,0
661404000,-0.0005548575,0.0002855193,-0.0019270078,-0.97927827,0.0036917143,-0.004098084,-0.20246674,0.0,0.0,0.0,0.0,0
661416000,-0.00097178336,-0.0019276564,-0.0019427998,-0.9792806,0.003694375,-0.0040950757,-0.20245533,0.0,0.0,0.0,0.0,0
661428000,-0.0010629878,-0.002284118,-0.0019008731,-0.979283,0.0036958673,-0.0040817205,-0.20244403,0.0,0.0,0.0,0.0,0
661440000,-0.00049853144,-0.002106401,-0.001763807,-0.9792853,0.0036982233,-0.0040663895,-0.20243324,0.0,0.0,0.0,0.0,0
661452000,-0.0017040541,-0.0015381713,-0.0018892828,-0.9792875,0.0037019332,-0.0040516527,-0.20242266,0.0,0.0,0.0,0.0,0
661464000,-0.002185147,-0.0028741688,-0.0018408946,-0.9792898,0.0037110883,-0.0040371655,-0.20241168,0.0,0.0,0.0,0.0,0
661476000,-0.0025555966,-0.0034892221,-0.0017906277,-0.97929204,0.0037211173,-0.004016975,-0.2024011,0.0,0.0,0.0,0.0,0
661488000,-0.0020622758,-0.0037060734,-0.001801253,-0.97929424,0.0037321656,-0.003993226,-0.20239072,0.0,0.0,0.0,0.0,0
661500000,-0.0033509622,-0.00535136,-0.0019003769,-0.9792965,0.0037390566,-0.0039650872,-0.2023801,0.0,0.0,0.0,0.0,0
661512000,-0.0057966094,-0.0063300272,-0.001997267,-0.97929895,0.003755078,-0.0039264453,-0.20236892,0.0,0.0,0.0,0.0,0
661524000,-0.010228663,-0.0069555477,-0.0020389794,-0.9793014,0.0037888936,-0.003880396,-0.20235735,0.0,0.0,0.0,0.0,0
661536000,-0.012591388,-0.008163287,-0.0021097467,-0.9793038,0.0038446803,-0.0038237253,-0.20234577,0.0,0.0,0.0,0.0,0
661548000,-0.011612409,-0.0090166135,-0.0022348042,-0.9793063,0.003907317,-0.0037604324,-0.20233354,0.0,0.0,0.0,0.0,0
661560000,-0.011499525,-0.008778689,-0.0021919266,-0.9793089,0.0039662956,-0.0036944253,-0.20232096,0.0,0.0,0.0,0.0,0
661572000,-0.011446944,-0.0076206764,-0.0022431135,-0.9793115,0.004021491,-0.0036315112,-0.20230842,0.0,0.0,0.0,0.0,0
661584000,-0.01222896,-0.0064099934,-0.0021889482,-0.9793141,0.004081008,-0.0035752938,-0.20229574,0.0,0.0,0.0,0.0,0
661596000,-0.011575321,-0.0064912303,-0.0019378965,-0.97931653,0.0041440395,-0.0035229872,-0.20228368,0.0,0.0,0.0,0.0,0
661608000,-0.011738912,-0.0067049987,-0.0016964666,-0.9793186,0.004204648,-0.0034702152,-0.20227319,0.0,0.0,0.0,0.0,0
661620000,-0.0098290555,-0.0051190834,-0.001617567,-0.97932047,0.004262004,-0.003419163,-0.20226386,0.0,0.0,0.0,0.0,0
661632000,-0.0073535694,-0.0038095363,-0.001474465,-0.97932225,0.0043069487,-0.00338056,-0.20225483,0.0,0.0,0.0,0.0,0
661644000,-0.0042180275,-0.0022501068,-0.0014316568,-0.9793239,0.004343,-0.0033534467,-0.20224656,0.0,0.0,0.0,0.0,0
661656000,-0.0024506608,-0.0007302678,-0.0013149064,-0.97932553,0.0043636975,-0.0033393952,-0.20223853,0.0,0.0,0.0,0.0,0
661668000,-0.0004023797,-0.0007141576,-0.0011259309,-0.979327,0.0043738782,-0.0033340643,-0.20223108,0.0,0.0,0.0,0.0,0
661680000,0.0012023933,-0.0003368883,-0.00095809833,-0.97932833,0.004373356,-0.0033297692,-0.20222494,0.0,0.0,0.0,0.0,0
661692000,0.0016259708,-0.00036730035,-0.0010170982,-0.9793295,0.004366924,-0.0033290472,-0.20221913,0.0,0.0,0.0,0.0,0
661704000,-8.4172825e-06,-0.0007490678,-0.001128664,-0.9793309,0.004360199,-0.003326445,-0.20221286,0.0,0.0,0.0,0.0,0
661716000,-0.00039314732,-0.002078421,-0.0012480447,-0.9793323,0.004360319,-0.0033190844,-0.2022061,0.0,0.0,0.0,0.0,0
661728000,0.0011325335,-0.0039661084,-0.001354017,-0.97933394,0.0043571037,-0.0033021837,-0.20219861,0.0,0.0,0.0,0.0,0
661740000,-0.0003838233,-0.0065915524,-0.0014525908,-0.9793357,0.0043442864,-0.0032742056,-0.20219049,0.0,0.0,0.0,0.0,0
661752000,0.00018247077,-0.008246947,-0.0014577259,-0.9793377,0.004336013,-0.003232118,-0.20218202,0.0,0.0,0.0,0.0,0
661764000,-0.0012853389,-0.008107003,-0.0014538718,-0.9793396,0.004330635,-0.0031839858,-0.20217372,0.0,0.0,0.0,0.0,0
661776000,-0.0014906438,-0.008987893,-0.0014291247,-0.97934145,0.004329003,-0.0031327219,-0.20216559,0.0,0.0,0.0,0.0,0
661788000,-0.00029138732,-0.009559145,-0.0013625225,-0.9793433,0.0043268236,-0.0030769429,-0.20215745,0.0,0.0,0.0,0.0,0
661800000,0.0011388592,-0.009368215,-0.0011995655,-0.9793451,0.004311612,-0.0030205227,-0.20215002,0.0,0.0,0.0,0.0,0
661812000,0.0010660528,-0.008703854,-0.0010330281,-0.97934663,0.0042938027,-0.002968727,-0.20214362,0.0,0.0,0.0,0.0,0
661824000,0.0011348834,-0.008767125,-0.0009532676,-0.97934806,0.004277042,-0.0029186422,-0.20213786,0.0,0.0,0.0,0.0,0
661836000,0.00024114567,-0.0070028193,-0.00083569926,-0.9793493,0.0042620865,-0.0028718119,-0.20213273,0.0,0.0,0.0,0.0,0
661848000,0.0016265427,-0.0063395356,-0.00059553585,-0.9793503,0.004246919,-0.0028321282,-0.20212851,0.0,0.0,0.0,0.0,0
661860000,0.0026159314,-0.004806981,-0.00043285234,-0.97935116,0.004228957,-0.002800222,-0.20212549,0.0,0.0,0.0,0.0,0
661872000,0.0055064033,-0.0028284893,-0.00040093833,-0.9793518,0.00420324,-0.0027804691,-0.20212305,0.0,0.0,0.0,0.0,0
661884000,0.007070895,-0.000704039,-0.00044628617,-0.97935253,0.004161408,-0.0027758675,-0.20212056,0.0,0.0,0.0,0.0,0
661896000,0.0073783095,0.0016401003,-0.00041281883,-0.97935325,0.004118878,-0.0027847379,-0.20211786,0.0,0.0,0.0,0.0,0
661908000,0.0074832155,0.004871124,-0.00045351384,-0.97935385,0.004077553,-0.0028102023,-0.20211524,0.0,0.0,0.0,0.0,0
661920000,0.008153154,0.0070447116,-0.00060083985,-0.97935456,0.004040248,-0.0028534834,-0.2021121,0.0,0.0,0.0,0.0,0
661932000,0.008035697,0.009153954,-0.00062814745,-0.9793554,0.0040033413,-0.0029101938,-0.20210809,0.0,0.0,0.0,0.0,0
661944000,0.007950842,0.009861404,-0.00071453373,-0.97935617,0.0039657457,-0.0029766315,-0.20210385,0.0,0.0,0.0,0.0,0
661956000,0.006844781,0.010169099,-0.00086152734,-0.9793571,0.003933993,-0.0030428453,-0.20209906,0.0,0.0,0.0,0.0,0
661968000,0.00531055,0.010689094,-0.00089239236,-0.97935814,0.003910468,-0.0031116228,-0.20209353,0.0,0.0,0.0,0.0,0
661980000,0.004115143,0.010180467,-0.0009564256,-0.97935915,0.003895832,-0.0031801143,-0.20208776,0.0,0.0,0.0,0.0,0
661992000,0.0044990587,0.008037686,-0.00084951665,-0.97936016,0.0038815145,-0.0032400698,-0.20208211,0.0,0.0,0.0,0.0,0
662004000,0.0040545226,0.0056638876,-0.0006765225,-0.9793611,0.0038665845,-0.0032873163,-0.20207708,0.0,0.0,0.0,0.0,0
662016000,0.0035963655,0.0032828934,-0.00033700725,-0.9793618,0.0038491203,-0.0033218472,-0.20207362,0.0,0.0,0.0,0.0,0
662028000,-0.00036797038,0.0029690366,-0.00016900124,-0.9793621,0.0038384174,-0.003344009,-0.20207195,0.0,0.0,0.0,0.0,0
662040000,-0.003613244,0.0022211228,-1.5063029e-05,-0.9793622,0.0038505832,-0.0033584826,-0.2020711,0.0,0.0,0.0,0.0,0
662052000,-0.006642249,0.0022086035,0.00036899722,-0.9793619,0.0038824305,-0.0033665553,-0.2020718,0.0,0.0,0.0,0.0,0
662064000,-0.0074424,0.0014083072,0.00049337425,-0.9793611,0.0039248085,-0.0033709288,-0.20207447,0.0,0.0,0.0,0.0,0
662076000,-0.0061390316,0.001144512,0.0004817747,-0.97936034,0.003967664,-0.0033689502,-0.20207743,0.0,0.0,0.0,0.0,0
662088000,-0.0077966754,0.00034982862,0.00036162022,-0.9793596,0.0040056924,-0.0033678608,-0.20208028,0.0,0.0,0.0,0.0,0
662100000,-0.0073436974,-0.0013602778,0.00013529092,-0.9793591,0.0040511754,-0.003355736,-0.20208213,0.0,0.0,0.0,0.0,0
662112000,-0.0055392655,-0.0016202382,2.7035974e-05,-0.97935885,0.0040905583,-0.0033388513,-0.20208281,0.0,0.0,0.0,0.0,0
662124000,-0.0026832588,-0.0029476928,-3.2439737e-05,-0.9793588,0.0041161096,-0.0033223417,-0.20208296,0.0,0.0,0.0,0.0,0
662136000,-0.0003310266,-0.0027809965,-3.142511e-05,-0.97935885,0.0041229003,-0.0033007134,-0.20208286,0.0,0.0,0.0,0.0,0
662144000,0.001633866,-0.0023023135,-2.694982e-05,-0.9793589,0.0041209967,-0.0032898854,-0.2020828,0.0,0.0,0.0,0.0,0
662160000,0.004815791,-0.0013151506,7.467008e-06,-0.9793591,0.0040978715,-0.0032803523,-0.20208244,0.0,0.0,0.0,0.0,0
662172000,0.0059637595,-0.0002601828,0.0001314627,-0.97935915,0.0040637087,-0.0032825514,-0.20208274,0.0,0.0,0.0,0.0,0
662184000,0.0055884845,0.00025498506,0.00017790601,-0.97935915,0.004028793,-0.003288867,-0.20208351,0.0,0.0,0.0,0.0,0
662196000,0.0050854115,-0.00028230998,0.0002221149,-0.97935903,0.0039981906,-0.003296485,-0.20208453,0.0,0.0,0.0,0.0,0
662208000,0.004419993,-0.0014472252,0.00016365142,-0.9793589,0.003967584,-0.0032994295,-0.20208573,0.0,0.0,0.0,0.0,0
662220000,0.0021994868,-0.0020703152,0.00013405111,-0.9793588,0.0039435118,-0.0032934383,-0.20208663,0.0,0.0,0.0,0.0,0
662232000,-7.9552534e-05,-0.0025438988,0.000186601,-0.97935873,0.003933554,-0.0032815614,-0.20208743,0.0,0.0,0.0,0.0,0
662244000,-0.00069041236,-0.0015998957,0.00025083424,-0.9793585,0.003932724,-0.0032669364,-0.20208877,0.0,0.0,0.0,0.0,0
662256000,-0.0010196483,-0.0017025525,0.00029007733,-0.9793582,0.00393654,-0.0032560786,-0.20209035,0.0,0.0,0.0,0.0,0
662268000,-0.0021850148,-0.0035393338,0.00043352862,-0.97935784,0.0039440794,-0.0032413295,-0.20209233,0.0,0.0,0.0,0.0,0
662280000,-0.0033294568,-0.0046364446,0.0003916643,-0.9793573,0.0039539444,-0.0032159493,-0.20209505,0.0,0.0,0.0,0.0,0
662292000,-0.0034590827,-0.006189036,0.00039272878,-0.9793568,0.003965921,-0.0031815977,-0.20209752,0.0,0.0,0.0,0.0,0
662304000,-0.0030238612,-0.0072501698,0.00030849563,-0.97935647,0.0039796336,-0.0031387887,-0.20209992,0.0,0.0,0.0,0.0,0
662316000,-0.0046609915,-0.006848435,0.00011087376,-0.97935617,0.0039901976,-0.0030929102,-0.2021017,0.0,0.0,0.0,0.0,0
662328000,-0.0069081364,-0.005582425,-4.677968e-05,-0.9793561,0.0040133153,-0.003048339,-0.20210224,0.0,0.0,0.0,0.0,0
662340000,-0.008052945,-0.0053182403,5.233932e-05,-0.97935605,0.0040470525,-0.0030073775,-0.20210235,0.0,0.0,0.0,0.0,0
662352000,-0.008305962,-0.005051979,0.0002383435,-0.9793558,0.004090189,-0.0029678908,-0.20210339,0.0,0.0,0.0,0.0,0
662364000,-0.0065364987,-0.0040617357,0.00035710342,-0.97935534,0.004132178,-0.002930234,-0.20210537,0.0,0.0,0.0,0.0,0
662376000,-0.0067941733,-0.0037864647,0.00037195088,-0.9793548,0.0041657286,-0.0028988016,-0.20210773,0.0,0.0,0.0,0.0,0
662388000,-0.006878816,-0.0026828272,0.00041111486,-0.9793542,0.004201294,-0.0028695792,-0.20211026,0.0,0.0,0.0,0.0,0
662400000,-0.006192574,-0.0031769387,0.0004798181,-0.97935355,0.0042354064,-0.0028449537,-0.202113,0.0,0.0,0.0,0.0,0
662412000,-0.0061969934,-0.004911285,0.0004922411,-0.9793529,0.0042659612,-0.002816716,-0.202116,0.0,0.0,0.0,0.0,0
662424000,-0.007147802,-0.0072520385,0.0006302858,-0.9793522,0.004296039,-0.002776365,-0.20211937,0.0,0.0,0.0,0.0,0
662436000,-0.009458174,-0.008365466,0.0007981506,-0.9793512,0.0043346346,-0.0027222615,-0.20212382,0.0,0.0,0.0,0.0,0
662448000,-0.012840781,-0.009951988,0.00093666225,-0.9793501,0.0043860376,-0.002657381,-0.20212913,0.0,0.0,0.0,0.0,0
662460000,-0.014802334,-0.010533414,0.0010560867,-0.9793487,0.004451676,-0.0025815987,-0.20213528,0.0,0.0,0.0,0.0,0
662472000,-0.01606687,-0.011023304,0.0009714108,-0.9793472,0.0045281267,-0.00249995,-0.20214193,0.0,0.0,0.0,0.0,0
662484000,-0.015784414,-0.012237189,0.000952729,-0.9793458,0.0046088365,-0.002412598,-0.20214815,0.0,0.0,0.0,0.0,0
662496000,-0.015098293,-0.012893646,0.00092641375,-0.9793444,0.00468279,-0.0023194847,-0.20215422,0.0,0.0,0.0,0.0,0
662508000,-0.014699422,-0.012614199,0.0010564752,-0.979343,0.0047552013,-0.0022274612,-0.20216039,0.0,0.0,0.0,0.0,0
662520000,-0.013779948,-0.012465501,0.0013508126,-0.9793414,0.0048218537,-0.00213632,-0.20216762,0.0,0.0,0.0,0.0,0
662528000,-0.013518989,-0.0120826,0.0014191938,-0.97934014,0.004865083,-0.00207734,-0.20217338,0.0,0.0,0.0,0.0,0
662544000,-0.012126622,-0.008829857,0.0013890839,-0.9793375,0.0049484544,-0.001969018,-0.20218514,0.0,0.0,0.0,0.0,0
662556000,-0.008958052,-0.0055653197,0.0014520829,-0.97933555,0.005004385,-0.0019094462,-0.20219375,0.0,0.0,0.0,0.0,0
662568000,-0.008272712,-0.0038207043,0.0013364814,-0.97933364,0.0050495802,-0.0018683121,-0.20220232,0.0,0.0,0.0,0.0,0
662580000,-0.0058557186,-3.6526755e-05,0.0011112788,-0.9793319,0.0050894413,-0.0018448158,-0.20220989,0.0,0.0,0.0,0.0,0
662592000,-0.0031851053,0.0015112999,0.00092225446,-0.9793305,0.005117994,-0.001842553,-0.20221613,0.0,0.0,0.0,0.0,0
662604000,-0.0028214958,0.003286891,0.00073745917,-0.9793293,0.0051368494,-0.0018512066,-0.20222118,0.0,0.0,0.0,0.0,0
662616000,-0.0039161667,0.0029097437,0.0005942333,-0.97932833,0.00516061,-0.0018647895,-0.20222525,0.0,0.0,0.0,0.0,0
662628000,-0.0036965094,0.0027615714,0.0004992128,-0.9793275,0.0051845275,-0.0018763711,-0.20222856,0.0,0.0,0.0,0.0,0
662640000,-0.0019566487,0.0018613993,0.0004348211,-0.9793268,0.0052051586,-0.0018869109,-0.20223139,0.0,0.0,0.0,0.0,0
662652000,-0.0006080131,0.00043928347,0.00023499156,-0.97932625,0.0052167466,-0.0018922084,-0.20223358,0.0,0.0,0.0,0.0,0
662664000,0.00051157724,-0.0005965119,5.6396133e-05,-0.979326,0.005217948,-0.0018929832,-0.20223458,0.0,0.0,0.0,0.0,0
662676000,9.7872464e-05,-0.00020413434,3.8778166e-05,-0.97932595,0.005216613,-0.001889581,-0.20223488,0.0,0.0,0.0,0.0,0
662688000,0.0005954582,-0.0011528023,-3.6792786e-05,-0.97932595,0.005215552,-0.0018880698,-0.20223494,0.0,0.0,0.0,0.0,0
662700000,-4.3571174e-05,-0.0025936605,-6.3427695e-05,-0.97932607,0.005212545,-0.0018781364,-0.20223467,0.0,0.0,0.0,0.0,0
662712000,0.0013685476,-0.0014701829,-6.1033235e-05,-0.9793262,0.0052076527,-0.0018647667,-0.20223445,0.0,0.0,0.0,0.0,0
662724000,0.001605082,-0.001311705,-0.0002692608,-0.97932637,0.005195161,-0.001858437,-0.20223373,0.0,0.0,0.0,0.0,0
662736000,0.002386147,-0.0014112998,-0.0002826408,-0.9793268,0.0051827338,-0.0018522487,-0.20223208,0.0,0.0,0.0,0.0,0
662748000,0.0022574747,-0.0027407785,-0.000174528,-0.9793272,0.0051640864,-0.0018440945,-0.20223059,0.0,0.0,0.0,0.0,0
662760000,0.0013283504,-0.0028707702,-0.00017002637,-0.9793275,0.00514868,-0.0018296329,-0.20222977,0.0,0.0,0.0,0.0,0
662772000,0.0017875318,-0.0032496767,-0.00025320012,-0.97932786,0.005135937,-0.0018153563,-0.20222864,0.0,0.0,0.0,0.0,0
662784000,0.002873266,-0.0041947756,-0.00021005217,-0.9793283,0.0051181656,-0.0017972966,-0.20222719,0.0,0.0,0.0,0.0,0
662796000,0.002787241,-0.005898887,-7.7684264e-05,-0.97932863,0.0050956295,-0.001774586,-0.20222628,0.0,0.0,0.0,0.0,0
662808000,0.0027415014,-0.008122546,7.222579e-05,-0.9793288,0.005070608,-0.0017382686,-0.20222625,0.0,0.0,0.0,0.0,0
662820000,0.0022920433,-0.010047267,0.0002023537,-0.9793289,0.00504576,-0.0016914236,-0.20222698,0.0,0.0,0.0,0.0,0
662832000,0.00230286,-0.011115521,0.00047003594,-0.9793287,0.005020958,-0.0016325025,-0.20222901,0.0,0.0,0.0,0.0,0
662844000,0.004345667,-0.012949142,0.0007741285,-0.9793282,0.0049901097,-0.0015683728,-0.20223263,0.0,0.0,0.0,0.0,0
662856000,0.004020961,-0.013514211,0.0011375211,-0.9793273,0.004950368,-0.0014959296,-0.20223828,0.0,0.0,0.0,0.0,0
662864000,0.0048504854,-0.014627208,0.0012848139,-0.97932655,0.0049228435,-0.0014456577,-0.20224316,0.0,0.0,0.0,0.0,0
662880000,0.0049702777,-0.016938074,0.0013975058,-0.9793247,0.00486066,-0.0013320652,-0.20225434,0.0,0.0,0.0,0.0,0
662892000,0.004937341,-0.017421901,0.0013006598,-0.9793233,0.0048112674,-0.0012363255,-0.20226292,0.0,0.0,0.0,0.0,0
662904000,0.006808904,-0.017314686,0.0011109184,-0.9793221,0.004757888,-0.001141848,-0.20227072,0.0,0.0,0.0,0.0,0
662916000,0.0077683036,-0.016102884,0.0007606245,-0.9793211,0.0046988055,-0.00104856,-0.20227706,0.0,0.0,0.0,0.0,0
662928000,0.009642181,-0.0139782755,0.00038303272,-0.9793207,0.0046309,-0.000968294,-0.20228118,0.0,0.0,0.0,0.0,0
662940000,0.009552711,-0.012358694,4.996737e-05,-0.9793207,0.0045575323,-0.00090312655,-0.20228305,0.0,0.0,0.0,0.0,0
662948000,0.010000496,-0.011511415,-0.00013224086,-0.97932094,0.0045099407,-0.0008634938,-0.20228323,0.0,0.0,0.0,0.0,0
662964000,0.010699239,-0.009518844,-0.00049768283,-0.97932184,0.0044143135,-0.00079638173,-0.20228134,0.0,0.0,0.0,0.0,0
662976000,0.01022705,-0.009448437,-0.0006649885,-0.97932285,0.004340004,-0.00075349194,-0.2022782,0.0,0.0,0.0,0.0,0
662984000,0.009409013,-0.009758242,-0.00074271037,-0.9793236,0.0042939223,-0.0007244187,-0.2022756,0.0,0.0,0.0,0.0,0
663000000,0.00544513,-0.011255736,-0.000821878,-0.9793252,0.0042155995,-0.00065514393,-0.20226978,0.0,0.0,0.0,0.0,0
663012000,0.0032578919,-0.011830112,-0.00063138147,-0.9793263,0.00417629,-0.00059419894,-0.2022654,0.0,0.0,0.0,0.0,0
663024000,0.00010796051,-0.011365646,-0.0004180944,-0.9793271,0.0041464195,-0.0005291623,-0.20226257,0.0,0.0,0.0,0.0,0
663036000,-0.00030653848,-0.010895091,-0.00031027675,-0.97932756,0.004132578,-0.00046293496,-0.2022606,0.0,0.0,0.0,0.0,0
663048000,-0.00012382916,-0.009483318,-0.00019417575,-0.97932786,0.0041240663,-0.00040143175,-0.20225938,0.0,0.0,0.0,0.0,0
663060000,0.00012252164,-0.008327924,-0.00018175812,-0.9793281,0.004112605,-0.00034805603,-0.2022585,0.0,0.0,0.0,0.0,0
663072000,0.00014407704,-0.007906859,-0.00021363402,-0.97932833,0.00410305,-0.00030051378,-0.2022576,0.0,0.0,0.0,0.0,0
663084000,-0.00067728903,-0.0066456227,-0.00020812552,-0.97932863,0.004092581,-0.00025747408,-0.20225652,0.0,0.0,0.0,0.0,0
663096000,-9.741945e-05,-0.005581592,-0.00037500192,-0.979329,0.0040868022,-0.00022079643,-0.20225514,0.0,0.0,0.0,0.0,0
663108000,0.0013651208,-0.0046453304,-0.0004111063,-0.97932947,0.004078075,-0.00019062494,-0.2022528,0.0,0.0,0.0,0.0,0
663120000,0.002218874,-0.0027376213,-0.00046958902,-0.97933006,0.0040620016,-0.00016921973,-0.20225047,0.0,0.0,0.0,0.0,0
663132000,0.0039738263,-0.001333637,-0.00059188,-0.9793307,0.0040428704,-0.00015824124,-0.2022475,0.0,0.0,0.0,0.0,0
663144000,0.0070865504,-0.0022085672,-0.0006182811,-0.9793316,0.004010435,-0.00015435417,-0.20224398,0.0,0.0,0.0,0.0,0
663152000,0.0076141134,-0.0026615432,-0.0006126885,-0.9793322,0.003979689,-0.0001518292,-0.20224161,0.0,0.0,0.0,0.0,0
663164000,0.0063726883,-0.004038873,-0.00044342416,-0.9793331,0.003931511,-0.00014171921,-0.20223828,0.0,0.0,0.0,0.0,0
663180000,0.0067873555,-0.0061568604,-0.00013413107,-0.9793338,0.0038722446,-0.000113651586,-0.202236,0.0,0.0,0.0,0.0,0
663192000,0.0055427114,-0.00798198,-6.3906715e-05,-0.9793341,0.003825008,-8.170007e-05,-0.20223546,0.0,0.0,0.0,0.0,0
663204000,0.003605584,-0.0099365655,-0.00013073275,-0.9793343,0.0037873057,-3.642297e-05,-0.20223522,0.0,0.0,0.0,0.0,0
663216000,0.0036738121,-0.011262404,-0.00030456626,-0.9793346,0.0037517927,1.9513966e-05,-0.20223436,0.0,0.0,0.0,0.0,0
663228000,0.003076065,-0.012629418,-0.00041150543,-0.9793351,0.0037170271,8.3601495e-05,-0.20223252,0.0,0.0,0.0,0.0,0
663240000,0.0039841044,-0.014379042,-0.0004425244,-0.97933567,0.0036833796,0.00015729434,-0.20223038,0.0,0.0,0.0,0.0,0
663252000,0.0018030001,-0.013211155,-0.0004171968,-0.97933626,0.003646861,0.000235617,-0.2022282,0.0,0.0,0.0,0.0,0
663264000,-0.0013123633,-0.01250918,-0.00038304983,-0.97933674,0.0036266644,0.00031013167,-0.20222616,0.0,0.0,0.0,0.0,0
663276000,-0.0021306544,-0.012555328,-0.0003872127,-0.97933716,0.0036213708,0.00038597526,-0.20222417,0.0,0.0,0.0,0.0,0
663288000,-0.0019968012,-0.012649201,-0.00043778878,-0.9793376,0.0036191682,0.00046175424,-0.20222203,0.0,0.0,0.0,0.0,0
663300000,-0.0021591668,-0.0102902865,-0.00049008214,-0.97933805,0.0036169519,0.00053466804,-0.20221953,0.0,0.0,0.0,0.0,0
663312000,-0.0033924987,-0.008577799,-0.00064716634,-0.9793386,0.0036224348,0.0005969107,-0.20221655,0.0,0.0,0.0,0.0,0
663324000,-0.002196414,-0.007218444,-0.0006165686,-0.9793393,0.003630014,0.000647448,-0.20221289,0.0,0.0,0.0,0.0,0
663336000,-0.0021935403,-0.0069899834,-0.000567095,-0.97933996,0.0036332246,0.00069255295,-0.20220952,0.0,0.0,0.0,0.0,0
663348000,-0.0012272558,-0.0062333285,-0.00047401653,-0.97934055,0.0036373774,0.0007344331,-0.20220646,0.0,0.0,0.0,0.0,0
663360000,-0.0010040536,-0.00602599,-0.00047826738,-0.97934103,0.0036368258,0.0007700408,-0.20220385,0.0,0.0,0.0,0.0,0
