timestamp,magnetometer_ga[0],magnetometer_ga[1],magnetometer_ga[2]
657292000,0.20268096,-0.079159774,0.43025953
657304000,0.20268098,-0.07915977,0.43025953
657312000,0.20268098,-0.07915977,0.43025953
657324000,0.20268099,-0.07915974,0.43025953
657332000,0.2020604,-0.07599967,0.42714065
657344000,0.20206048,-0.07599966,0.42714062
657352000,0.20206054,-0.07599966,0.4271406
657364000,0.20206058,-0.07599963,0.42714056
657372000,0.20206061,-0.07599963,0.42714056
657384000,0.20364751,-0.07867731,0.43001917
657392000,0.20364751,-0.07867732,0.43001917
657404000,0.20364751,-0.078677274,0.4300192
657412000,0.20364751,-0.07867727,0.43001917
657424000,0.20364752,-0.07867731,0.43001917
657432000,0.19941776,-0.07584223,0.43029907
657444000,0.19941776,-0.07584228,0.43029904
657452000,0.19941776,-0.07584229,0.43029904
657464000,0.19941776,-0.07584224,0.43029907
657472000,0.19941776,-0.07584225,0.43029907
657484000,0.20511824,-0.07681536,0.4281722
657492000,0.20511824,-0.07681526,0.42817223
657504000,0.20511824,-0.07681532,0.42817223
657512000,0.20511824,-0.07681532,0.42817223
657524000,0.20511824,-0.07681528,0.42817223
657532000,0.20511824,-0.07681528,0.42817223
657544000,0.20586267,-0.07593783,0.42945796
657552000,0.20586267,-0.07593783,0.42945796
657564000,0.20586269,-0.075937755,0.42945796
657572000,0.2058627,-0.075937755,0.42945796
657584000,0.20586269,-0.07593772,0.42945796
657592000,0.20374326,-0.076199844,0.43190968
657604000,0.20374319,-0.076144256,0.43191952
657612000,0.20374316,-0.07606703,0.43193313
657624000,0.20374314,-0.0758645,0.43196878
657632000,0.20374319,-0.07565911,0.43200478
657644000,0.20169973,-0.07335759,0.42717037
657652000,0.20170794,-0.072974004,0.42723218
657664000,0.20174056,-0.07228593,0.42733374
657672000,0.20177501,-0.07179002,0.4274011
657684000,0.20184232,-0.071030214,0.42749622
657692000,0.20204215,-0.07454189,0.428336
657704000,0.20213641,-0.07380185,0.42841965
657712000,0.20220786,-0.07333217,0.4284666
657724000,0.20232262,-0.07266045,0.42852685
657732000,0.20240234,-0.07223961,0.42856035
657744000,0.2037442,-0.07086828,0.43078086
657752000,0.2038319,-0.070523925,0.43079588
657764000,0.20396002,-0.07007628,0.43080828
657772000,0.20404121,-0.0698181,0.43081176
657784000,0.20416002,-0.06948129,0.43080992
657792000,0.20423865,-0.06929564,0.43080255
657804000,0.202086,-0.06659257,0.43138468
657812000,0.20215648,-0.066484824,0.43136826
657824000,0.20225789,-0.06637716,0.43133733
657832000,0.20232147,-0.0663396,0.43131328
657844000,0.20241724,-0.06634102,0.43126813
657852000,0.20320265,-0.06477936,0.4314965
657864000,0.20329015,-0.06487014,0.43144163
657872000,0.20334208,-0.06495991,0.43140367
657884000,0.203412,-0.06514679,0.4313425
657892000,0.20345154,-0.06529467,0.4313015
657904000,0.20754294,-0.06812526,0.4304927
657912000,0.20757872,-0.06831153,0.43044594
657924000,0.20762578,-0.06861102,0.4303756
657932000,0.20765303,-0.06881619,0.4303297
657944000,0.20768426,-0.069137946,0.43026304
657952000,0.20589824,-0.06837198,0.42894816
657964000,0.20591556,-0.06869491,0.42888826
657972000,0.20592324,-0.068912886,0.4288496
657984000,0.20593251,-0.06924094,0.4287923
657992000,0.20594089,-0.06945751,0.42875326
658004000,0.20414066,-0.072881155,0.42984265
658012000,0.20414783,-0.07308097,0.42980534
658024000,0.20415577,-0.07336537,0.4297531
658032000,0.20416135,-0.07354703,0.42971942
658044000,0.2041651,-0.07381013,0.4296725
658052000,0.20416698,-0.073976934,0.42964292
658064000,0.20560354,-0.07318125,0.42934602
658072000,0.20560414,-0.073332064,0.42932
658084000,0.20560785,-0.07356092,0.4292791
658092000,0.20561203,-0.07371067,0.42925137
658104000,0.20560813,-0.07392766,0.42921594
658112000,0.20363231,-0.0748699,0.4303038
658124000,0.20362864,-0.07505521,0.43027326
658132000,0.20362552,-0.07516953,0.4302548
658144000,0.20362595,-0.07532886,0.4302267
658152000,0.20362704,-0.07542462,0.43020943
658164000,0.20242867,-0.07458291,0.4265371
658172000,0.2024252,-0.074663855,0.42652458
658184000,0.20241259,-0.07477485,0.4265111
658192000,0.20239612,-0.07484269,0.42650703
658204000,0.20235783,-0.07493279,0.42650938
658212000,0.20555826,-0.074531786,0.42948854
658224000,0.20549056,-0.07459478,0.42951
658232000,0.20543315,-0.074627414,0.42953178
658244000,0.20532978,-0.07467074,0.42957368
658252000,0.20526208,-0.07470281,0.42960048
658264000,0.2019348,-0.07494777,0.4272937
658272000,0.20189229,-0.07497527,0.42730895
658284000,0.20184676,-0.0750094,0.42732447
658292000,0.20182613,-0.07503116,0.4273304
658304000,0.20180896,-0.075062394,0.42733303
658312000,0.20180844,-0.0750842,0.42732942
658324000,0.20426257,-0.07738329,0.42760882
658332000,0.20427272,-0.07739941,0.42760104
658344000,0.20428482,-0.077415064,0.42759243
658352000,0.20428865,-0.07741559,0.42759052
658364000,0.20428605,-0.07740165,0.42759427
658372000,0.20240346,-0.07486127,0.42839873
658384000,0.20236816,-0.07482612,0.42842156
658392000,0.20233406,-0.07479403,0.42844325
658404000,0.2022636,-0.07474007,0.42848593
658412000,0.20220296,-0.0747022,0.42852116
658424000,0.19839536,-0.07569528,0.42809308
658432000,0.19831415,-0.075652786,0.4281382
658444000,0.19817849,-0.07558904,0.42821229
658452000,0.19807899,-0.07554654,0.4282658
658464000,0.19792226,-0.07548453,0.4283492
658472000,0.20105503,-0.072939895,0.42698967
658484000,0.20087647,-0.072887145,0.42708272
658492000,0.20075879,-0.07285996,0.42714268
658504000,0.20058481,-0.0728334,0.42722893
658512000,0.20047015,-0.07282053,0.42728493
658524000,0.20269075,-0.07427631,0.42964658
658532000,0.20257424,-0.07427274,0.42970216
658544000,0.20240542,-0.074282385,0.42978004
658552000,0.20229678,-0.07429876,0.42982835
658564000,0.2021396,-0.07433862,0.4298954
658572000,0.20204186,-0.074375905,0.4299349
658584000,0.20430084,-0.074031174,0.42908326
658592000,0.20421866,-0.07408004,0.42911395
658604000,0.20410714,-0.0741514,0.42915466
658612000,0.20404205,-0.07420118,0.42917702
658624000,0.20395854,-0.07427363,0.4292042
658632000,0.19899233,-0.072948,0.4291675
658644000,0.19893613,-0.07301931,0.42918143
658652000,0.19890593,-0.0730633,0.42918792
658664000,0.19887234,-0.073126,0.4291928
658672000,0.1988566,-0.07316838,0.4291929
658684000,0.20152967,-0.07689026,0.43315515
658692000,0.20152563,-0.07694069,0.4331481
658704000,0.20152804,-0.07701664,0.43313345
658712000,0.20153376,-0.077068545,0.43312156
658724000,0.20154695,-0.077145316,0.43310177
658732000,0.20575105,-0.07527916,0.42687482
658744000,0.20577113,-0.075368404,0.42684937
658752000,0.20578556,-0.075430855,0.4268314
658764000,0.20581001,-0.07552755,0.4268025
658772000,0.20583053,-0.07559306,0.426781
658784000,0.19933143,-0.078076534,0.43002364
658792000,0.19935733,-0.07814306,0.42999956
658804000,0.19939849,-0.07824239,0.42996243
658812000,0.19942495,-0.07830447,0.42993882
658824000,0.19945972,-0.07838129,0.42990872
658832000,0.19947663,-0.07842278,0.42989329
658844000,0.19964202,-0.07594932,0.43084347
658852000,0.19964638,-0.07598833,0.43083456
658864000,0.19964486,-0.076041214,0.43082595
658872000,0.19963585,-0.076067716,0.43082544
658884000,0.19961786,-0.07609923,0.4308282
658892000,0.19851196,-0.07464358,0.43320966
658904000,0.19849484,-0.07465782,0.43321505
658912000,0.19848797,-0.07466548,0.43321687
658924000,0.19848655,-0.07468631,0.43321395
658932000,0.19848765,-0.07470757,0.43320978
658944000,0.20047648,-0.07385833,0.43000755
658952000,0.20048109,-0.07388771,0.43000036
658964000,0.20048673,-0.07393424,0.42998973
658972000,0.20049572,-0.07396947,0.42997947
658984000,0.2005114,-0.07402783,0.42996213
658992000,0.197962,-0.074008025,0.42948896
659004000,0.1979698,-0.07406946,0.4294748
659012000,0.19796605,-0.074108385,0.4294698
659024000,0.1979449,-0.07415979,0.4294707
659032000,0.19792275,-0.074192055,0.4294753
659044000,0.2016393,-0.075880945,0.429821
659052000,0.20160568,-0.07590112,0.42983323
659064000,0.20155203,-0.0759235,0.42985445
659072000,0.201519,-0.075932324,0.42986837
659084000,0.20146935,-0.07594614,0.4298892
659092000,0.20143774,-0.07595603,0.42990226
659104000,0.20083342,-0.0774659,0.42765018
659112000,0.20080778,-0.07747188,0.42766115
659124000,0.20076929,-0.07748099,0.42767757
659132000,0.20074452,-0.07748707,0.4276881
659144000,0.20071301,-0.07749399,0.42770162
659152000,0.20101927,-0.07736212,0.4298847
659164000,0.20098826,-0.077362016,0.42989922
659172000,0.2009684,-0.07735795,0.42990926
659184000,0.20093709,-0.07734542,0.42992613
659192000,0.20091514,-0.07733542,0.4299382
659204000,0.19919822,-0.07476508,0.42671907
659212000,0.19917564,-0.07475303,0.42673174
659224000,0.19914393,-0.07472613,0.42675123
659232000,0.19912496,-0.074700914,0.42676452
659244000,0.19910571,-0.0746631,0.4267801
659252000,0.19988516,-0.08017368,0.4317572
659264000,0.19987613,-0.080137536,0.4317681
659272000,0.19987305,-0.080114566,0.43177378
659284000,0.19986443,-0.08007478,0.43178517
659292000,0.19985905,-0.08004473,0.4317932
659304000,0.20139381,-0.07427157,0.42638412
659312000,0.20139039,-0.07424018,0.4263912
659324000,0.201386,-0.07419741,0.42640072
659332000,0.20138392,-0.07416778,0.42640686
659344000,0.2013796,-0.07412736,0.42641595
659352000,0.2013771,-0.07410704,0.42642066
659364000,0.20305514,-0.07398955,0.43036506
659372000,0.20305021,-0.073986,0.430368
659384000,0.2030448,-0.07398605,0.43037054
659392000,0.20304403,-0.07398944,0.43037033
659404000,0.20304054,-0.07400116,0.43036994
659412000,0.2009807,-0.07680427,0.42972192
659424000,0.20097703,-0.076820955,0.42972067
659432000,0.20096944,-0.07683458,0.42972177
659444000,0.2009659,-0.0768515,0.4297204
659452000,0.20096639,-0.07685851,0.4297189
659464000,0.20076281,-0.07689365,0.4295682
659472000,0.2007624,-0.07690157,0.42956698
659484000,0.20075999,-0.076919526,0.42956486
659492000,0.20075817,-0.076935135,0.42956293
659504000,0.20074956,-0.07696183,0.42956218
659512000,0.19614667,-0.07622214,0.43095976
659524000,0.196129,-0.07624655,0.43096346
659532000,0.19611745,-0.07626183,0.43096602
659544000,0.19610052,-0.07627979,0.43097055
659552000,0.19609012,-0.076292045,0.4309731
659564000,0.20112917,-0.0783531,0.43011528
659572000,0.20111977,-0.0783603,0.43011835
659584000,0.20110494,-0.078368925,0.43012372
659592000,0.20109445,-0.0783779,0.430127
659604000,0.20107724,-0.07839987,0.43013105
659612000,0.20106527,-0.07841436,0.430134
659624000,0.1982314,-0.0790068,0.4305926
659632000,0.19821978,-0.07901644,0.43059617
659644000,0.19820468,-0.07902219,0.43060207
659652000,0.19819282,-0.0790189,0.43060812
659664000,0.1981822,-0.07900302,0.43061593
659672000,0.20236112,-0.07605158,0.4312947
659684000,0.20235114,-0.076035336,0.43130225
659692000,0.20234446,-0.07602362,0.43130746
659704000,0.202332,-0.0760122,0.4313153
659712000,0.20232591,-0.076010436,0.4313185
659724000,0.20061292,-0.07550126,0.42902148
659732000,0.20061104,-0.07551999,0.42901906
659744000,0.20060855,-0.075555384,0.429014
659752000,0.200609,-0.075580314,0.4290094
659764000,0.2006065,-0.07561726,0.42900407
659772000,0.20111313,-0.07594848,0.43025404
659784000,0.20110512,-0.07597645,0.43025285
659792000,0.20109522,-0.075988576,0.43025535
659804000,0.20107874,-0.07599292,0.43026227
659812000,0.20106523,-0.075990714,0.430269
659824000,0.19783668,-0.07922979,0.4275753
659832000,0.19782019,-0.079218425,0.427585
659844000,0.19779487,-0.07919684,0.42760074
659852000,0.1977799,-0.07917475,0.42761174
659864000,0.19776414,-0.07914012,0.42762545
659872000,0.1977565,-0.07911626,0.42763337
659884000,0.19938199,-0.07533384,0.43248317
659892000,0.19937773,-0.07531089,0.4324891
659904000,0.19937076,-0.07528232,0.4324973
659912000,0.19936582,-0.07526606,0.4325024
659924000,0.19935566,-0.07523885,0.43251184
659932000,0.20027754,-0.07759465,0.4298591
659944000,0.20026965,-0.07756236,0.42986858
659952000,0.20025921,-0.07754102,0.4298773
659964000,0.20023334,-0.07750968,0.429895
659972000,0.20021063,-0.077494115,0.4299084
659984000,0.20137893,-0.07723292,0.43006295
659992000,0.20135328,-0.07722471,0.43007642
660004000,0.20131664,-0.07721504,0.43009531
660012000,0.20129359,-0.07720905,0.43010718
660024000,0.20126434,-0.07719914,0.43012264
660032000,0.19855298,-0.07359083,0.43124637
660044000,0.19852863,-0.073568,0.43126148
660052000,0.19851361,-0.073547944,0.4312718
660064000,0.19849356,-0.07351695,0.43128633
660072000,0.1984773,-0.07349329,0.43129784
660084000,0.1982805,-0.07603973,0.42737615
660092000,0.19825979,-0.07601545,0.42739007
660104000,0.19822869,-0.07597737,0.4274113
660112000,0.1982093,-0.07595578,0.4274241
660124000,0.19818234,-0.07592829,0.42744148
660132000,0.19816644,-0.07591242,0.42745167
660144000,0.20012413,-0.07736454,0.4314906
660152000,0.20011291,-0.077360444,0.43149653
660164000,0.2000998,-0.07735472,0.43150365
660172000,0.20009187,-0.07735566,0.43150714
660184000,0.2000832,-0.07736496,0.4315095
660192000,0.19853175,-0.07619103,0.43389693
660204000,0.19852959,-0.07621036,0.43389454
660212000,0.19853027,-0.07622191,0.4338922
660224000,0.19853394,-0.07624517,0.43388644
660232000,0.19853714,-0.076263815,0.43388167
660244000,0.19960424,-0.0775489,0.4308323
660252000,0.19960152,-0.077566065,0.43083048
660264000,0.19959538,-0.077589475,0.4308291
660272000,0.19959012,-0.077601425,0.43082938
660284000,0.19958317,-0.07761578,0.43083
660292000,0.19846371,-0.07703879,0.43250436
660304000,0.19845758,-0.07705292,0.43250465
660312000,0.19845243,-0.07706505,0.43250483
660324000,0.19844462,-0.077088445,0.43250427
660332000,0.1984423,-0.0771085,0.43250176
660344000,0.19940187,-0.078730434,0.42987153
660352000,0.1994,-0.07876248,0.42986655
660372000,0.19939287,-0.07884446,0.4298548
660384000,0.19939171,-0.078902595,0.42984468
660392000,0.19939004,-0.07894019,0.42983857
660404000,0.19866528,-0.07568768,0.43233144
660412000,0.19865415,-0.075725496,0.43232995
660424000,0.19862954,-0.075786956,0.43233046
660432000,0.19860956,-0.07583092,0.43233195
660444000,0.19857636,-0.07589577,0.43233582
660452000,0.20015204,-0.07941205,0.4309734
660464000,0.2001153,-0.079468496,0.43098006
660472000,0.20008716,-0.0795024,0.43098685
660484000,0.2000376,-0.07955425,0.4310003
660492000,0.20000224,-0.07958925,0.43101025
660504000,0.20003058,-0.079368554,0.43133712
660512000,0.19999364,-0.079407126,0.43134716
660524000,0.19993871,-0.079471,0.43136087
660532000,0.1999017,-0.07951529,0.43136984
660544000,0.19984894,-0.079577744,0.43138278
660552000,0.19610256,-0.07793246,0.4331315
660564000,0.19605236,-0.07799037,0.4331438
660572000,0.19602102,-0.07802811,0.4331512
660584000,0.19598183,-0.07808616,0.43315846
660592000,0.19596137,-0.07812068,0.4331615
660604000,0.19866478,-0.07723562,0.42948803
660612000,0.19865225,-0.077268235,0.42948794
660624000,0.19863342,-0.0773194,0.42948747
660632000,0.19861884,-0.07735195,0.42948833
660644000,0.19860022,-0.07740059,0.42948818
660652000,0.19858707,-0.07743337,0.42948836
660664000,0.19543956,-0.081222065,0.43049705
660672000,0.19542691,-0.08124876,0.43049777
660684000,0.19541508,-0.0812838,0.4304965
660692000,0.19541082,-0.08130524,0.4304944
660704000,0.19540948,-0.08133764,0.43048888
660712000,0.19616422,-0.077128455,0.43080404
660724000,0.1961753,-0.077149525,0.43079522
660732000,0.19618174,-0.07716183,0.4307901
660744000,0.19619554,-0.07717822,0.43078086
660752000,0.19620813,-0.07719029,0.43077296
660764000,0.20006272,-0.079420134,0.42936078
660772000,0.20007423,-0.07944257,0.42935127
660784000,0.20008798,-0.07948384,0.4293372
660792000,0.20009865,-0.07951441,0.4293266
660804000,0.20011531,-0.07956269,0.42930987
660812000,0.19573985,-0.080695026,0.43061206
660824000,0.19576459,-0.080738835,0.4305926
660832000,0.19578038,-0.08076033,0.4305814
660844000,0.19580561,-0.08079064,0.43056422
660852000,0.19582233,-0.08080975,0.43055302
660864000,0.19797258,-0.076658845,0.43141973
660872000,0.19798908,-0.076681904,0.43140808
660884000,0.19800979,-0.07672068,0.43139166
660892000,0.19802542,-0.07674339,0.43138045
660904000,0.19804822,-0.0767735,0.43136463
660912000,0.19806664,-0.07679507,0.43135232
660924000,0.19868425,-0.07901562,0.42713958
660932000,0.1987042,-0.079037614,0.42712623
660944000,0.19873475,-0.0790634,0.42710724
660952000,0.19875607,-0.0790789,0.42709446
660964000,0.19879073,-0.07909958,0.4270745
660972000,0.1976919,-0.07979784,0.42893884
660984000,0.19772772,-0.07979949,0.42892203
660992000,0.1977546,-0.07980205,0.42890915
661004000,0.19779842,-0.07980534,0.42888835
661012000,0.19782622,-0.07980618,0.42887536
661024000,0.19614848,-0.07893127,0.42402902
661032000,0.19617422,-0.078933574,0.42401668
661044000,0.19621536,-0.07893413,0.42399755
661052000,0.19624034,-0.07893415,0.423986
661064000,0.19626844,-0.0789331,0.42397317
661072000,0.19876102,-0.08113172,0.42888284
661084000,0.19877782,-0.081127405,0.42887586
661092000,0.19878006,-0.08112641,0.42887503
661104000,0.19877067,-0.08112605,0.42887944
661112000,0.19876033,-0.081126995,0.42888406
661124000,0.19952495,-0.07869594,0.43031538
661132000,0.19950573,-0.078700595,0.43032342
661144000,0.19947064,-0.078715034,0.43033707
661152000,0.19944447,-0.078726634,0.43034706
661164000,0.19940114,-0.078741826,0.43036437
661172000,0.19936952,-0.07875136,0.43037727
661184000,0.19964603,-0.08011288,0.4295234
661192000,0.19961475,-0.080122866,0.42953607
661204000,0.19956948,-0.08013004,0.42955577
661212000,0.19953905,-0.08012809,0.4295703
661224000,0.19948927,-0.08012315,0.4295943
661232000,0.20353577,-0.08132291,0.43078995
661244000,0.20347627,-0.081310555,0.4308204
661252000,0.20343216,-0.08129882,0.43084344
661264000,0.20336697,-0.08128176,0.43087745
661272000,0.20332435,-0.08127064,0.43089965
661284000,0.19631664,-0.08094239,0.43368503
661292000,0.19627805,-0.08093136,0.43370456
661304000,0.19622363,-0.08091466,0.4337323
661312000,0.19619066,-0.08090496,0.43374902
661324000,0.19614965,-0.08089832,0.4337688
661332000,0.19718075,-0.078648806,0.4324861
661344000,0.19715178,-0.078659534,0.43249735
661352000,0.1971336,-0.07866927,0.43250385
661364000,0.1971054,-0.07868348,0.43251413
661372000,0.19708982,-0.078697935,0.4325186
661384000,0.19878055,-0.08000705,0.4336335
661392000,0.1987719,-0.080016024,0.43363583
661404000,0.1987659,-0.080020666,0.4336377
661412000,0.19876738,-0.080019146,0.43363732
661424000,0.19877851,-0.08001822,0.43363237
661432000,0.19878732,-0.08001804,0.43362838
661444000,0.19463459,-0.075686805,0.43029517
661452000,0.19464383,-0.075688735,0.43029064
661464000,0.19465612,-0.075694524,0.43028405
661472000,0.194667,-0.07569941,0.43027827
661484000,0.19468626,-0.075708,0.43026805
661492000,0.19987091,-0.081180446,0.43221384
661504000,0.19989815,-0.08118892,0.43219966
661512000,0.19992006,-0.08120026,0.43218738
661524000,0.19995506,-0.08123204,0.43216524
661532000,0.19998083,-0.081264906,0.43214712
661544000,0.19814388,-0.07853617,0.42459255
661552000,0.19817498,-0.07857299,0.42457122
661564000,0.19822139,-0.078627884,0.42453942
661572000,0.19825067,-0.078661494,0.4245195
661584000,0.19828926,-0.07871527,0.42449152
661592000,0.20018,-0.07945412,0.43243444
661604000,0.20021527,-0.07951032,0.4324078
661612000,0.20023938,-0.079548106,0.43238968
661624000,0.20027137,-0.07959836,0.4323656
661632000,0.20028831,-0.07962362,0.4323531
661644000,0.19860949,-0.07691969,0.43319398
661652000,0.19861671,-0.07693217,0.43318844
661664000,0.1986214,-0.07694234,0.43318447
661672000,0.1986245,-0.07694268,0.43318298
661684000,0.19862849,-0.076937824,0.43318203
661692000,0.19863024,-0.07693297,0.4331821
661712000,0.20023349,-0.07973255,0.4306431
661724000,0.20024656,-0.079730816,0.43063733
661732000,0.20025986,-0.07972614,0.43063203
661744000,0.20029156,-0.07971933,0.43061852
661752000,0.1978705,-0.081448846,0.4287402
661764000,0.19791324,-0.081449196,0.42872038
661772000,0.19794245,-0.08145159,0.42870647
661784000,0.19798997,-0.08145612,0.42868367
661792000,0.19802336,-0.08145712,0.42866805
661804000,0.19991668,-0.07852673,0.42839134
661812000,0.19994783,-0.078520946,0.42837787
661824000,0.1999937,-0.07851309,0.4283579
661832000,0.20002347,-0.07850842,0.42834485
661844000,0.20006141,-0.07850254,0.4283282
661852000,0.19963305,-0.07993512,0.4322068
661864000,0.199661,-0.07992262,0.43219623
661872000,0.19967417,-0.07990814,0.4321928
661884000,0.19968577,-0.07987253,0.43219405
661892000,0.19968724,-0.07984716,0.43219805
661904000,0.20289515,-0.078289814,0.42925507
661912000,0.20288028,-0.07826237,0.4292671
661924000,0.20284712,-0.07822102,0.42929032
661932000,0.20281832,-0.0781931,0.429309
661944000,0.20276958,-0.07814835,0.42934018
661952000,0.20273688,-0.078121446,0.4293605
661964000,0.1993042,-0.0777633,0.42910516
661972000,0.19926818,-0.07774308,0.42912555
661984000,0.19921489,-0.077718675,0.42915472
661992000,0.19918498,-0.07770187,0.42917165
662004000,0.1991486,-0.07767916,0.42919263
662012000,0.1984398,-0.07612345,0.43028829
662024000,0.1984213,-0.07610548,0.4303
662032000,0.19841072,-0.076103404,0.43030524
662044000,0.19839777,-0.076116525,0.4303089
662052000,0.19838914,-0.076136015,0.4303094
662064000,0.19830032,-0.077829264,0.42928848
662072000,0.19829553,-0.07785505,0.429286
662084000,0.19828996,-0.077888906,0.42928243
662092000,0.19828728,-0.077913776,0.42927918
662104000,0.19829233,-0.07795385,0.42926955
662112000,0.19924308,-0.07745841,0.43236002
662124000,0.1992526,-0.07748294,0.43235126
662132000,0.19926375,-0.07749066,0.43234473
662144000,0.19927928,-0.07749262,0.43233722
662152000,0.19928698,-0.07748594,0.43233487
662164000,0.20152715,-0.077856176,0.4281702
662172000,0.2015289,-0.077835545,0.42817312
662184000,0.20152952,-0.07780554,0.4281783
662192000,0.2015282,-0.07778724,0.42818224
662204000,0.20152959,-0.07776215,0.42818615
662212000,0.2015333,-0.077745944,0.42818734
662224000,0.19753733,-0.08016007,0.43302298
662232000,0.19754548,-0.08015771,0.43301967
662244000,0.19755784,-0.08016009,0.43301362
662252000,0.19756329,-0.08016378,0.43301043
662264000,0.19757217,-0.080171704,0.43300492
662272000,0.19565213,-0.07664401,0.4275964
662284000,0.19567317,-0.07665963,0.42758396
662292000,0.1956917,-0.07667051,0.42757353
662304000,0.19572486,-0.07669027,0.42755482
662312000,0.19574952,-0.076702386,0.42754135
662324000,0.19771431,-0.0813027,0.43131813
662332000,0.19773448,-0.08132499,0.4313047
662344000,0.19776273,-0.08136262,0.43128464
662352000,0.19777928,-0.081392325,0.43127146
662364000,0.1978035,-0.081435055,0.43125227
662372000,0.19750069,-0.08206877,0.43078274
662384000,0.19752057,-0.08210484,0.43076676
662392000,0.1975303,-0.082128935,0.4307577
662404000,0.19754554,-0.08216192,0.4307444
662412000,0.19755827,-0.0821827,0.4307346
662424000,0.19768354,-0.08096655,0.43313727
662432000,0.1977088,-0.08099473,0.43312046
662444000,0.19775161,-0.08104624,0.43309128
662452000,0.19778419,-0.08109038,0.43306816
662464000,0.19783702,-0.08116513,0.43303
662472000,0.197874,-0.081220284,0.43300277
662484000,0.19689839,-0.07893174,0.42945346
662492000,0.19694042,-0.0789864,0.42942414
662504000,0.19700663,-0.07906512,0.42937928
662512000,0.19704826,-0.07911757,0.42935053
662524000,0.19711193,-0.0791908,0.4293078
662532000,0.19830692,-0.07865152,0.4302655
662544000,0.1983616,-0.07872076,0.4302276
662552000,0.19838944,-0.07876311,0.430207
662564000,0.19841836,-0.07881434,0.4301843
662572000,0.19843243,-0.07884554,0.4301721
662584000,0.20070346,-0.07881539,0.43067986
662592000,0.2006997,-0.07883146,0.43067867
662604000,0.20068832,-0.078847945,0.43068096
662612000,0.20067735,-0.07886024,0.43068382
662624000,0.20066258,-0.0788808,0.43068692
662632000,0.19866733,-0.07938568,0.4294581
662644000,0.198656,-0.07939934,0.42946082
662652000,0.1986525,-0.07940537,0.42946133
662664000,0.1986515,-0.07940665,0.42946154
662672000,0.19865367,-0.07940531,0.4294608
662684000,0.20088087,-0.078193575,0.4282576
662692000,0.20088366,-0.07819251,0.4282565
662704000,0.20089504,-0.07819265,0.42825115
662712000,0.20090267,-0.07819072,0.4282479
662724000,0.20091027,-0.07818103,0.4282461
662732000,0.20091538,-0.07817438,0.42824495
662744000,0.19564722,-0.079812795,0.43103024
662752000,0.19565666,-0.07980335,0.4310277
662764000,0.19567192,-0.07979411,0.4310225
662772000,0.19568138,-0.079787776,0.43101937
662784000,0.19569996,-0.07977531,0.43101326
662792000,0.19468507,-0.08134603,0.42659634
662804000,0.19471502,-0.081331305,0.4265855
662812000,0.19474171,-0.08132214,0.42657506
662824000,0.19478829,-0.08131053,0.426556
662832000,0.19482444,-0.08130442,0.42654064
662844000,0.19956563,-0.078707054,0.4295221
662852000,0.1996102,-0.07869408,0.42950377
662864000,0.19967899,-0.07867585,0.42947513
662872000,0.1997288,-0.07866131,0.42945462
662884000,0.19981234,-0.078640215,0.42941964
662892000,0.20005776,-0.083132476,0.43095672
662904000,0.2001456,-0.083106905,0.43092087
662912000,0.20020494,-0.08308663,0.4308972
662924000,0.20028742,-0.08304873,0.43086618
662932000,0.20033658,-0.08301763,0.4308493
662944000,0.19786066,-0.078392126,0.43012184
662952000,0.19790094,-0.07835801,0.43010953
662964000,0.19795461,-0.07830554,0.4300944
662972000,0.19798775,-0.078267775,0.43008602
662984000,0.19803713,-0.07821419,0.43007302
662992000,0.19807246,-0.0781825,0.4300625
663004000,0.20277311,-0.07879036,0.4283912
663012000,0.20281224,-0.07877601,0.4283753
663024000,0.20287248,-0.07876092,0.42834955
663032000,0.20291151,-0.07876002,0.42833123
663044000,0.20296732,-0.07876229,0.42830437
663052000,0.20248316,-0.080806,0.4277666
663064000,0.20252806,-0.080804765,0.42774558
663072000,0.20255542,-0.08080489,0.42773262
663084000,0.20259349,-0.08080304,0.4277149
663092000,0.20261542,-0.08080413,0.42770433
663104000,0.20314634,-0.083031915,0.42995796
663112000,0.20316303,-0.083027564,0.42995092
663124000,0.20318098,-0.083015226,0.4299448
663132000,0.2031892,-0.08300396,0.4299431
663144000,0.2031987,-0.08297584,0.42994407
663152000,0.19985439,-0.07890238,0.4288807
663164000,0.19987178,-0.07886227,0.42887998
663172000,0.1998873,-0.078839384,0.42887694
663184000,0.19991663,-0.07880461,0.42886966
663192000,0.19994117,-0.07878195,0.4288624
663204000,0.19812937,-0.07754568,0.43132418
663212000,0.1981641,-0.0775325,0.4313106
663224000,0.19822234,-0.0775122,0.43128747
663232000,0.19826543,-0.07750033,0.4312698
663244000,0.19833696,-0.07748217,0.43124017
663252000,0.19838493,-0.077471204,0.43122008
663264000,0.20206189,-0.07916246,0.432002
663272000,0.20210603,-0.079167314,0.4319805
663284000,0.20217052,-0.07917776,0.4319484
663292000,0.20221421,-0.07918378,0.43192682
663304000,0.20227267,-0.07919374,0.43189764
663312000,0.2042715,-0.080195636,0.42803866
663324000,0.20431316,-0.080209136,0.42801625
663332000,0.20433834,-0.08021539,0.42800304
663344000,0.20437464,-0.080225065,0.4279839
663352000,0.20439671,-0.080229275,0.42797258
663364000,0.20114185,-0.07830586,0.43211946
663372000,0.20116088,-0.07830972,0.43210992
663384000,0.20118813,-0.07832041,0.4320953
663392000,0.20120956,-0.078332655,0.4320831
663404000,0.20124356,-0.07835345,0.4320635
663412000,0.20350994,-0.07981128,0.42859313
663424000,0.2035421,-0.079813465,0.42857745
663432000,0.20356524,-0.079811886,0.42856675
663444000,0.20359616,-0.07980487,0.42855337
663452000,0.2036153,-0.07979399,0.4285463
663464000,0.20241311,-0.082645886,0.4253773
663472000,0.20243578,-0.082629554,0.4253697
663484000,0.20246357,-0.082593136,0.42536354
663492000,0.20247953,-0.08256321,0.42536175
663504000,0.20249894,-0.082514316,0.42536202
663512000,0.20250541,-0.082482465,0.42536512
663524000,0.20515746,-0.07979905,0.4305103
663532000,0.20515536,-0.07976943,0.4305168
663544000,0.2051448,-0.07972559,0.43052995
663552000,0.20513323,-0.07969656,0.43054083
663564000,0.20510928,-0.079652146,0.43056047
663572000,0.20347688,-0.07865803,0.42836097
663584000,0.2034484,-0.07860925,0.42838344
663592000,0.20343184,-0.07857475,0.42839763
663604000,0.20340835,-0.07852032,0.4284188
663612000,0.20339717,-0.07848175,0.42843115
663624000,0.20256309,-0.078887835,0.43003982
663632000,0.20256256,-0.07885047,0.43004695
663644000,0.20256378,-0.07879688,0.43005618
663652000,0.20256254,-0.07876833,0.430062
663664000,0.20255676,-0.07873249,0.4300713
663672000,0.20381469,-0.08112642,0.4266596
663684000,0.20379142,-0.081109606,0.42667395
663692000,0.20377703,-0.081101246,0.4266824
663704000,0.20376244,-0.08109392,0.42669076
663712000,0.20374212,-0.08108683,0.4267018
663724000,0.20223778,-0.078900285,0.42677587
663732000,0.20222229,-0.078894265,0.42678434
663744000,0.20219618,-0.078883365,0.42679873
663752000,0.20217557,-0.0788722,0.42681056
663764000,0.20214231,-0.07885618,0.42682928
663772000,0.20212083,-0.07885249,0.42684013
663784000,0.20394026,-0.07922543,0.42453614
663792000,0.20392404,-0.0792279,0.42454347
663804000,0.20390894,-0.07922537,0.4245512
663812000,0.20390268,-0.07921824,0.42455554
663824000,0.20389892,-0.079206325,0.42455956
663832000,0.2046823,-0.0797397,0.42598093
663844000,0.20468709,-0.07972813,0.42598078
663852000,0.20468946,-0.07972037,0.4259811
663864000,0.20469436,-0.07970977,0.42598072
663872000,0.20469515,-0.07970507,0.42598122
663884000,0.20402935,-0.07896632,0.4341887
663892000,0.20402795,-0.07895759,0.43419096
663904000,0.20402533,-0.07893438,0.43419638
663912000,0.20402218,-0.07891222,0.4342019
663924000,0.20401387,-0.07887792,0.43421206
663932000,0.20215929,-0.07537301,0.42976615
663944000,0.20215921,-0.075331315,0.4297735
663952000,0.20215935,-0.07530129,0.4297787
663964000,0.20216534,-0.07525422,0.42978412
663972000,0.20217364,-0.0752245,0.42978543
663984000,0.20142283,-0.07953428,0.43004423
663992000,0.20144238,-0.079503946,0.4300407
664004000,0.20148215,-0.07945763,0.4300306
664012000,0.20151755,-0.07942598,0.4300199
664024000,0.20157853,-0.07938832,0.42999825
664032000,0.20162423,-0.07937065,0.42998007
664044000,0.20217407,-0.077112354,0.42761946
664052000,0.20223022,-0.07711365,0.42759266
664064000,0.20231797,-0.07712934,0.42754832
664072000,0.202376,-0.0771471,0.42751765
664084000,0.20246302,-0.07717468,0.42747146
664092000,0.20281932,-0.07928486,0.42949283
664104000,0.20289563,-0.07930246,0.42945352
664112000,0.20293999,-0.07931614,0.42943004
664124000,0.20299715,-0.07932892,0.42940065
664132000,0.20303114,-0.07933325,0.42938378
664144000,0.20275807,-0.076076835,0.42878556
664152000,0.20278151,-0.07607534,0.42877474
664164000,0.20281337,-0.07606763,0.42876104
664172000,0.20283097,-0.07605814,0.42875442
664184000,0.20285611,-0.07604057,0.42874563
664192000,0.20218608,-0.07687373,0.4286601
664204000,0.20221372,-0.0768524,0.42865086
664212000,0.20223466,-0.07683973,0.42864326
664224000,0.2022677,-0.07682347,0.4286306
664232000,0.20229205,-0.07681357,0.42862087
664244000,0.20006329,-0.07945099,0.4282941
664252000,0.20008564,-0.07945084,0.4282837
664264000,0.20011672,-0.0794596,0.42826754
664272000,0.20013975,-0.07946833,0.42825517
664284000,0.20017813,-0.07948142,0.4282348
664292000,0.2002059,-0.079490215,0.42822018
664304000,0.20594203,-0.07622311,0.42738986
664312000,0.20597707,-0.07622596,0.4273725
664324000,0.2060297,-0.07622459,0.42734733
664332000,0.20606284,-0.07622102,0.427332
664344000,0.20610943,-0.07621875,0.42730993
664352000,0.20505902,-0.08009148,0.4269721
664364000,0.20510042,-0.08008838,0.42695278
664372000,0.20512454,-0.0800825,0.4269423
664384000,0.20515923,-0.08007574,0.42692688
664392000,0.2051791,-0.080071196,0.4269182
664404000,0.2039365,-0.07774183,0.42811188
664412000,0.20395562,-0.07773684,0.42810366
664424000,0.20398544,-0.07772335,0.4280919
664432000,0.2040026,-0.07771232,0.42808574
664444000,0.20402464,-0.07769251,0.42807883
664452000,0.20756812,-0.07781739,0.4284931
664464000,0.20758945,-0.077807456,0.4284846
664472000,0.2076044,-0.07780379,0.42847803
664484000,0.20763084,-0.077799544,0.428466
664492000,0.20764786,-0.07780058,0.42845756
664504000,0.20503324,-0.07769754,0.42562526
664512000,0.20504975,-0.077704236,0.4256161
664524000,0.20507428,-0.07772472,0.42560053
664532000,0.20509025,-0.07773893,0.42559025
664544000,0.20510665,-0.077756226,0.4255792
664552000,0.2051139,-0.077763826,0.4255743
664564000,0.20304704,-0.08006491,0.4265901
664572000,0.20305225,-0.08006762,0.42658713
664584000,0.20306128,-0.08006876,0.4265826
664592000,0.20306808,-0.080066256,0.42657986
664604000,0.20307708,-0.080053404,0.426578
664612000,0.20273542,-0.07917868,0.42900696
664624000,0.20275159,-0.079148434,0.42900488
664632000,0.20276813,-0.079125494,0.4290013
664644000,0.20280246,-0.07908883,0.42899185
664652000,0.20282903,-0.07906552,0.42898357
664664000,0.20521286,-0.07781859,0.42929
664672000,0.20523746,-0.07778267,0.42928475
664684000,0.20527859,-0.07772755,0.42927507
664692000,0.2053039,-0.07769104,0.42926958
664704000,0.20534252,-0.077648655,0.42925876
664712000,0.20604767,-0.08032048,0.42240843
664724000,0.20607524,-0.08029342,0.42240012
664732000,0.20609066,-0.08027747,0.42239562
664744000,0.2061035,-0.080263525,0.422392
664752000,0.20612346,-0.08024226,0.42238632
664764000,0.20337127,-0.07833036,0.42744264
664772000,0.20338471,-0.078313775,0.4274393
664784000,0.20340821,-0.078284174,0.42743355
664792000,0.20342879,-0.078261204,0.42742795
664804000,0.20346753,-0.07823078,0.42741507
664812000,0.2034961,-0.07821086,0.42740512
664824000,0.20434166,-0.07724956,0.42682424
664832000,0.20437498,-0.07724176,0.4268097
664844000,0.2044265,-0.0772308,0.426787
664852000,0.20446175,-0.0772233,0.42677146
664864000,0.20451403,-0.077216476,0.42674765
664872000,0.20390788,-0.07783404,0.42806727
664884000,0.20394899,-0.07783174,0.4280481
664892000,0.20397343,-0.07782734,0.42803726
664904000,0.20400812,-0.07781771,0.42802247
664912000,0.20403025,-0.077810824,0.42801318
664924000,0.20564093,-0.07539701,0.4286705
664932000,0.20565325,-0.07538871,0.42866606
664944000,0.2056706,-0.075382635,0.42865878
664952000,0.2056807,-0.07537867,0.42865464
664964000,0.20569523,-0.075371385,0.42864895
664972000,0.20575294,-0.075777896,0.42577007
664984000,0.20576966,-0.075765416,0.4257642
664992000,0.20578471,-0.07575686,0.42575845
665004000,0.20580298,-0.07574632,0.4257515
665012000,0.20581575,-0.07574065,0.42574635
665024000,0.20564346,-0.077919774,0.42580757
665032000,0.20565815,-0.07792033,0.42580038
665044000,0.20568283,-0.077917345,0.425789
665052000,0.2056997,-0.077912055,0.42578182
665064000,0.2057278,-0.07791094,0.42576844
665072000,0.20574619,-0.07791033,0.42575967
665084000,0.20292321,-0.07581748,0.42815268
665092000,0.20293435,-0.07580735,0.4281492
665104000,0.20294751,-0.07578577,0.42814675
665112000,0.20295097,-0.0757712,0.4281477
665124000,0.202945,-0.07575352,0.42815366
665132000,0.20701328,-0.07740338,0.42630526
665144000,0.20699766,-0.07738291,0.42631656
665152000,0.20698565,-0.07737423,0.42632398
665164000,0.20696823,-0.0773641,0.42633426
665172000,0.20695679,-0.077355586,0.42634135
665184000,0.20685053,-0.07689358,0.42837706
665192000,0.2068417,-0.076880485,0.42838368
665204000,0.206837,-0.07685237,0.428391
665212000,0.20683974,-0.07683401,0.42839298
665224000,0.20684758,-0.07680183,0.42839494
665232000,0.20202875,-0.07790665,0.42640233
665244000,0.20204253,-0.07786717,0.42640302
665252000,0.2020543,-0.077838294,0.42640272
665264000,0.20207405,-0.07780149,0.42640007
665272000,0.20208442,-0.0777775,0.42639953
665284000,0.20637487,-0.07485347,0.42684647
665292000,0.20637946,-0.07483654,0.42684725
665304000,0.20638403,-0.0748252,0.426847
665312000,0.20638642,-0.07482557,0.4268458
665324000,0.206387,-0.07482974,0.42684478
665332000,0.20638652,-0.07483669,0.4268438
665344000,0.20541486,-0.07701786,0.4257858
665352000,0.20541447,-0.07702417,0.42578486
665364000,0.20541506,-0.07703274,0.425783
665372000,0.2054172,-0.07703226,0.42578205
665384000,0.20541988,-0.07702049,0.42578292
665392000,0.20760302,-0.080240354,0.42859864
665404000,0.20760293,-0.08022015,0.42860246
665412000,0.20760323,-0.08020603,0.42860496
665424000,0.20760053,-0.08018415,0.42861038
665432000,0.20759402,-0.0801646,0.42861718
665444000,0.20635541,-0.077632435,0.4256428
665452000,0.20634913,-0.07761373,0.42564926
665464000,0.20633587,-0.077582695,0.42566136
665472000,0.20632297,-0.07756417,0.42567095
665484000,0.20629975,-0.077543564,0.42568597
665492000,0.20565371,-0.07546746,0.4273132
665504000,0.20562421,-0.07544637,0.42733112
665512000,0.20560391,-0.075434595,0.42734298
665532000,0.20556393,-0.07541625,0.42736545
665544000,0.20349154,-0.07777698,0.4272234
665552000,0.20347255,-0.07777641,0.42723256
665564000,0.2034382,-0.07777943,0.4272484
665572000,0.20341454,-0.07778535,0.42725855
665584000,0.20337453,-0.07780063,0.42727482
665592000,0.2033472,-0.07781312,0.42728555
665604000,0.20409745,-0.075752385,0.42976916
665612000,0.20407869,-0.07576935,0.4297751
665624000,0.20406231,-0.07579441,0.42977843
665632000,0.20405927,-0.07581339,0.42977652
665644000,0.20406242,-0.07583548,0.42977116
665652000,0.20342183,-0.078540295,0.42797893
665664000,0.203431,-0.0785478,0.42797318
665672000,0.2034375,-0.078551404,0.42796943
665684000,0.203447,-0.078554414,0.42796436
665692000,0.20345321,-0.07855673,0.427961
665704000,0.2046885,-0.079248205,0.4279716
665712000,0.20469299,-0.079249434,0.42796922
665724000,0.2047009,-0.07925101,0.42796513
665732000,0.20470484,-0.079247,0.427964
665744000,0.20470919,-0.07923632,0.42796388
665752000,0.20906155,-0.07627956,0.42830515
665764000,0.20905688,-0.07627,0.4283091
665772000,0.20904832,-0.07626347,0.42831448
665784000,0.20903158,-0.076251395,0.4283248
665792000,0.20901616,-0.07624221,0.42833394
665804000,0.20249075,-0.076242425,0.4304585
665812000,0.20247439,-0.076218374,0.43047044
665824000,0.20244694,-0.07618114,0.43048993
665832000,0.20242947,-0.076152876,0.43050316
665844000,0.20240833,-0.076105185,0.43052152
665852000,0.20239885,-0.07606617,0.43053287
665864000,0.20503174,-0.07653817,0.43014467
665872000,0.2050349,-0.076492354,0.4301513
665884000,0.20504749,-0.076410405,0.43015987
665892000,0.20505969,-0.07634987,0.4301648
665904000,0.20507927,-0.07624997,0.4301732
665912000,0.20405133,-0.07714959,0.42843038
665924000,0.20407967,-0.07704662,0.42843542
665932000,0.2041035,-0.076986484,0.42843488
665944000,0.20414609,-0.07690837,0.42842862
665952000,0.20417868,-0.07686419,0.42842102
665964000,0.20301124,-0.076939926,0.4290664
665972000,0.20304634,-0.07691596,0.42905408
665984000,0.20309581,-0.0768954,0.42903435
665992000,0.20312704,-0.076888986,0.42902073
666004000,0.20317155,-0.07689172,0.42899916
666012000,0.20431459,-0.07637769,0.42713493
666024000,0.20434827,-0.07640194,0.4271145
666032000,0.20436656,-0.07642236,0.4271021
666044000,0.204391,-0.07645183,0.4270851
666052000,0.2044006,-0.07646991,0.4270773
666064000,0.20455223,-0.0739188,0.42917567
666072000,0.2045504,-0.073938295,0.4291732
666084000,0.20454705,-0.07396687,0.42916986
666092000,0.20454669,-0.073981784,0.42916748
666104000,0.20454171,-0.0740014,0.42916647
666112000,0.20453727,-0.07400635,0.42916772
666124000,0.20433715,-0.07695452,0.42768255
666132000,0.20432799,-0.07695055,0.42768762
666144000,0.2043094,-0.07693777,0.4276988
666152000,0.20429347,-0.07693017,0.4277078
666164000,0.20426326,-0.07691053,0.42772576
666172000,0.20282696,-0.075792454,0.42393193
666184000,0.20278627,-0.07576033,0.42395714
666192000,0.20275754,-0.07573675,0.4239751
666204000,0.20270915,-0.07570542,0.42400384
666212000,0.20267557,-0.0756922,0.42402226
666224000,0.20400155,-0.07451479,0.42719787
666232000,0.20397177,-0.07450224,0.42721426
666244000,0.20392998,-0.07448227,0.42723772
666252000,0.2039041,-0.074470304,0.42725214
666264000,0.2038741,-0.07445781,0.42726862
666272000,0.20336822,-0.076346844,0.4286581
666284000,0.20336767,-0.07633332,0.42866075
666292000,0.2033721,-0.07632113,0.4286608
666304000,0.20338751,-0.07629962,0.42865735
666312000,0.20340346,-0.07628371,0.4286526
666324000,0.20449464,-0.07631449,0.42577502
666332000,0.20451093,-0.07629614,0.4257705
666344000,0.20453094,-0.076262504,0.42576692
666352000,0.2045424,-0.076236814,0.42576602
666364000,0.20455581,-0.0762021,0.42576578
666372000,0.20456247,-0.07618236,0.4257661
666384000,0.2051279,-0.07864466,0.4276509
666392000,0.20512538,-0.0786427,0.42765248
666404000,0.20511587,-0.07864995,0.4276557
666412000,0.20510703,-0.07865854,0.42765835
666424000,0.20509112,-0.078680135,0.42766201
666432000,0.20646754,-0.076635,0.42989653
666444000,0.20645033,-0.07667269,0.42989805
666452000,0.20644192,-0.07669855,0.4298975
666464000,0.20642912,-0.076738276,0.42989656
666472000,0.20642185,-0.07676639,0.429895
666484000,0.20380837,-0.07593133,0.42666137
666492000,0.20380463,-0.07595374,0.42665917
666504000,0.2038029,-0.07598143,0.42665505
666512000,0.20380095,-0.075993955,0.42665377
666524000,0.20380136,-0.07600111,0.42665228
666532000,0.20487474,-0.07589299,0.4301345
666544000,0.20487626,-0.07590412,0.43013182
666552000,0.20487845,-0.075913705,0.43012908
666564000,0.20488061,-0.0759371,0.43012393
666572000,0.20488311,-0.0759579,0.43011907
666584000,0.2035408,-0.07380677,0.42833623
666592000,0.20354451,-0.073834926,0.42832962
666604000,0.20354834,-0.07387459,0.42832094
666612000,0.20355278,-0.07389599,0.42831516
666624000,0.20355691,-0.07391788,0.4283094
666632000,0.20356081,-0.07392492,0.42830634
666644000,0.20754369,-0.07314314,0.43271
666652000,0.20754929,-0.0731346,0.43270874
666664000,0.2075595,-0.07310905,0.43270817
666672000,0.20756748,-0.073079586,0.4327093
666684000,0.20758222,-0.07302458,0.43271154
666692000,0.20716704,-0.071781985,0.42736036
666704000,0.20719028,-0.071708865,0.42736137
666712000,0.20720671,-0.07165991,0.4273616
666724000,0.2072297,-0.07158148,0.4273636
666732000,0.20724207,-0.071530014,0.42736623
666744000,0.20450586,-0.07483937,0.43171814
666752000,0.20450978,-0.074797705,0.43172348
666764000,0.20450415,-0.07475099,0.43173423
666772000,0.20449172,-0.074726015,0.43174446
666784000,0.20446314,-0.07469573,0.43176323
666792000,0.20401075,-0.073739894,0.42968354
666804000,0.2039774,-0.07372206,0.42970243
666812000,0.20395418,-0.0737148,0.42971468
666824000,0.20391914,-0.073710226,0.42973208
666832000,0.20389372,-0.0737075,0.42974463
666844000,0.20406789,-0.0752775,0.4295761
666852000,0.20405187,-0.07527683,0.42958385
666864000,0.20403583,-0.07527488,0.4295918
666872000,0.20402756,-0.07527487,0.42959574
666884000,0.20401701,-0.075271964,0.42960125
666892000,0.20401102,-0.07527795,0.42960304
666904000,0.2068952,-0.07478648,0.42896184
666912000,0.20688732,-0.07481238,0.42896113
666924000,0.20687263,-0.074845634,0.4289624
666932000,0.20686005,-0.07485599,0.42896667
666944000,0.20684257,-0.074863225,0.42897385
666952000,0.20561743,-0.07457286,0.4271363
666964000,0.20559098,-0.07457753,0.42714822
666972000,0.2055719,-0.0745793,0.4271571
666984000,0.20554206,-0.07458213,0.42717096
666992000,0.20552364,-0.07458179,0.4271799
667004000,0.20697017,-0.077601194,0.42817768
667012000,0.20695487,-0.07759495,0.4281862
667024000,0.20693646,-0.07758308,0.42819723
667032000,0.2069295,-0.07757082,0.42820284
667044000,0.20692971,-0.07754542,0.42820734
667052000,0.20722263,-0.078503385,0.43223453
667064000,0.20722452,-0.078470044,0.43223965
667072000,0.20722285,-0.078453556,0.43224347
667084000,0.207213,-0.078438394,0.43225092
667092000,0.20719713,-0.078441724,0.43225792
667104000,0.20219603,-0.07772847,0.42716384
667112000,0.20213845,-0.077766344,0.4271842
667124000,0.20200092,-0.07784073,0.4272357
667132000,0.20187192,-0.07790643,0.4272847
667144000,0.20161346,-0.07802434,0.42738518
667152000,0.20138818,-0.07812174,0.4274736
667164000,0.2002731,-0.07766506,0.42950147
667172000,0.19993019,-0.07781218,0.4296346
667184000,0.19931062,-0.07806793,0.429876
667192000,0.1988166,-0.07826803,0.43006834
667204000,0.1979378,-0.07861788,0.43040976
667212000,0.20161176,-0.075756334,0.4324496
667224000,0.20041081,-0.07621386,0.4329272
667232000,0.19949202,-0.076557115,0.4332908
667244000,0.19792654,-0.07712158,0.43390822
667252000,0.19675033,-0.07753271,0.43436962
667264000,0.19194412,-0.081652276,0.43389022
667272000,0.19050246,-0.08215845,0.4344297
667284000,0.18812604,-0.08300681,0.43530315
667292000,0.18641055,-0.0836129,0.43592474
667304000,0.18364863,-0.0845852,0.43690833
667312000,0.1827744,-0.083761565,0.43585587
667324000,0.17961776,-0.08496569,0.43693376
667332000,0.1773798,-0.08585305,0.43767393
667344000,0.1738325,-0.087287895,0.4388119
667352000,0.17135629,-0.08830615,0.43958145
667364000,0.16903487,-0.091958866,0.4401539
667372000,0.16638091,-0.09315824,0.44091225
667384000,0.16226546,-0.09506028,0.44203863
667392000,0.15943705,-0.09637906,0.44278163
667404000,0.15511087,-0.0984216,0.44386762
667412000,0.15219451,-0.09985307,0.44455692
667424000,0.1495532,-0.10113686,0.4487105
667432000,0.14657067,-0.10269414,0.4493405
667444000,0.14204112,-0.10509939,0.45023814
667452000,0.13902211,-0.10672886,0.45079678
667464000,0.1345601,-0.10920338,0.45155746
667472000,0.1294876,-0.11019223,0.44927442
667484000,0.12515233,-0.112725765,0.44987407
667492000,0.12228196,-0.114421256,0.45023525
667504000,0.11807652,-0.11695355,0.45070687
667512000,0.11536528,-0.118614145,0.45097497
667524000,0.10760834,-0.12251754,0.4491384
667532000,0.105091944,-0.12416923,0.44928065
667544000,0.10144479,-0.12661202,0.44943717
667552000,0.09912584,-0.12818356,0.4495091
667564000,0.09584783,-0.13046528,0.4495636
667572000,0.09582134,-0.13112886,0.45378438
667584000,0.09284135,-0.13338104,0.45374745
667592000,0.09096156,-0.13483599,0.45369816
667604000,0.08834268,-0.13687043,0.45360646
667612000,0.08673923,-0.13815431,0.4535267
667624000,0.08541612,-0.14226635,0.4526817
667632000,0.084081054,-0.143456,0.4525562
667644000,0.08224995,-0.14512862,0.45235935
667652000,0.08114923,-0.1461662,0.45222405
667664000,0.079699785,-0.14760603,0.45201412
667672000,0.078867905,-0.14850767,0.45186466
667684000,0.07461273,-0.14716566,0.4478535
667692000,0.074003175,-0.14795238,0.4476954
667704000,0.073268615,-0.14902787,0.44745946
667712000,0.072900966,-0.14967498,0.44730347
667724000,0.07251107,-0.15057544,0.44706458
667732000,0.0727411,-0.15144627,0.45192498
667744000,0.07261946,-0.15219915,0.45169157
667752000,0.07263152,-0.15263543,0.45154238
667764000,0.072779834,-0.15321456,0.45132232
667772000,0.07294697,-0.15357046,0.45117435
667784000,0.07623928,-0.15462303,0.44754058
667792000,0.07653891,-0.15487605,0.44740194
667804000,0.07707206,-0.15518719,0.44720256
667812000,0.07748745,-0.15535714,0.44707173
667824000,0.078174375,-0.15557155,0.44687757
667832000,0.07720762,-0.15252702,0.44566402
667844000,0.077988565,-0.15265368,0.44548464
667852000,0.07854698,-0.15271246,0.44536635
667864000,0.079440005,-0.15276664,0.44518936
667872000,0.08006148,-0.15278189,0.44507277
667884000,0.0841156,-0.15722746,0.44677922
667892000,0.08480255,-0.15714972,0.4466767
667904000,0.08585299,-0.15699342,0.446531
667912000,0.086562134,-0.1568657,0.44643897
667924000,0.087625496,-0.15664884,0.44630763
667932000,0.088336915,-0.15648234,0.4462258
667944000,0.08752578,-0.15221757,0.44676727
667952000,0.088214464,-0.15204662,0.44669002
667964000,0.089241445,-0.15177591,0.4465781
667972000,0.08991846,-0.15159315,0.44650435
667984000,0.09092686,-0.15130012,0.4463995
667992000,0.090964295,-0.1512224,0.44464284
668004000,0.09196426,-0.1509226,0.44453898
668012000,0.09261833,-0.15073806,0.44446582
668024000,0.09357333,-0.15048602,0.44435117
668032000,0.09420024,-0.15031907,0.4442752
668044000,0.09480191,-0.15291327,0.44451436
668052000,0.0954449,-0.15274811,0.44443357
668064000,0.096396685,-0.15249807,0.44431397
668072000,0.097026154,-0.15233195,0.44423395
668084000,0.09796497,-0.1521009,0.44410706
668092000,0.09739573,-0.15119465,0.44723117
668104000,0.098302454,-0.15102196,0.44709113
668112000,0.09889746,-0.15091872,0.44699475
668124000,0.09978095,-0.15076916,0.44684887
668132000,0.100360215,-0.15067555,0.4467507
668144000,0.1033624,-0.15354504,0.44670042
668152000,0.1039491,-0.15345511,0.44659516
668164000,0.1048164,-0.15332183,0.44643822
668172000,0.10538952,-0.15321976,0.44633833
668184000,0.106244996,-0.15306652,0.44618806
668192000,0.106812306,-0.15295923,0.4460894
668204000,0.1051301,-0.14649494,0.44430205
668212000,0.10565146,-0.14637615,0.4442175
668224000,0.106441855,-0.14616878,0.4440971
668232000,0.106974095,-0.14601834,0.4440187
668244000,0.10778126,-0.14577346,0.44390395
668252000,0.1097096,-0.1498926,0.44179928
668264000,0.110572204,-0.14958008,0.44169015
668272000,0.11115772,-0.14935909,0.44161797
668284000,0.11205463,-0.1490229,0.44150484
668292000,0.112659514,-0.14878248,0.441432
668304000,0.11762289,-0.14670804,0.44152877
668312000,0.11822882,-0.14641279,0.44146493
668324000,0.11916167,-0.1459575,0.44136488
668332000,0.11979573,-0.14564201,0.44129744
668344000,0.12076505,-0.14514613,0.44119662
668352000,0.12018369,-0.14468643,0.44117868
668364000,0.121196955,-0.14416301,0.44107282
668372000,0.12188946,-0.14380664,0.44099832
668384000,0.122953735,-0.1432493,0.44088426
668392000,0.12367731,-0.14285852,0.44080865
668404000,0.123215936,-0.14299367,0.4436069
668412000,0.123968475,-0.14257626,0.44353157
668424000,0.12511346,-0.1419392,0.4434144
668432000,0.12588277,-0.14150488,0.44333547
668444000,0.12705602,-0.14084493,0.4432109
668452000,0.1278481,-0.14038968,0.44312757
668464000,0.12611634,-0.13677762,0.4442946
668472000,0.12690142,-0.1363254,0.44421005
668484000,0.1280906,-0.13563438,0.44408023
668492000,0.12888837,-0.1351667,0.44399202
668504000,0.1300945,-0.13445003,0.44385782
668512000,0.13398124,-0.13469933,0.44228002
668524000,0.13521232,-0.13389961,0.4421482
668532000,0.13603714,-0.13335413,0.44206005
668544000,0.13727328,-0.13253205,0.4419251
668552000,0.13809757,-0.13197608,0.4418347
668564000,0.13849223,-0.1328116,0.44312117
668572000,0.13932972,-0.13223986,0.4430296
668584000,0.14058156,-0.13137087,0.44289267
668592000,0.14141722,-0.13079819,0.4427961
668604000,0.14267236,-0.12993103,0.44264874
668612000,0.14637935,-0.12707447,0.44199997
668624000,0.14760268,-0.1261578,0.4418557
668632000,0.14841484,-0.12553613,0.44176072
668644000,0.14963266,-0.12458909,0.44161797
668652000,0.15044284,-0.12394783,0.44152316
668664000,0.14929727,-0.12416203,0.4409405
668672000,0.15010925,-0.123554155,0.44083557
668684000,0.1513283,-0.12262828,0.4406773
668692000,0.15213932,-0.12200029,0.44057232
668704000,0.15334621,-0.121054545,0.44041473
668712000,0.15414964,-0.12043517,0.44030407
668724000,0.15450677,-0.11711862,0.43938687
668732000,0.15528859,-0.11648611,0.43927938
668744000,0.15644827,-0.11552697,0.43912116
668752000,0.15721501,-0.11488088,0.43901682
668764000,0.15834738,-0.1138761,0.4388716
668772000,0.16018014,-0.117086455,0.43589196
668784000,0.16132182,-0.11600289,0.4357606
668792000,0.1620687,-0.115264356,0.43567944
668804000,0.16315891,-0.1141076,0.435577
668812000,0.16386493,-0.11330554,0.43552133
668824000,0.16233744,-0.110547334,0.43597457
668832000,0.1629895,-0.10972132,0.43593994
668844000,0.16392781,-0.10842733,0.4359119
668852000,0.16452925,-0.107537284,0.43590578
668864000,0.16540718,-0.10617284,0.435908
668872000,0.16943227,-0.10755225,0.43782905
668884000,0.17029063,-0.10608307,0.43785447
668892000,0.17084141,-0.105069175,0.4378844
668904000,0.17165062,-0.10352714,0.4379352
668912000,0.17218274,-0.10248044,0.43797252
668924000,0.17113449,-0.09902424,0.43805805
668932000,0.17162012,-0.097943686,0.43811098
668944000,0.17233585,-0.09628289,0.43819815
668952000,0.17280492,-0.09514819,0.43826127
668964000,0.17348911,-0.09339134,0.43836886
668972000,0.17393075,-0.0921983,0.4384464
668984000,0.17418523,-0.09329757,0.4390415
668992000,0.17463836,-0.09205998,0.4391227
669004000,0.1753014,-0.09016015,0.43925267
669012000,0.17573197,-0.08886555,0.43934447
669024000,0.17637192,-0.086894676,0.4394822
669032000,0.17828365,-0.08201149,0.44055238
669044000,0.17886958,-0.079951786,0.4406935
669052000,0.17925784,-0.07856071,0.44078588
669064000,0.17983486,-0.07643706,0.4409242
669072000,0.1802153,-0.07499725,0.4410161
669084000,0.17959237,-0.073118314,0.43647772
669092000,0.17996965,-0.07163041,0.436569
669104000,0.18053146,-0.06936393,0.43670303
669112000,0.18090029,-0.06782393,0.43679228
669124000,0.18144614,-0.06546885,0.4369252
669132000,0.18330535,-0.06166724,0.44005802
669144000,0.1838001,-0.05918348,0.44019267
669152000,0.18411663,-0.05749106,0.44028467
669164000,0.18457462,-0.054889083,0.44042498
669172000,0.18486778,-0.05310814,0.44052035
669184000,0.18343163,-0.052640274,0.44126883
669192000,0.18370968,-0.050796803,0.4413692
669204000,0.1841022,-0.047969844,0.4415219
669212000,0.18434383,-0.046045568,0.44162598
669224000,0.18467292,-0.04310339,0.4417854
669232000,0.18486549,-0.04110698,0.44189513
669244000,0.18712986,-0.040152706,0.44292146
669252000,0.18727265,-0.038057677,0.44304606
669264000,0.18743995,-0.034865167,0.443238
669272000,0.18751451,-0.032705892,0.44337103
669284000,0.18757029,-0.029424056,0.44357732
669292000,0.1858022,-0.023843767,0.44001254
669304000,0.18571444,-0.0205102,0.44021758
669312000,0.18561691,-0.018267032,0.44035748
669324000,0.18539868,-0.014867664,0.44057724
669332000,0.18520743,-0.012577204,0.440729
669344000,0.18756154,-0.008118365,0.4430149
669352000,0.1872672,-0.005787053,0.44317597
669364000,0.18674287,-0.0022800358,0.44342908
669372000,0.18634048,6.173544e-05,0.44360417
669384000,0.18566312,0.0035619596,0.44387382
669392000,0.18282835,0.0037307632,0.44522905
669404000,0.18200263,0.007172286,0.4455251
669412000,0.18139647,0.009450621,0.4457298
669424000,0.18041116,0.012839685,0.44604483
669432000,0.17969689,0.015079163,0.44626302
669444000,0.18076336,0.015043122,0.4455572
669452000,0.17996018,0.017240448,0.44580266
669464000,0.17868756,0.020487713,0.446177
669472000,0.1777913,0.022615097,0.44643223
669484000,0.17637856,0.025744705,0.44682294
669492000,0.1754014,0.02778161,0.4470855
669504000,0.1716608,0.033846583,0.44551465
669512000,0.1706174,0.03577218,0.44576493
669524000,0.16902806,0.038589396,0.4461353
669532000,0.16796395,0.04040487,0.44637638
669544000,0.16637541,0.043051373,0.44672376
669552000,0.16657664,0.043373518,0.45029983
669564000,0.16499424,0.045870926,0.4506348
669572000,0.16396092,0.04745902,0.45084745
669584000,0.1624517,0.049734797,0.4511484
669592000,0.16146627,0.05119209,0.4513391
669604000,0.1595823,0.055117473,0.44993356
669612000,0.15865254,0.056431245,0.45009947
669624000,0.15732552,0.05829878,0.4503272
669632000,0.15648484,0.059480745,0.45046553
669644000,0.15530396,0.061150253,0.4506506
669652000,0.15317969,0.059995163,0.45346323
669664000,0.15220104,0.06144155,0.45359907
669672000,0.15161304,0.062339254,0.45367348
669684000,0.15082736,0.063590154,0.45376176
669692000,0.15037112,0.06436886,0.45380336
669704000,0.15235163,0.06706082,0.45211518
669712000,0.15202184,0.06776084,0.4521218
669724000,0.1516293,0.068736784,0.4521063
669732000,0.15143058,0.069348596,0.45207947
669744000,0.1512285,0.070222124,0.45201227
669752000,0.1511498,0.07078384,0.45195097
669764000,0.15008056,0.071957886,0.45159227
669772000,0.15010066,0.07250113,0.4514987
669784000,0.15020302,0.07332394,0.45133173
669792000,0.15031016,0.07387953,0.45120546
669804000,0.15051346,0.07473306,0.45099708
669812000,0.15193465,0.07407446,0.45066762
669824000,0.15222843,0.07499193,0.45041668
669832000,0.15243798,0.0756254,0.45023987
669844000,0.15274851,0.07660462,0.449969
669852000,0.15295455,0.07728082,0.44978335
669864000,0.1513,0.08026176,0.44936317
669872000,0.15147622,0.080986544,0.44917375
669884000,0.15169643,0.082111694,0.44889507
669892000,0.15181853,0.08289329,0.44871008
669904000,0.15196192,0.084114425,0.4484342
669912000,0.15552865,0.08382245,0.44552025
669924000,0.15556528,0.08515701,0.4452543
669932000,0.1555504,0.086069144,0.4450841
669944000,0.155467,0.087474495,0.44483918
669952000,0.15536903,0.088432394,0.44468397
669964000,0.15199345,0.090508565,0.44864184
669972000,0.1518013,0.091481425,0.44850954
669984000,0.1514494,0.09296341,0.44832376
669992000,0.15116686,0.09396699,0.44820985
670004000,0.15067169,0.09548588,0.44805557
670012000,0.15029103,0.09650952,0.44796407
670024000,0.14498664,0.09764127,0.44547158
670032000,0.14450622,0.098649055,0.44540566
670044000,0.14370199,0.100163646,0.44532782
670052000,0.14311732,0.10117211,0.44528812
670064000,0.14216541,0.10268789,0.44524607
670072000,0.1447104,0.10272526,0.44761616
670084000,0.14362192,0.10426029,0.4476118
670092000,0.14285351,0.10527429,0.44762036
670104000,0.14164944,0.10676983,0.4476488
670112000,0.1408121,0.1077468,0.44767886
670124000,0.14054728,0.11116712,0.4438915
670132000,0.13963796,0.11211442,0.44394022
670144000,0.1382428,0.1135173,0.44402036
670152000,0.137292,0.11443418,0.44408
670164000,0.13583821,0.115782425,0.4441776
670172000,0.13754253,0.11603339,0.44862655
670184000,0.13605407,0.117344044,0.4487395
670192000,0.13504979,0.118194304,0.4488197
670204000,0.1335326,0.119440265,0.4489438
670212000,0.13251808,0.12025902,0.4490258
670224000,0.12923422,0.12089244,0.44599652
670232000,0.12822427,0.12166253,0.4460786
670244000,0.1267114,0.12279316,0.4462011
670252000,0.12570693,0.12353283,0.44628105
670264000,0.12421206,0.12462247,0.44639665
670272000,0.123224236,0.12533787,0.4464701
670284000,0.12208533,0.12626797,0.44875172
670292000,0.12112187,0.12695841,0.448818
670304000,0.119705886,0.12798591,0.44890606
670312000,0.11877786,0.12866937,0.44895718
670324000,0.11741194,0.12968506,0.44902423
670332000,0.117004745,0.13198496,0.4450249
670344000,0.115685575,0.13299493,0.4450691
670352000,0.1148265,0.13366549,0.44509068
670364000,0.11357288,0.13466208,0.44511193
670372000,0.11276281,0.1353227,0.44511753
670384000,0.10871099,0.13093771,0.4451847
670392000,0.10797128,0.13158615,0.44517353
670404000,0.10689174,0.13256152,0.44514465
670412000,0.10619298,0.13321353,0.44511726
670424000,0.10517346,0.13419576,0.44506428
670432000,0.10623688,0.13818923,0.4482277
670444000,0.10524441,0.13919841,0.44814956
670452000,0.10460201,0.13987263,0.44809005
670464000,0.10367104,0.1408897,0.44798777
670472000,0.10307113,0.14156917,0.44791198
670484000,0.101782,0.1429048,0.44458583
670492000,0.10121441,0.14357872,0.44449827
670504000,0.10038927,0.14458226,0.4443601
670512000,0.099858396,0.14524451,0.44426373
670524000,0.09908311,0.14622538,0.44411555
670532000,0.09858409,0.14687058,0.44401368
670544000,0.09931048,0.14498518,0.44726932
670552000,0.0988547,0.14562018,0.447164
670564000,0.09818282,0.14655446,0.4470068
670572000,0.0977381,0.14716157,0.44690478
670584000,0.097078696,0.14804745,0.4467559
670592000,0.094488084,0.15222104,0.44673046
670604000,0.093825564,0.15304005,0.44659027
670612000,0.09338966,0.15356675,0.4465008
670624000,0.09274278,0.15432653,0.44637367
670632000,0.09231429,0.15481278,0.4462941
670644000,0.0922293,0.15462497,0.44588798
670652000,0.09180345,0.1550734,0.44582012
670664000,0.09115726,0.15571214,0.4457301
670672000,0.09072521,0.15611625,0.44567686
670684000,0.09007778,0.15668207,0.44560963
670692000,0.085749574,0.15514627,0.44278294
670704000,0.08511959,0.15562989,0.44273475
670712000,0.084705025,0.15593572,0.44270664
670724000,0.08409476,0.15636742,0.44267073
670732000,0.08369727,0.15663484,0.4426515
670744000,0.087095715,0.15845752,0.44453135
670752000,0.086714186,0.15869783,0.4445202
670764000,0.0861512,0.1590281,0.44451165
670772000,0.085783415,0.15922672,0.44451168
670784000,0.08523782,0.15949523,0.44452035
670792000,0.08487792,0.1596564,0.44453138
670804000,0.083583124,0.15869656,0.4479232
670812000,0.08322758,0.15882438,0.4479441
670824000,0.082696244,0.1589922,0.447983
670832000,0.082342245,0.15908946,0.44801366
670844000,0.081812836,0.1592185,0.4480648
670852000,0.08262005,0.15834898,0.44454008
670864000,0.08209308,0.15843792,0.444606
670872000,0.081748605,0.15848738,0.44465184
670884000,0.08123764,0.15855336,0.44472197
670892000,0.08090496,0.15859337,0.44476834
670904000,0.0779271,0.16038842,0.4482892
670912000,0.07761545,0.16041559,0.44833353
670924000,0.07716878,0.16044961,0.44839844
670932000,0.0768848,0.16046752,0.44844082
670944000,0.076481014,0.16049708,0.44849926
670952000,0.07951869,0.16071063,0.44823503
670964000,0.079158686,0.16075502,0.44828284
670972000,0.07893469,0.16078568,0.44831133
670984000,0.07862229,0.16083044,0.44835016
670992000,0.07842732,0.16086121,0.4483733
671004000,0.07543258,0.16226046,0.4433012
671012000,0.07526497,0.16228564,0.44332045
671024000,0.07503617,0.16231976,0.44334674
671032000,0.07489832,0.16234313,0.44336152
671044000,0.07471436,0.16237663,0.44338027
671052000,0.07460608,0.16239338,0.44339237
671064000,0.07604865,0.16083625,0.45009026
