timestamp,baro_alt_meter,baro_temp_celcius,baro_pressure_pa,rho
657292000,487.37054,32.0,95606.4,1.1359621
657304000,487.6427,32.0,95603.28,1.1359252
657312000,487.7167,32.0,95602.45,1.1359153
657324000,487.70084,32.0,95602.61,1.1359172
657332000,487.685,32.0,95602.805,1.1359195
657344000,487.57928,32.0,95604.016,1.1359339
657352000,487.7035,32.0,95602.58,1.1359168
657364000,487.57928,32.0,95604.016,1.1359339
657372000,487.47888,32.0,95605.15,1.1359473
657384000,487.5238,32.0,95604.64,1.1359413
657392000,487.50003,32.0,95604.92,1.1359446
657404000,487.53436,32.0,95604.53,1.13594
657412000,487.69028,32.0,95602.74,1.1359187
657424000,487.51324,32.0,95604.76,1.1359427
657432000,487.52646,32.0,95604.6,1.1359408
657444000,487.44717,32.0,95605.52,1.1359518
657452000,487.6665,32.0,95603.0,1.1359218
657464000,487.72464,32.0,95602.36,1.1359142
657472000,487.71143,32.0,95602.49,1.1359158
657484000,487.62158,32.0,95603.516,1.1359279
657492000,487.61893,32.0,95603.57,1.1359285
657504000,487.64008,32.0,95603.305,1.1359254
657512000,487.67706,32.0,95602.875,1.1359203
657524000,487.62952,32.0,95603.44,1.135927
657532000,487.70084,32.0,95602.6,1.1359171
657544000,487.59778,32.0,95603.805,1.1359314
657552000,487.70084,32.0,95602.61,1.1359172
657564000,487.44983,32.0,95605.51,1.1359516
657572000,487.6427,32.0,95603.27,1.135925
657584000,487.65857,32.0,95603.125,1.1359233
657592000,487.71143,32.0,95602.5,1.1359159
657604000,487.64536,32.0,95603.24,1.1359247
657612000,487.68762,32.0,95602.77,1.1359191
657624000,487.5555,32.0,95604.28,1.135937
657632000,487.611,32.0,95603.664,1.1359297
657644000,487.37848,32.0,95606.31,1.1359612
657652000,487.53436,32.0,95604.52,1.1359398
657664000,487.6242,32.0,95603.5,1.1359277
657672000,487.71405,32.0,95602.47,1.1359155
657684000,487.48682,32.0,95605.06,1.1359463
657692000,487.6665,32.0,95603.0,1.1359218
657704000,487.66122,32.0,95603.086,1.1359228
657712000,487.69028,32.0,95602.75,1.1359189
657724000,487.63214,32.0,95603.42,1.1359268
657732000,487.64536,32.0,95603.24,1.1359247
657744000,487.51852,32.0,95604.7,1.135942
657752000,487.6665,32.0,95603.02,1.1359221
657764000,487.78275,32.0,95601.69,1.1359062
657772000,487.79333,32.0,95601.55,1.1359046
657784000,487.62952,32.0,95603.43,1.1359268
657792000,487.67178,32.0,95602.94,1.135921
657804000,487.78806,32.0,95601.62,1.1359054
657812000,487.5555,32.0,95604.27,1.135937
657824000,487.56345,32.0,95604.2,1.1359361
657832000,487.48682,32.0,95605.08,1.1359465
657844000,487.67178,32.0,95602.94,1.135921
657852000,487.67706,32.0,95602.89,1.1359205
657864000,487.8224,32.0,95601.234,1.1359009
657872000,487.6348,32.0,95603.375,1.1359262
657884000,487.82504,32.0,95601.2,1.1359005
657892000,487.69293,32.0,95602.72,1.1359185
657904000,487.74048,32.0,95602.164,1.1359118
657912000,487.71933,32.0,95602.414,1.1359148
657924000,487.722,32.0,95602.38,1.1359144
657932000,487.8039,32.0,95601.45,1.1359034
657944000,487.611,32.0,95603.64,1.1359293
657952000,487.60837,32.0,95603.69,1.13593
657964000,487.78275,32.0,95601.67,1.135906
657972000,487.7669,32.0,95601.86,1.1359082
657984000,487.89902,32.0,95600.336,1.1358901
657992000,487.5608,32.0,95604.23,1.1359364
658004000,487.82504,32.0,95601.19,1.1359003
658012000,487.86203,32.0,95600.78,1.1358954
658024000,487.85938,32.0,95600.8,1.1358956
658032000,487.8673,32.0,95600.7,1.1358945
658044000,487.86203,32.0,95600.79,1.1358955
658052000,487.84354,32.0,95600.98,1.1358978
658064000,487.72464,32.0,95602.35,1.1359141
658072000,487.92017,32.0,95600.12,1.1358875
658084000,487.9545,32.0,95599.7,1.1358826
658092000,487.9466,32.0,95599.81,1.1358839
658104000,487.9545,32.0,95599.72,1.1358829
658112000,487.936,32.0,95599.93,1.1358854
658124000,487.83295,32.0,95601.1,1.1358992
658132000,488.047,32.0,95598.65,1.1358701
658144000,488.0549,32.0,95598.56,1.135869
658152000,487.9677,32.0,95599.56,1.135881
658164000,487.90695,32.0,95600.26,1.1358892
658172000,487.91223,32.0,95600.21,1.1358887
658184000,487.89636,32.0,95600.37,1.1358905
658192000,488.01,32.0,95599.086,1.1358753
658204000,488.04962,32.0,95598.62,1.1358697
658212000,488.21875,32.0,95596.69,1.1358467
658224000,488.01,32.0,95599.09,1.1358753
658232000,487.98886,32.0,95599.33,1.1358782
658244000,488.1157,32.0,95597.85,1.1358606
658252000,488.08398,32.0,95598.24,1.1358652
658264000,488.03906,32.0,95598.74,1.1358712
658272000,488.21875,32.0,95596.695,1.1358469
658284000,487.95715,32.0,95599.695,1.1358825
658292000,488.14212,32.0,95597.57,1.1358572
658304000,488.29538,32.0,95595.81,1.1358364
658312000,488.03906,32.0,95598.74,1.1358712
658324000,488.3588,32.0,95595.07,1.1358275
658332000,488.0549,32.0,95598.56,1.135869
658344000,488.21875,32.0,95596.695,1.1358469
658352000,488.3852,32.0,95594.78,1.1358241
658364000,488.36142,32.0,95595.05,1.1358273
658372000,488.3535,32.0,95595.13,1.1358283
658384000,488.36142,32.0,95595.06,1.1358274
658392000,488.409,32.0,95594.51,1.1358209
658404000,488.45126,32.0,95594.016,1.135815
658412000,488.36142,32.0,95595.06,1.1358274
658424000,488.4962,32.0,95593.516,1.1358091
658432000,488.52524,32.0,95593.17,1.135805
658444000,488.61246,32.0,95592.17,1.1357931
658452000,488.37198,32.0,95594.94,1.135826
658464000,488.45126,32.0,95594.04,1.1358153
658472000,488.50412,32.0,95593.4,1.1358078
658484000,488.4777,32.0,95593.71,1.1358114
658492000,488.55432,32.0,95592.84,1.1358011
658504000,488.5913,32.0,95592.42,1.1357961
658512000,488.68378,32.0,95591.36,1.1357834
658524000,488.56754,32.0,95592.69,1.1357993
658532000,488.78156,32.0,95590.24,1.1357702
658544000,488.55167,32.0,95592.86,1.1358013
658552000,488.58865,32.0,95592.445,1.1357964
658564000,488.5279,32.0,95593.15,1.1358048
658572000,488.55432,32.0,95592.83,1.135801
658584000,488.7657,32.0,95590.43,1.1357725
658592000,488.81854,32.0,95589.82,1.1357652
658604000,488.78156,32.0,95590.25,1.1357703
658612000,488.69965,32.0,95591.164,1.1357812
658624000,488.9084,32.0,95588.8,1.135753
658632000,488.70758,32.0,95591.086,1.1357802
658644000,488.7921,32.0,95590.11,1.1357687
658652000,488.73398,32.0,95590.79,1.1357768
658664000,488.8291,32.0,95589.69,1.1357636
658672000,488.771,32.0,95590.36,1.1357716
658684000,488.70227,32.0,95591.13,1.1357808
658692000,488.9084,32.0,95588.8,1.135753
658704000,488.88724,32.0,95589.016,1.1357557
658712000,489.0088,32.0,95587.625,1.1357391
658724000,488.89517,32.0,95588.94,1.1357547
658732000,489.18582,32.0,95585.586,1.1357149
658744000,489.07748,32.0,95586.84,1.1357298
658752000,489.01672,32.0,95587.54,1.1357381
658764000,489.02728,32.0,95587.43,1.1357368
658772000,489.1541,32.0,95585.98,1.1357195
658784000,489.1092,32.0,95586.47,1.1357254
658792000,489.1092,32.0,95586.484,1.1357256
658804000,489.059,32.0,95587.055,1.1357323
658812000,489.06958,32.0,95586.92,1.1357307
658824000,489.06427,32.0,95587.0,1.1357317
658832000,489.30472,32.0,95584.234,1.1356988
658844000,489.25452,32.0,95584.836,1.135706
658852000,489.16733,32.0,95585.805,1.1357175
658864000,489.1541,32.0,95585.95,1.1357193
658872000,489.29153,32.0,95584.39,1.1357007
658884000,489.23074,32.0,95585.08,1.1357088
658892000,489.36813,32.0,95583.52,1.1356903
658904000,489.3206,32.0,95584.055,1.1356966
658912000,489.4342,32.0,95582.766,1.1356814
658924000,489.35495,32.0,95583.664,1.135692
658932000,489.23074,32.0,95585.1,1.1357092
658944000,489.2228,32.0,95585.17,1.13571
658952000,489.41837,32.0,95582.94,1.1356834
658964000,489.34174,32.0,95583.82,1.1356939
658972000,489.32324,32.0,95584.016,1.1356962
658984000,489.4844,32.0,95582.18,1.1356744
658992000,489.37872,32.0,95583.38,1.1356887
659004000,489.5716,32.0,95581.195,1.1356627
659012000,489.39722,32.0,95583.17,1.1356862
659024000,489.44476,32.0,95582.63,1.1356798
659032000,489.39456,32.0,95583.22,1.1356868
659044000,489.57425,32.0,95581.16,1.1356622
659052000,489.48706,32.0,95582.15,1.135674
659064000,489.6218,32.0,95580.625,1.1356559
659072000,489.53726,32.0,95581.57,1.1356672
659084000,489.59274,32.0,95580.93,1.1356596
659092000,489.783,32.0,95578.75,1.1356337
659104000,489.57425,32.0,95581.15,1.1356622
659112000,489.45535,32.0,95582.516,1.1356784
659124000,489.66672,32.0,95580.09,1.1356497
659132000,489.4844,32.0,95582.18,1.1356744
659144000,489.70108,32.0,95579.7,1.135645
659152000,489.80676,32.0,95578.5,1.1356307
659164000,489.86227,32.0,95577.86,1.1356231
659172000,489.8966,32.0,95577.45,1.1356182
659184000,489.90982,32.0,95577.33,1.1356168
659192000,489.80676,32.0,95578.484,1.1356305
659204000,489.9336,32.0,95577.04,1.1356133
659212000,489.8279,32.0,95578.25,1.1356277
659224000,489.75394,32.0,95579.1,1.1356379
659232000,489.89398,32.0,95577.5,1.1356188
659244000,489.8147,32.0,95578.39,1.1356294
659252000,489.9072,32.0,95577.36,1.1356171
659264000,489.8781,32.0,95577.664,1.1356207
659272000,489.8649,32.0,95577.83,1.1356227
659284000,489.8279,32.0,95578.25,1.1356277
659292000,489.85434,32.0,95577.945,1.135624
659304000,490.1265,32.0,95574.82,1.135587
659312000,489.98117,32.0,95576.49,1.1356069
659324000,490.05252,32.0,95575.69,1.1355972
659332000,490.08157,32.0,95575.34,1.1355932
659344000,490.0472,32.0,95575.73,1.1355977
659352000,489.9838,32.0,95576.46,1.1356064
659364000,490.10007,32.0,95575.125,1.1355906
659372000,490.0446,32.0,95575.766,1.1355982
659384000,490.108,32.0,95575.04,1.1355896
659392000,490.1899,32.0,95574.11,1.1355785
659404000,489.9891,32.0,95576.41,1.1356058
659412000,490.10007,32.0,95575.125,1.1355906
659424000,490.20312,32.0,95573.945,1.1355766
659432000,490.10007,32.0,95575.125,1.1355906
659444000,490.07364,32.0,95575.43,1.1355942
659452000,490.23746,32.0,95573.56,1.1355721
659464000,490.2084,32.0,95573.9,1.135576
659472000,490.32996,32.0,95572.5,1.1355594
659484000,490.16876,32.0,95574.34,1.1355813
659492000,490.2586,32.0,95573.31,1.1355691
659504000,490.2903,32.0,95572.96,1.1355649
659512000,490.18463,32.0,95574.15,1.135579
659524000,490.3379,32.0,95572.42,1.1355585
659532000,490.3088,32.0,95572.74,1.1355623
659544000,490.35638,32.0,95572.19,1.1355557
659552000,490.24805,32.0,95573.44,1.1355705
659564000,490.21634,32.0,95573.79,1.1355747
659572000,490.31146,32.0,95572.695,1.1355617
659584000,490.45413,32.0,95571.07,1.1355424
659592000,490.2401,32.0,95573.53,1.1355716
659604000,490.52814,32.0,95570.24,1.1355326
659612000,490.41452,32.0,95571.52,1.1355478
659624000,490.4885,32.0,95570.664,1.1355376
659632000,490.59683,32.0,95569.42,1.1355228
659644000,490.57568,32.0,95569.67,1.1355258
659652000,490.5387,32.0,95570.12,1.1355311
659664000,490.5202,32.0,95570.33,1.1355336
659672000,490.61267,32.0,95569.266,1.1355209
659684000,490.58624,32.0,95569.55,1.1355243
659692000,490.68402,32.0,95568.43,1.135511
659704000,490.6576,32.0,95568.734,1.1355146
659712000,490.56247,32.0,95569.85,1.135528
659724000,490.73688,32.0,95567.83,1.1355039
659732000,490.49905,32.0,95570.56,1.1355364
659744000,490.71307,32.0,95568.12,1.1355073
659752000,490.7078,32.0,95568.164,1.135508
659764000,490.79236,32.0,95567.195,1.1354964
659772000,490.8003,32.0,95567.12,1.1354954
659784000,490.61533,32.0,95569.234,1.1355206
659792000,490.8452,32.0,95566.586,1.1354891
659804000,490.74216,32.0,95567.78,1.1355033
659812000,490.84256,32.0,95566.62,1.1354895
659824000,490.85577,32.0,95566.47,1.1354878
659832000,490.82672,32.0,95566.81,1.1354918
659844000,490.9509,32.0,95565.375,1.1354748
659852000,490.93768,32.0,95565.54,1.1354767
659864000,490.71838,32.0,95568.03,1.1355063
659872000,490.89276,32.0,95566.055,1.1354828
659884000,490.832,32.0,95566.73,1.1354908
659892000,490.7897,32.0,95567.23,1.1354967
659904000,491.02225,32.0,95564.57,1.1354651
659912000,490.89542,32.0,95566.016,1.1354823
659924000,491.02225,32.0,95564.58,1.1354653
659932000,491.0619,32.0,95564.12,1.1354598
659944000,491.13058,32.0,95563.32,1.1354504
659952000,490.86633,32.0,95566.35,1.1354864
659964000,490.95618,32.0,95565.33,1.1354742
659972000,491.06717,32.0,95564.04,1.1354588
659984000,491.1702,32.0,95562.875,1.135445
659992000,491.07507,32.0,95563.96,1.135458
660004000,491.1385,32.0,95563.234,1.1354493
660012000,491.0883,32.0,95563.8,1.135456
660024000,491.16492,32.0,95562.92,1.1354456
660032000,491.15436,32.0,95563.05,1.135447
660044000,491.2759,32.0,95561.67,1.1354307
660052000,491.231,32.0,95562.18,1.1354368
660064000,491.26532,32.0,95561.78,1.135432
660072000,491.157,32.0,95563.016,1.1354467
660084000,491.12,32.0,95563.44,1.1354517
660092000,491.1755,32.0,95562.82,1.1354444
660104000,491.38953,32.0,95560.37,1.1354152
660112000,491.09888,32.0,95563.7,1.1354549
660124000,491.17285,32.0,95562.85,1.1354448
660132000,491.36044,32.0,95560.695,1.1354191
660144000,491.32346,32.0,95561.12,1.1354241
660152000,491.37366,32.0,95560.52,1.1354171
660164000,491.32346,32.0,95561.12,1.1354241
660172000,491.3763,32.0,95560.51,1.1354169
660184000,491.38687,32.0,95560.39,1.1354156
660192000,491.36838,32.0,95560.586,1.1354178
660204000,491.33932,32.0,95560.92,1.1354219
660212000,491.4133,32.0,95560.1,1.1354121
660224000,491.41595,32.0,95560.05,1.1354114
660232000,491.3631,32.0,95560.664,1.1354188
660244000,491.445,32.0,95559.734,1.1354077
660252000,491.42917,32.0,95559.91,1.1354097
660264000,491.46878,32.0,95559.47,1.1354046
660272000,491.60092,32.0,95557.92,1.1353862
660284000,491.41858,32.0,95560.03,1.1354113
660292000,491.62997,32.0,95557.62,1.1353825
660304000,491.49258,32.0,95559.164,1.1354009
660312000,491.66168,32.0,95557.234,1.135378
660324000,491.64847,32.0,95557.38,1.1353798
660332000,491.64053,32.0,95557.49,1.1353811
660344000,491.76736,32.0,95556.04,1.1353638
660352000,491.7753,32.0,95555.93,1.1353625
660372000,491.84665,32.0,95555.13,1.1353531
660384000,491.71716,32.0,95556.59,1.1353704
660392000,491.75153,32.0,95556.2,1.1353657
660404000,491.5005,32.0,95559.09,1.1354
660412000,491.78323,32.0,95555.84,1.1353616
660424000,491.7621,32.0,95556.09,1.1353644
660432000,491.74625,32.0,95556.28,1.1353667
660444000,491.73303,32.0,95556.43,1.1353685
660452000,491.84665,32.0,95555.12,1.1353528
660464000,491.71188,32.0,95556.65,1.1353711
660472000,491.9259,32.0,95554.21,1.1353421
660484000,491.89685,32.0,95554.555,1.1353462
660492000,491.85986,32.0,95554.97,1.1353511
660504000,491.9682,32.0,95553.71,1.1353362
660512000,491.918,32.0,95554.305,1.1353432
660524000,491.9682,32.0,95553.73,1.1353364
660532000,492.01312,32.0,95553.22,1.1353303
660544000,491.9629,32.0,95553.78,1.135337
660552000,492.0052,32.0,95553.32,1.1353315
660564000,492.01575,32.0,95553.195,1.1353301
660572000,491.94177,32.0,95554.03,1.13534
660584000,492.08182,32.0,95552.414,1.1353208
660592000,492.13464,32.0,95551.82,1.1353137
660604000,492.03952,32.0,95552.914,1.1353267
660612000,492.04218,32.0,95552.89,1.1353264
660624000,492.0686,32.0,95552.58,1.1353227
660632000,492.09503,32.0,95552.27,1.1353191
660644000,492.08444,32.0,95552.41,1.1353207
660652000,492.1505,32.0,95551.65,1.1353116
660664000,492.26413,32.0,95550.336,1.1352961
660672000,492.01047,32.0,95553.25,1.1353307
660684000,492.01047,32.0,95553.234,1.1353304
660692000,492.28262,32.0,95550.125,1.1352936
660704000,492.10294,32.0,95552.2,1.1353183
660712000,492.28528,32.0,95550.09,1.1352931
660724000,492.22714,32.0,95550.76,1.1353011
660732000,492.29584,32.0,95549.97,1.1352917
660744000,492.21658,32.0,95550.875,1.1353024
660752000,492.21127,32.0,95550.94,1.1353033
660764000,492.32227,32.0,95549.68,1.1352882
660772000,492.3434,32.0,95549.445,1.1352855
660784000,492.2879,32.0,95550.06,1.1352928
660792000,492.22977,32.0,95550.75,1.135301
660804000,492.48874,32.0,95547.78,1.1352657
660812000,492.40417,32.0,95548.75,1.1352772
660824000,492.4491,32.0,95548.21,1.1352708
660832000,492.4676,32.0,95548.02,1.1352686
660844000,492.3302,32.0,95549.586,1.1352872
660852000,492.44644,32.0,95548.25,1.1352713
660864000,492.3883,32.0,95548.914,1.1352792
660872000,492.3804,32.0,95549.01,1.1352803
660884000,492.64728,32.0,95545.97,1.1352441
660892000,492.55478,32.0,95547.02,1.1352566
660904000,492.5865,32.0,95546.65,1.1352522
660912000,492.50195,32.0,95547.6,1.1352636
660924000,492.56006,32.0,95546.945,1.1352558
660932000,492.47025,32.0,95547.98,1.135268
660944000,492.50195,32.0,95547.625,1.1352638
660952000,492.64462,32.0,95546.0,1.1352445
660964000,492.6182,32.0,95546.3,1.1352481
660972000,492.62878,32.0,95546.18,1.1352466
660984000,492.7239,32.0,95545.06,1.1352334
660992000,492.49664,32.0,95547.67,1.1352644
661004000,492.72653,32.0,95545.05,1.1352332
661012000,492.5865,32.0,95546.64,1.1352521
661024000,492.81638,32.0,95544.016,1.135221
661032000,492.45966,32.0,95548.11,1.1352696
661044000,492.7371,32.0,95544.91,1.1352315
661052000,492.84015,32.0,95543.734,1.1352177
661064000,492.83487,32.0,95543.805,1.1352185
661072000,492.81638,32.0,95544.016,1.135221
661084000,492.8322,32.0,95543.84,1.1352189
661092000,492.81372,32.0,95544.05,1.1352214
661104000,492.64728,32.0,95545.96,1.1352441
661112000,492.90622,32.0,95542.984,1.1352087
661124000,492.85602,32.0,95543.57,1.1352156
661132000,492.76352,32.0,95544.625,1.1352282
661144000,492.8005,32.0,95544.195,1.1352232
661152000,492.77145,32.0,95544.55,1.1352273
661164000,492.8428,32.0,95543.73,1.1352175
661172000,492.74768,32.0,95544.8,1.1352302
661184000,493.00928,32.0,95541.81,1.1351948
661192000,492.98547,32.0,95542.06,1.1351978
661204000,492.9432,32.0,95542.555,1.1352036
661212000,492.83487,32.0,95543.82,1.1352186
661224000,492.85074,32.0,95543.62,1.1352162
661232000,493.00928,32.0,95541.81,1.1351948
661244000,493.0304,32.0,95541.58,1.135192
661252000,492.96698,32.0,95542.3,1.1352005
661264000,493.05948,32.0,95541.25,1.1351881
661272000,493.03568,32.0,95541.49,1.135191
661284000,493.255,32.0,95538.99,1.1351613
661292000,493.0912,32.0,95540.86,1.1351835
661304000,493.0304,32.0,95541.56,1.1351918
661312000,493.12817,32.0,95540.44,1.1351784
661324000,493.1546,32.0,95540.125,1.1351748
661332000,493.18365,32.0,95539.8,1.1351708
661344000,493.10703,32.0,95540.695,1.1351815
661352000,493.26556,32.0,95538.87,1.1351597
661364000,493.10175,32.0,95540.75,1.1351821
661372000,493.13873,32.0,95540.32,1.135177
661384000,493.21536,32.0,95539.44,1.1351665
661392000,493.18893,32.0,95539.734,1.1351701
661404000,493.1308,32.0,95540.43,1.1351783
661412000,493.41617,32.0,95537.15,1.1351393
661424000,493.23914,32.0,95539.19,1.1351635
661432000,493.24973,32.0,95539.05,1.1351619
661444000,493.3554,32.0,95537.836,1.1351476
661452000,493.24973,32.0,95539.05,1.1351619
661464000,493.3105,32.0,95538.35,1.1351537
661472000,493.3554,32.0,95537.836,1.1351476
661484000,493.41617,32.0,95537.14,1.1351392
661492000,493.2867,32.0,95538.64,1.1351571
661504000,493.26028,32.0,95538.94,1.1351606
661512000,493.37918,32.0,95537.57,1.1351444
661524000,493.3369,32.0,95538.05,1.1351501
661532000,493.44525,32.0,95536.81,1.1351354
661544000,493.29993,32.0,95538.484,1.1351552
661552000,493.58002,32.0,95535.28,1.1351172
661564000,493.48224,32.0,95536.38,1.1351303
661572000,493.46902,32.0,95536.54,1.1351321
661584000,493.36862,32.0,95537.71,1.135146
661592000,493.38977,32.0,95537.45,1.135143
661604000,493.57208,32.0,95535.37,1.1351182
661612000,493.36862,32.0,95537.71,1.135146
661624000,493.6064,32.0,95534.98,1.1351136
661632000,493.50867,32.0,95536.1,1.135127
661644000,493.6038,32.0,95535.0,1.1351138
661652000,493.617,32.0,95534.86,1.1351122
661664000,493.55093,32.0,95535.62,1.1351212
661672000,493.65927,32.0,95534.36,1.1351062
661684000,493.55887,32.0,95535.52,1.13512
661692000,493.68042,32.0,95534.11,1.1351032
661712000,493.58264,32.0,95535.24,1.1351167
661724000,493.64078,32.0,95534.555,1.1351086
661732000,493.70685,32.0,95533.805,1.1350996
661744000,493.8363,32.0,95532.33,1.1350821
661752000,493.76495,32.0,95533.164,1.135092
661764000,493.7359,32.0,95533.484,1.1350958
661772000,493.62756,32.0,95534.74,1.1351107
661784000,493.77817,32.0,95532.99,1.13509
661792000,493.86008,32.0,95532.07,1.135079
661804000,493.85217,32.0,95532.17,1.1350802
661812000,493.71475,32.0,95533.734,1.1350988
661824000,493.72006,32.0,95533.664,1.135098
661832000,493.7861,32.0,95532.9,1.1350889
661844000,493.84158,32.0,95532.266,1.1350813
661852000,493.70154,32.0,95533.86,1.1351002
661864000,493.74118,32.0,95533.44,1.1350952
661872000,493.84158,32.0,95532.266,1.1350813
661884000,493.8548,32.0,95532.14,1.1350799
661892000,493.8548,32.0,95532.14,1.1350799
661904000,493.87595,32.0,95531.89,1.1350769
661912000,493.88123,32.0,95531.82,1.135076
661924000,493.85217,32.0,95532.15,1.13508
661932000,494.0477,32.0,95529.92,1.1350535
661944000,493.92087,32.0,95531.375,1.1350708
661952000,494.02655,32.0,95530.15,1.1350561
661964000,494.14545,32.0,95528.805,1.1350403
661972000,494.1481,32.0,95528.77,1.1350398
661984000,493.98956,32.0,95530.58,1.1350613
661992000,494.05298,32.0,95529.86,1.1350528
662004000,494.11905,32.0,95529.1,1.1350437
662012000,494.00012,32.0,95530.47,1.13506
662024000,494.03714,32.0,95530.05,1.135055
662032000,493.96313,32.0,95530.875,1.1350648
662044000,494.1851,32.0,95528.33,1.1350346
662052000,494.12167,32.0,95529.06,1.1350433
662064000,494.02655,32.0,95530.15,1.1350561
662072000,494.0979,32.0,95529.35,1.1350467
662084000,494.21152,32.0,95528.03,1.135031
662092000,494.07675,32.0,95529.59,1.1350496
662104000,494.1983,32.0,95528.195,1.135033
662112000,494.18774,32.0,95528.3,1.1350342
662124000,494.1481,32.0,95528.766,1.1350398
662132000,494.2855,32.0,95527.2,1.1350212
662144000,494.14282,32.0,95528.836,1.1350406
662152000,494.33307,32.0,95526.66,1.1350147
662164000,494.15604,32.0,95528.68,1.1350387
662172000,494.2353,32.0,95527.77,1.135028
662184000,494.21945,32.0,95527.945,1.13503
662192000,494.23795,32.0,95527.72,1.1350273
662204000,494.3912,32.0,95525.99,1.1350068
662212000,494.4467,32.0,95525.34,1.1349992
662224000,494.27228,32.0,95527.35,1.135023
662232000,494.17453,32.0,95528.445,1.135036
662244000,494.21417,32.0,95528.0,1.1350306
662252000,494.1983,32.0,95528.195,1.135033
662264000,494.23,32.0,95527.83,1.1350286
662272000,494.3357,32.0,95526.63,1.1350144
662284000,494.16925,32.0,95528.53,1.135037
662292000,494.24323,32.0,95527.68,1.1350268
662304000,494.20624,32.0,95528.11,1.1350319
662312000,494.2855,32.0,95527.19,1.135021
662324000,494.3674,32.0,95526.24,1.1350098
662332000,494.3595,32.0,95526.35,1.1350111
662344000,494.37534,32.0,95526.16,1.1350088
662352000,494.4467,32.0,95525.34,1.1349992
662364000,494.34628,32.0,95526.49,1.1350127
662372000,494.49426,32.0,95524.79,1.1349925
662384000,494.47046,32.0,95525.06,1.1349958
662392000,494.43875,32.0,95525.42,1.135
662404000,494.49426,32.0,95524.79,1.1349925
662412000,494.5286,32.0,95524.4,1.1349878
662424000,494.30664,32.0,95526.96,1.1350183
662432000,494.44403,32.0,95525.375,1.1349995
662444000,494.45724,32.0,95525.21,1.1349975
662452000,494.53653,32.0,95524.33,1.134987
662464000,494.66336,32.0,95522.86,1.1349696
662472000,494.58145,32.0,95523.79,1.1349807
662484000,494.52066,32.0,95524.484,1.1349889
662492000,494.4282,32.0,95525.57,1.1350018
662504000,494.5894,32.0,95523.7,1.1349796
662512000,494.54974,32.0,95524.17,1.1349852
662524000,494.6396,32.0,95523.14,1.1349729
662532000,494.6528,32.0,95522.98,1.134971
662544000,494.63165,32.0,95523.23,1.134974
662552000,494.50217,32.0,95524.7,1.1349915
662564000,494.74527,32.0,95521.914,1.1349584
662572000,494.45724,32.0,95525.23,1.1349977
662584000,494.63165,32.0,95523.24,1.1349741
662592000,494.50745,32.0,95524.65,1.1349908
662604000,494.65808,32.0,95522.94,1.1349705
662612000,494.86417,32.0,95520.58,1.1349425
662624000,494.63165,32.0,95523.23,1.134974
662632000,494.666,32.0,95522.82,1.1349691
662644000,494.74527,32.0,95521.93,1.1349585
662652000,494.59467,32.0,95523.64,1.1349789
662664000,494.66336,32.0,95522.85,1.1349695
662672000,494.68185,32.0,95522.66,1.1349672
662684000,494.70563,32.0,95522.38,1.1349639
662692000,494.7215,32.0,95522.195,1.1349617
662704000,494.66336,32.0,95522.87,1.1349697
662712000,494.7902,32.0,95521.43,1.1349525
662724000,494.6105,32.0,95523.45,1.1349766
662732000,494.70035,32.0,95522.445,1.1349647
662744000,494.83246,32.0,95520.914,1.1349465
662752000,494.6422,32.0,95523.12,1.1349727
662764000,494.71356,32.0,95522.27,1.1349627
662772000,494.73734,32.0,95522.02,1.1349597
662784000,494.93024,32.0,95519.8,1.1349332
662792000,494.8536,32.0,95520.69,1.1349437
662804000,494.77698,32.0,95521.57,1.1349542
662812000,494.97516,32.0,95519.305,1.1349274
662824000,494.8536,32.0,95520.69,1.1349437
662832000,494.83774,32.0,95520.87,1.1349459
662844000,494.66336,32.0,95522.85,1.1349695
662852000,494.86417,32.0,95520.58,1.1349425
662864000,494.93286,32.0,95519.766,1.1349329
662872000,494.86945,32.0,95520.516,1.1349417
662884000,494.98306,32.0,95519.21,1.1349262
662892000,494.70563,32.0,95522.39,1.134964
662904000,494.91437,32.0,95519.99,1.1349355
662912000,494.84833,32.0,95520.76,1.1349446
662924000,494.82718,32.0,95520.99,1.1349474
662932000,494.93817,32.0,95519.7,1.134932
662944000,494.9091,32.0,95520.04,1.1349361
662952000,494.6845,32.0,95522.62,1.1349667
662964000,494.96457,32.0,95519.42,1.1349287
662972000,494.82718,32.0,95521.0,1.1349475
662984000,495.0729,32.0,95518.18,1.134914
662992000,495.12576,32.0,95517.56,1.1349066
663004000,494.88266,32.0,95520.37,1.13494
663012000,495.01215,32.0,95518.875,1.1349223
663024000,495.02798,32.0,95518.68,1.1349199
663032000,495.03592,32.0,95518.59,1.1349189
663044000,494.93286,32.0,95519.766,1.1349329
663052000,495.06235,32.0,95518.305,1.1349155
663064000,495.1099,32.0,95517.74,1.1349088
663072000,495.19974,32.0,95516.7,1.1348964
663084000,495.1046,32.0,95517.805,1.1349095
663092000,495.06235,32.0,95518.305,1.1349155
663104000,495.1046,32.0,95517.805,1.1349095
663112000,495.06235,32.0,95518.28,1.1349152
663124000,495.065,32.0,95518.27,1.1349151
663132000,495.06763,32.0,95518.234,1.1349146
663144000,495.13104,32.0,95517.51,1.134906
663152000,495.12576,32.0,95517.56,1.1349066
663164000,495.1733,32.0,95517.03,1.1349003
663172000,495.19446,32.0,95516.77,1.1348972
663184000,495.09933,32.0,95517.875,1.1349103
663192000,494.91174,32.0,95520.03,1.134936
663204000,495.22617,32.0,95516.414,1.1348931
663212000,495.18124,32.0,95516.92,1.134899
663224000,495.1469,32.0,95517.31,1.1349037
663232000,495.1733,32.0,95517.03,1.1349003
663244000,495.2473,32.0,95516.164,1.1348901
663252000,495.25787,32.0,95516.055,1.1348888
663264000,495.34244,32.0,95515.09,1.1348773
663272000,495.1522,32.0,95517.26,1.1349031
663284000,495.2711,32.0,95515.91,1.134887
663292000,495.06235,32.0,95518.28,1.1349152
663304000,495.21295,32.0,95516.58,1.134895
663312000,495.19446,32.0,95516.78,1.1348974
663324000,495.1416,32.0,95517.4,1.1349047
663332000,495.15482,32.0,95517.23,1.1349027
663344000,495.1654,32.0,95517.12,1.1349014
663352000,495.35565,32.0,95514.94,1.1348754
663364000,495.1839,32.0,95516.914,1.1348989
663372000,495.16275,32.0,95517.14,1.1349016
663384000,495.40057,32.0,95514.42,1.1348693
663392000,495.21295,32.0,95516.58,1.134895
663404000,495.29752,32.0,95515.59,1.1348833
663412000,495.3345,32.0,95515.195,1.1348785
663424000,495.19446,32.0,95516.78,1.1348974
663432000,495.4138,32.0,95514.29,1.1348678
663444000,495.34772,32.0,95515.02,1.1348765
663452000,495.41907,32.0,95514.23,1.1348671
663464000,495.464,32.0,95513.7,1.1348608
663472000,495.48776,32.0,95513.42,1.1348574
663484000,495.4534,32.0,95513.83,1.1348623
663492000,495.36356,32.0,95514.84,1.1348743
663504000,495.3847,32.0,95514.62,1.1348716
663512000,495.35565,32.0,95514.94,1.1348754
663524000,495.2341,32.0,95516.336,1.1348921
663532000,495.4217,32.0,95514.17,1.1348664
663544000,495.29486,32.0,95515.64,1.1348838
663552000,495.45868,32.0,95513.766,1.1348616
663564000,495.39526,32.0,95514.484,1.13487
663572000,495.37677,32.0,95514.69,1.1348724
663584000,495.29486,32.0,95515.63,1.1348838
663592000,495.51154,32.0,95513.15,1.1348542
663604000,495.54324,32.0,95512.8,1.13485
663612000,495.47983,32.0,95513.516,1.1348586
663624000,495.65952,32.0,95511.445,1.1348339
663632000,495.26843,32.0,95515.92,1.1348871
663644000,495.44812,32.0,95513.88,1.1348629
663652000,495.4957,32.0,95513.336,1.1348565
663664000,495.4534,32.0,95513.82,1.1348622
663672000,495.29224,32.0,95515.664,1.1348841
663684000,495.68857,32.0,95511.12,1.1348301
663692000,495.50626,32.0,95513.23,1.1348552
663704000,495.55646,32.0,95512.625,1.134848
663712000,495.5353,32.0,95512.875,1.134851
663724000,495.40057,32.0,95514.44,1.1348696
663732000,495.65424,32.0,95511.51,1.1348348
663744000,495.43228,32.0,95514.06,1.134865
663752000,495.4666,32.0,95513.67,1.1348604
663764000,495.62515,32.0,95511.836,1.1348386
663772000,495.42697,32.0,95514.13,1.1348659
663784000,495.6093,32.0,95512.03,1.134841
663792000,495.4138,32.0,95514.29,1.1348678
663804000,495.42697,32.0,95514.13,1.1348659
663812000,495.4719,32.0,95513.6,1.1348596
663824000,495.37943,32.0,95514.664,1.1348722
663832000,495.6331,32.0,95511.77,1.1348379
663844000,495.5591,32.0,95512.59,1.1348476
663852000,495.55118,32.0,95512.68,1.1348486
663864000,495.46133,32.0,95513.73,1.1348611
663872000,495.5353,32.0,95512.87,1.1348509
663884000,495.53268,32.0,95512.92,1.1348515
663892000,495.62515,32.0,95511.84,1.1348387
663904000,495.6093,32.0,95512.016,1.1348407
663912000,495.73615,32.0,95510.586,1.1348238
663924000,495.59872,32.0,95512.14,1.1348423
663932000,495.68066,32.0,95511.2,1.1348311
663944000,495.7335,32.0,95510.6,1.1348239
663952000,495.7784,32.0,95510.08,1.1348177
663964000,495.64102,32.0,95511.69,1.1348368
663972000,495.74936,32.0,95510.42,1.1348218
663984000,495.65158,32.0,95511.555,1.1348352
663992000,495.69916,32.0,95511.01,1.1348288
664004000,495.73087,32.0,95510.66,1.1348246
664012000,495.64365,32.0,95511.65,1.1348364
664024000,495.81012,32.0,95509.734,1.1348137
664032000,495.79163,32.0,95509.945,1.1348162
664044000,495.82068,32.0,95509.61,1.1348121
664052000,495.715,32.0,95510.81,1.1348264
664064000,495.84183,32.0,95509.36,1.1348091
664072000,495.8339,32.0,95509.445,1.1348102
664084000,495.8894,32.0,95508.83,1.1348028
664092000,495.5829,32.0,95512.336,1.1348445
664104000,495.5538,32.0,95512.66,1.1348484
664112000,495.62515,32.0,95511.836,1.1348386
664124000,495.6833,32.0,95511.17,1.1348307
664132000,495.75198,32.0,95510.39,1.1348214
664144000,495.77048,32.0,95510.195,1.1348191
664152000,495.8577,32.0,95509.18,1.1348071
664164000,495.76257,32.0,95510.27,1.1348201
664172000,495.8339,32.0,95509.47,1.1348104
664184000,495.6833,32.0,95511.17,1.1348307
664192000,495.76257,32.0,95510.27,1.1348201
664204000,495.75726,32.0,95510.336,1.1348208
664212000,495.84976,32.0,95509.266,1.1348081
664224000,495.82068,32.0,95509.61,1.1348121
664232000,495.8894,32.0,95508.83,1.1348028
664244000,495.84448,32.0,95509.35,1.1348091
664252000,495.95016,32.0,95508.13,1.1347946
664264000,495.83127,32.0,95509.49,1.1348108
664272000,495.93433,32.0,95508.33,1.134797
664284000,495.80484,32.0,95509.8,1.1348144
664292000,495.9211,32.0,95508.47,1.1347986
664304000,495.93433,32.0,95508.32,1.1347969
664312000,495.8788,32.0,95508.96,1.1348045
664324000,495.72556,32.0,95510.695,1.1348251
664332000,495.93695,32.0,95508.3,1.1347966
664344000,495.93167,32.0,95508.35,1.1347972
664352000,495.87354,32.0,95509.0,1.134805
664364000,495.94223,32.0,95508.22,1.1347957
664372000,496.01358,32.0,95507.41,1.134786
664384000,495.89203,32.0,95508.8,1.1348025
664392000,495.95282,32.0,95508.1,1.1347942
664404000,496.00037,32.0,95507.57,1.1347879
664412000,495.78107,32.0,95510.055,1.1348175
664424000,495.81805,32.0,95509.63,1.1348125
664432000,495.8154,32.0,95509.664,1.1348128
664444000,495.93167,32.0,95508.35,1.1347972
664452000,495.9079,32.0,95508.61,1.1348003
664464000,495.97922,32.0,95507.79,1.1347905
664472000,495.88675,32.0,95508.86,1.1348033
664484000,496.03207,32.0,95507.17,1.1347831
664492000,495.94223,32.0,95508.21,1.1347955
664504000,495.91318,32.0,95508.55,1.1347995
664512000,496.07965,32.0,95506.65,1.134777
664524000,496.03473,32.0,95507.16,1.134783
664532000,495.93167,32.0,95508.35,1.1347972
664544000,496.03473,32.0,95507.16,1.134783
664552000,495.89203,32.0,95508.805,1.1348026
664564000,496.01886,32.0,95507.35,1.1347853
664572000,496.0215,32.0,95507.32,1.1347849
664584000,495.91846,32.0,95508.49,1.1347989
664592000,496.07434,32.0,95506.71,1.1347777
664604000,496.10605,32.0,95506.34,1.1347734
664612000,495.98453,32.0,95507.74,1.13479
664624000,496.07172,32.0,95506.75,1.1347781
664632000,496.18005,32.0,95505.51,1.1347635
664644000,496.14307,32.0,95505.93,1.1347685
664652000,496.17477,32.0,95505.56,1.1347641
664664000,496.1404,32.0,95505.95,1.1347687
664672000,495.99243,32.0,95507.63,1.1347886
664684000,495.96603,32.0,95507.94,1.1347923
664692000,496.05322,32.0,95506.945,1.1347805
664704000,496.09814,32.0,95506.445,1.1347746
664712000,496.11664,32.0,95506.21,1.1347718
664724000,496.08228,32.0,95506.61,1.1347765
664732000,496.21176,32.0,95505.14,1.1347591
664744000,496.02945,32.0,95507.21,1.1347836
664752000,496.05322,32.0,95506.96,1.1347806
664764000,496.0268,32.0,95507.24,1.134784
664772000,496.0083,32.0,95507.46,1.1347866
664784000,496.16684,32.0,95505.64,1.134765
664792000,496.18533,32.0,95505.43,1.1347625
664812000,496.21176,32.0,95505.15,1.1347592
664824000,496.06644,32.0,95506.8,1.1347787
664832000,496.11664,32.0,95506.22,1.1347718
664852000,496.05585,32.0,95506.91,1.13478
664864000,496.22498,32.0,95504.97,1.134757
664872000,496.0585,32.0,95506.875,1.1347797
664884000,496.11926,32.0,95506.195,1.1347716
664892000,495.88675,32.0,95508.86,1.1348033
664904000,496.2197,32.0,95505.04,1.1347579
664912000,496.13248,32.0,95506.04,1.1347697
664924000,496.2699,32.0,95504.48,1.1347512
664932000,496.2276,32.0,95504.95,1.1347568
664944000,496.05585,32.0,95506.91,1.13478
664952000,496.25668,32.0,95504.62,1.1347529
664964000,496.18533,32.0,95505.44,1.1347626
664972000,496.19855,32.0,95505.29,1.1347609
664984000,496.03207,32.0,95507.18,1.1347833
664992000,496.0902,32.0,95506.516,1.1347754
665004000,496.10077,32.0,95506.4,1.134774
665012000,496.31482,32.0,95503.945,1.1347449
665024000,496.19327,32.0,95505.336,1.1347613
665032000,496.16156,32.0,95505.7,1.1347657
665044000,496.33066,32.0,95503.78,1.1347429
665052000,496.402,32.0,95502.94,1.1347328
665064000,496.25668,32.0,95504.62,1.1347529
665072000,496.08493,32.0,95506.57,1.134776
665084000,496.2514,32.0,95504.69,1.1347537
665092000,496.11398,32.0,95506.26,1.1347723
665104000,496.33594,32.0,95503.72,1.1347421
665112000,496.18005,32.0,95505.5,1.1347634
665124000,496.2646,32.0,95504.53,1.1347518
665132000,496.32272,32.0,95503.86,1.1347438
665144000,496.27518,32.0,95504.42,1.1347505
665152000,496.2699,32.0,95504.48,1.1347512
665164000,496.38086,32.0,95503.21,1.1347362
665172000,496.1589,32.0,95505.734,1.1347661
665184000,496.33066,32.0,95503.766,1.1347427
665192000,496.3571,32.0,95503.48,1.1347393
665204000,496.33594,32.0,95503.72,1.1347421
665212000,496.34915,32.0,95503.555,1.1347402
665224000,496.3571,32.0,95503.46,1.1347392
665232000,496.40994,32.0,95502.875,1.1347321
665244000,496.30423,32.0,95504.086,1.1347466
665252000,496.28046,32.0,95504.36,1.1347498
665264000,496.2831,32.0,95504.305,1.1347492
665272000,496.2831,32.0,95504.305,1.1347492
665284000,496.44693,32.0,95502.44,1.134727
665292000,496.2884,32.0,95504.26,1.1347486
665304000,496.41785,32.0,95502.79,1.1347312
665312000,496.43372,32.0,95502.6,1.1347289
665324000,496.41522,32.0,95502.8,1.1347312
665332000,496.402,32.0,95502.945,1.134733
665344000,496.3888,32.0,95503.09,1.1347347
665352000,496.3016,32.0,95504.12,1.1347469
665364000,496.2884,32.0,95504.25,1.1347485
665372000,496.2276,32.0,95504.945,1.1347567
665384000,496.23026,32.0,95504.914,1.1347563
665392000,496.4575,32.0,95502.33,1.1347257
665404000,496.22498,32.0,95504.97,1.134757
665412000,496.4205,32.0,95502.75,1.1347307
665424000,496.5024,32.0,95501.81,1.1347195
665432000,496.47598,32.0,95502.11,1.1347231
665444000,496.402,32.0,95502.94,1.1347328
665452000,496.43106,32.0,95502.63,1.1347293
665464000,496.51825,32.0,95501.62,1.1347172
665472000,496.6081,32.0,95500.6,1.1347052
665484000,496.27252,32.0,95504.445,1.1347508
665492000,496.53146,32.0,95501.484,1.1347157
665504000,496.5764,32.0,95500.96,1.1347094
665512000,496.46014,32.0,95502.27,1.134725
665532000,496.44165,32.0,95502.5,1.1347277
665544000,496.56583,32.0,95501.086,1.1347109
665552000,496.43106,32.0,95502.625,1.1347291
665564000,496.43106,32.0,95502.625,1.1347291
665572000,496.61337,32.0,95500.54,1.1347044
665584000,496.51825,32.0,95501.63,1.1347173
665592000,496.3571,32.0,95503.47,1.1347392
665604000,496.61075,32.0,95500.57,1.1347047
665612000,496.2276,32.0,95504.95,1.1347568
665624000,496.439,32.0,95502.54,1.1347282
665632000,496.45483,32.0,95502.36,1.134726
665644000,496.3835,32.0,95503.16,1.1347355
665652000,496.37823,32.0,95503.22,1.1347362
665664000,496.5077,32.0,95501.74,1.1347187
665672000,496.42313,32.0,95502.71,1.1347302
665684000,496.39407,32.0,95503.03,1.134734
665692000,496.46542,32.0,95502.22,1.1347244
665704000,496.5526,32.0,95501.23,1.1347126
665712000,496.61868,32.0,95500.484,1.1347038
665724000,496.53146,32.0,95501.47,1.1347154
665732000,496.40994,32.0,95502.875,1.1347321
665744000,496.59225,32.0,95500.79,1.1347073
665752000,496.48392,32.0,95502.01,1.1347219
665764000,496.51035,32.0,95501.73,1.1347185
665772000,496.6028,32.0,95500.65,1.1347057
665784000,496.439,32.0,95502.52,1.134728
665792000,496.48392,32.0,95502.02,1.134722
665804000,496.52618,32.0,95501.55,1.1347164
665812000,496.58167,32.0,95500.89,1.1347085
665824000,496.5526,32.0,95501.23,1.1347126
665832000,496.47864,32.0,95502.09,1.1347228
665844000,496.51562,32.0,95501.66,1.1347177
665852000,496.59753,32.0,95500.73,1.1347066
665864000,496.44955,32.0,95502.414,1.1347266
665872000,496.56848,32.0,95501.05,1.1347104
665884000,496.6821,32.0,95499.75,1.134695
665892000,496.6583,32.0,95500.01,1.134698
665904000,496.6081,32.0,95500.6,1.1347052
665912000,496.56055,32.0,95501.16,1.1347117
665924000,496.57376,32.0,95500.99,1.1347097
665932000,496.40994,32.0,95502.86,1.134732
665944000,496.6266,32.0,95500.375,1.1347024
665952000,496.5077,32.0,95501.76,1.1347189
665964000,496.6028,32.0,95500.64,1.1347055
665972000,496.4892,32.0,95501.97,1.1347214
665984000,496.51035,32.0,95501.7,1.1347182
665992000,496.6768,32.0,95499.82,1.1346959
666004000,496.58167,32.0,95500.9,1.1347086
666012000,496.61603,32.0,95500.516,1.1347041
666024000,496.7217,32.0,95499.31,1.1346898
666032000,496.64246,32.0,95500.195,1.1347003
666044000,496.6319,32.0,95500.32,1.1347017
666052000,496.55527,32.0,95501.21,1.1347123
666064000,496.69266,32.0,95499.62,1.1346934
666072000,496.74023,32.0,95499.09,1.1346872
666084000,496.69794,32.0,95499.555,1.1346927
666092000,496.67944,32.0,95499.79,1.1346955
666104000,496.6821,32.0,95499.734,1.1346948
666112000,496.64774,32.0,95500.14,1.1346997
666124000,496.6768,32.0,95499.805,1.1346956
666132000,496.6319,32.0,95500.305,1.1347016
666144000,496.70322,32.0,95499.5,1.1346921
666152000,496.83536,32.0,95498.01,1.1346743
666164000,496.72964,32.0,95499.2,1.1346885
666172000,496.61075,32.0,95500.56,1.1347047
666184000,496.5896,32.0,95500.81,1.1347077
666192000,496.61075,32.0,95500.57,1.1347047
666204000,496.62924,32.0,95500.336,1.134702
666212000,496.54996,32.0,95501.26,1.1347129
666224000,496.57904,32.0,95500.92,1.1347089
666232000,496.62396,32.0,95500.41,1.1347028
666244000,496.67944,32.0,95499.77,1.1346953
666252000,496.65567,32.0,95500.06,1.1346987
666264000,496.56055,32.0,95501.15,1.1347116
666272000,496.58167,32.0,95500.91,1.1347088
666284000,496.7323,32.0,95499.164,1.134688
666292000,496.7085,32.0,95499.45,1.1346915
666304000,496.5077,32.0,95501.74,1.1347187
666312000,496.6213,32.0,95500.445,1.1347033
666324000,496.72964,32.0,95499.2,1.1346885
666332000,496.80365,32.0,95498.36,1.1346785
666344000,496.68738,32.0,95499.68,1.1346942
666352000,496.6266,32.0,95500.375,1.1347024
666364000,496.56848,32.0,95501.05,1.1347104
666372000,496.72437,32.0,95499.26,1.1346892
666384000,496.73492,32.0,95499.13,1.1346877
666392000,496.83005,32.0,95498.06,1.1346749
666404000,496.67416,32.0,95499.836,1.134696
666412000,496.72702,32.0,95499.23,1.1346887
666424000,496.7217,32.0,95499.29,1.1346896
666432000,496.72964,32.0,95499.22,1.1346887
666444000,496.78513,32.0,95498.58,1.1346811
666452000,496.64508,32.0,95500.18,1.1347001
666464000,496.79572,32.0,95498.45,1.1346796
666472000,496.56317,32.0,95501.12,1.1347113
666484000,496.81155,32.0,95498.27,1.1346774
666492000,496.6266,32.0,95500.39,1.1347026
666504000,496.54996,32.0,95501.26,1.1347129
666512000,496.90933,32.0,95497.13,1.1346639
666524000,496.7217,32.0,95499.31,1.1346898
666532000,496.7825,32.0,95498.62,1.1346816
666544000,496.7085,32.0,95499.45,1.1346915
666552000,496.87762,32.0,95497.516,1.1346685
666564000,496.87497,32.0,95497.53,1.1346686
666572000,496.74286,32.0,95499.04,1.1346866
666584000,496.82477,32.0,95498.1,1.1346754
666592000,496.74286,32.0,95499.06,1.1346868
666604000,496.8829,32.0,95497.445,1.1346676
666612000,496.75607,32.0,95498.9,1.1346849
666624000,496.85648,32.0,95497.74,1.1346712
666632000,496.85648,32.0,95497.766,1.1346714
666644000,496.9199,32.0,95497.016,1.1346625
666652000,496.80893,32.0,95498.31,1.1346779
666664000,496.85913,32.0,95497.73,1.134671
666672000,496.7693,32.0,95498.75,1.1346831
666684000,496.653,32.0,95500.086,1.134699
666692000,496.69266,32.0,95499.625,1.1346935
666704000,496.84592,32.0,95497.87,1.1346726
666712000,496.74286,32.0,95499.06,1.1346868
666724000,496.80893,32.0,95498.31,1.1346779
666732000,496.8829,32.0,95497.46,1.1346678
666744000,496.87234,32.0,95497.586,1.1346693
666752000,496.75873,32.0,95498.87,1.1346846
666764000,496.80627,32.0,95498.336,1.1346782
666772000,496.88025,32.0,95497.48,1.134668
666784000,496.8829,32.0,95497.44,1.1346675
666792000,496.80627,32.0,95498.336,1.1346782
666804000,496.86176,32.0,95497.695,1.1346706
666812000,496.99918,32.0,95496.125,1.1346519
666824000,496.79834,32.0,95498.414,1.1346791
666832000,496.75342,32.0,95498.945,1.1346854
666844000,496.85648,32.0,95497.75,1.1346712
666852000,496.88818,32.0,95497.39,1.1346669
666864000,496.801,32.0,95498.39,1.1346788
666872000,496.77722,32.0,95498.664,1.134682
666884000,496.92255,32.0,95496.99,1.1346623
666892000,496.84064,32.0,95497.945,1.1346736
666904000,496.78778,32.0,95498.55,1.1346807
666912000,496.91727,32.0,95497.05,1.1346629
666924000,496.77985,32.0,95498.64,1.1346818
666932000,496.85385,32.0,95497.8,1.1346718
666944000,496.87762,32.0,95497.5,1.1346682
666952000,496.80893,32.0,95498.31,1.1346779
666964000,496.9701,32.0,95496.46,1.134656
666972000,496.89612,32.0,95497.305,1.134666
666984000,496.84326,32.0,95497.92,1.1346732
666992000,496.92255,32.0,95497.0,1.1346624
667004000,496.98068,32.0,95496.34,1.1346545
667012000,496.79572,32.0,95498.44,1.1346794
667024000,496.87234,32.0,95497.586,1.1346693
667032000,496.8195,32.0,95498.17,1.1346762
667044000,496.81683,32.0,95498.195,1.1346766
667052000,496.8195,32.0,95498.17,1.1346762
667064000,496.7085,32.0,95499.45,1.1346915
667072000,497.0124,32.0,95495.97,1.1346501
667084000,496.9648,32.0,95496.5,1.1346564
667092000,496.8697,32.0,95497.62,1.1346697
667104000,496.9331,32.0,95496.86,1.1346607
667112000,496.86707,32.0,95497.64,1.1346699
667124000,497.01767,32.0,95495.914,1.1346494
667132000,496.81155,32.0,95498.26,1.1346773
667144000,496.9648,32.0,95496.52,1.1346567
667152000,496.84854,32.0,95497.86,1.1346725
667172000,496.83005,32.0,95498.06,1.1346749
667184000,496.90933,32.0,95497.14,1.134664
667192000,496.74814,32.0,95498.984,1.1346859
667204000,496.83005,32.0,95498.06,1.1346749
667212000,496.95688,32.0,95496.61,1.1346577
667224000,496.86707,32.0,95497.63,1.1346699
667232000,496.98596,32.0,95496.27,1.1346537
667244000,497.05466,32.0,95495.49,1.1346444
667252000,496.98068,32.0,95496.32,1.1346543
667264000,496.9384,32.0,95496.805,1.13466
667272000,496.95688,32.0,95496.61,1.1346577
667284000,496.9014,32.0,95497.23,1.134665
667292000,496.9701,32.0,95496.44,1.1346556
667304000,496.72437,32.0,95499.26,1.1346892
667312000,496.9648,32.0,95496.516,1.1346565
667324000,496.9146,32.0,95497.086,1.1346633
667332000,496.9701,32.0,95496.445,1.1346557
667344000,496.95953,32.0,95496.58,1.1346573
667352000,496.9701,32.0,95496.44,1.1346556
667364000,496.90933,32.0,95497.16,1.1346642
667372000,496.84854,32.0,95497.836,1.1346723
667384000,496.98068,32.0,95496.33,1.1346544
667392000,496.9701,32.0,95496.445,1.1346557
667404000,497.02295,32.0,95495.84,1.1346486
667412000,497.0124,32.0,95495.97,1.1346501
667424000,496.9833,32.0,95496.305,1.134654
667432000,496.8644,32.0,95497.67,1.1346704
667444000,496.90668,32.0,95497.17,1.1346644
667452000,497.09164,32.0,95495.08,1.1346395
667464000,497.0018,32.0,95496.08,1.1346514
667472000,496.9886,32.0,95496.25,1.1346534
667484000,496.98596,32.0,95496.26,1.1346536
667492000,496.90405,32.0,95497.22,1.1346649
667504000,496.7006,32.0,95499.54,1.1346925
667512000,497.052,32.0,95495.51,1.1346446
667524000,497.10486,32.0,95494.91,1.1346375
667532000,496.89084,32.0,95497.36,1.1346666
667544000,497.00446,32.0,95496.055,1.1346511
667552000,496.9014,32.0,95497.24,1.1346653
667564000,497.02823,32.0,95495.77,1.1346477
667572000,496.95425,32.0,95496.625,1.1346579
667584000,497.10486,32.0,95494.92,1.1346376
667592000,497.0705,32.0,95495.3,1.1346421
667604000,497.00974,32.0,95495.984,1.1346502
667612000,497.0441,32.0,95495.62,1.1346459
667624000,497.00974,32.0,95495.99,1.1346503
667632000,497.08902,32.0,95495.1,1.1346397
667644000,496.9886,32.0,95496.25,1.1346534
667652000,496.97803,32.0,95496.375,1.1346549
667664000,496.99124,32.0,95496.2,1.1346529
667672000,496.79044,32.0,95498.51,1.1346803
667684000,497.03616,32.0,95495.69,1.1346468
667692000,496.94104,32.0,95496.77,1.1346596
667704000,496.89877,32.0,95497.27,1.1346656
667712000,497.06787,32.0,95495.34,1.1346426
667724000,496.88556,32.0,95497.41,1.1346672
667732000,497.09958,32.0,95494.96,1.1346381
667744000,497.0943,32.0,95495.05,1.1346391
667752000,497.11807,32.0,95494.766,1.1346358
667764000,496.98596,32.0,95496.27,1.1346537
667772000,497.19205,32.0,95493.91,1.1346256
667784000,496.84854,32.0,95497.85,1.1346724
667792000,496.93576,32.0,95496.84,1.1346605
667804000,497.11014,32.0,95494.84,1.1346368
667812000,497.0626,32.0,95495.4,1.1346433
667824000,497.0626,32.0,95495.38,1.1346431
667832000,497.04144,32.0,95495.65,1.1346463
667844000,497.13922,32.0,95494.51,1.1346327
667852000,497.0943,32.0,95495.05,1.1346391
667864000,497.07315,32.0,95495.27,1.1346418
667872000,497.0335,32.0,95495.72,1.1346471
667884000,496.87234,32.0,95497.57,1.1346691
667892000,496.93048,32.0,95496.914,1.1346613
667904000,496.9014,32.0,95497.25,1.1346653
667912000,496.97275,32.0,95496.414,1.1346554
667924000,496.97803,32.0,95496.375,1.1346549
667932000,497.0441,32.0,95495.62,1.1346459
667944000,497.04672,32.0,95495.58,1.1346455
667952000,497.02295,32.0,95495.86,1.1346488
667964000,496.77194,32.0,95498.73,1.1346829
667972000,497.05466,32.0,95495.47,1.1346442
667984000,496.96747,32.0,95496.484,1.1346562
667992000,497.13922,32.0,95494.53,1.134633
668004000,497.052,32.0,95495.52,1.1346447
668012000,497.0758,32.0,95495.24,1.1346414
668024000,497.0705,32.0,95495.29,1.134642
668032000,497.08636,32.0,95495.13,1.1346401
668044000,497.16562,32.0,95494.21,1.1346292
668052000,497.09164,32.0,95495.06,1.1346393
668064000,497.18942,32.0,95493.945,1.134626
668072000,497.1947,32.0,95493.87,1.1346251
668084000,497.14978,32.0,95494.41,1.1346315
668092000,497.18677,32.0,95493.98,1.1346264
668104000,497.05466,32.0,95495.48,1.1346443
668112000,497.0758,32.0,95495.24,1.1346414
668124000,497.08902,32.0,95495.09,1.1346397
668132000,497.17883,32.0,95494.07,1.1346276
668144000,496.9886,32.0,95496.25,1.1346534
668152000,497.18942,32.0,95493.93,1.1346259
668164000,497.12335,32.0,95494.71,1.1346351
668172000,497.0758,32.0,95495.24,1.1346414
668184000,497.19205,32.0,95493.9,1.1346254
668192000,497.08636,32.0,95495.125,1.1346401
668212000,497.16562,32.0,95494.21,1.1346292
668224000,497.2317,32.0,95493.45,1.1346202
668232000,497.10486,32.0,95494.91,1.1346375
668244000,497.19733,32.0,95493.84,1.1346248
668252000,497.09958,32.0,95494.96,1.1346381
668264000,496.93576,32.0,95496.836,1.1346604
668272000,497.15506,32.0,95494.35,1.1346309
668284000,497.24225,32.0,95493.34,1.1346189
668292000,497.0441,32.0,95495.61,1.1346458
668304000,497.21585,32.0,95493.625,1.1346222
668312000,496.99652,32.0,95496.13,1.134652
668324000,497.25284,32.0,95493.2,1.1346172
668332000,497.09164,32.0,95495.08,1.1346395
668344000,497.04672,32.0,95495.56,1.1346452
668352000,497.0573,32.0,95495.46,1.134644
668364000,497.16562,32.0,95494.21,1.1346292
668372000,497.0335,32.0,95495.734,1.1346473
668384000,497.25284,32.0,95493.2,1.1346172
668392000,496.8829,32.0,95497.44,1.1346675
668404000,497.0573,32.0,95495.44,1.1346438
668412000,497.09164,32.0,95495.06,1.1346393
668424000,497.3136,32.0,95492.52,1.1346091
668432000,497.12073,32.0,95494.734,1.1346354
668444000,497.18942,32.0,95493.93,1.1346259
668452000,497.23697,32.0,95493.39,1.1346195
668464000,497.1947,32.0,95493.89,1.1346254
668472000,497.09958,32.0,95494.984,1.1346384
668484000,497.25546,32.0,95493.18,1.134617
668492000,497.1339,32.0,95494.56,1.1346334
668504000,497.14713,32.0,95494.44,1.1346319
668512000,497.10486,32.0,95494.91,1.1346375
668524000,497.30038,32.0,95492.664,1.1346108
668532000,497.18414,32.0,95494.016,1.1346269
668544000,497.0388,32.0,95495.664,1.1346464
668552000,497.06787,32.0,95495.34,1.1346426
668564000,497.2449,32.0,95493.31,1.1346185
668572000,497.23434,32.0,95493.43,1.13462
668584000,497.1577,32.0,95494.31,1.1346304
668592000,497.1445,32.0,95494.45,1.1346321
668604000,497.22375,32.0,95493.54,1.1346213
668612000,497.24225,32.0,95493.34,1.1346189
668624000,497.1762,32.0,95494.11,1.1346279
668632000,497.04144,32.0,95495.63,1.134646
668644000,497.2132,32.0,95493.67,1.1346228
668652000,497.13922,32.0,95494.51,1.1346327
668664000,497.13657,32.0,95494.54,1.1346331
668672000,497.31888,32.0,95492.45,1.1346083
668684000,497.03088,32.0,95495.74,1.1346474
668692000,497.24756,32.0,95493.266,1.1346179
668704000,497.2449,32.0,95493.29,1.1346183
668712000,497.27133,32.0,95493.01,1.134615
668724000,497.2634,32.0,95493.09,1.1346159
668732000,497.20792,32.0,95493.734,1.1346235
668744000,497.23697,32.0,95493.39,1.1346195
668752000,497.23434,32.0,95493.43,1.13462
668764000,497.15244,32.0,95494.37,1.134631
668772000,497.34268,32.0,95492.17,1.1346049
668784000,497.21054,32.0,95493.695,1.134623
668792000,497.3321,32.0,95492.305,1.1346066
668804000,497.3136,32.0,95492.51,1.134609
668812000,497.20792,32.0,95493.72,1.1346234
668824000,497.11542,32.0,95494.8,1.1346362
668832000,497.18414,32.0,95494.016,1.1346269
668844000,497.26074,32.0,95493.125,1.1346163
668852000,497.23697,32.0,95493.4,1.1346196
668864000,497.18414,32.0,95494.01,1.1346267
668872000,497.18942,32.0,95493.93,1.1346259
668884000,497.18414,32.0,95494.016,1.1346269
668892000,497.1022,32.0,95494.95,1.1346381
668904000,497.11014,32.0,95494.85,1.1346368
668912000,497.18414,32.0,95494.016,1.1346269
668924000,497.2819,32.0,95492.87,1.1346133
668932000,497.30832,32.0,95492.56,1.1346096
668944000,497.2449,32.0,95493.29,1.1346183
668952000,497.26074,32.0,95493.13,1.1346164
668964000,497.20264,32.0,95493.78,1.1346241
668972000,497.22903,32.0,95493.484,1.1346205
668984000,497.2819,32.0,95492.87,1.1346133
668992000,497.14713,32.0,95494.43,1.1346318
669004000,497.27927,32.0,95492.9,1.1346136
669012000,497.21054,32.0,95493.71,1.1346233
669024000,497.17355,32.0,95494.125,1.1346282
669032000,497.40872,32.0,95491.42,1.1345961
669044000,497.3506,32.0,95492.1,1.1346041
669052000,497.27927,32.0,95492.9,1.1346136
669064000,497.2766,32.0,95492.945,1.1346141
669072000,497.29245,32.0,95492.77,1.1346121
669084000,497.26074,32.0,95493.125,1.1346163
669092000,497.2634,32.0,95493.09,1.1346159
669104000,497.26074,32.0,95493.13,1.1346164
669112000,497.2264,32.0,95493.52,1.134621
669124000,497.4008,32.0,95491.52,1.1345973
669132000,497.21848,32.0,95493.61,1.1346221
669144000,497.12335,32.0,95494.695,1.134635
669152000,497.1947,32.0,95493.87,1.1346251
669164000,497.15506,32.0,95494.34,1.1346308
669172000,497.31097,32.0,95492.55,1.1346095
669184000,497.19205,32.0,95493.91,1.1346256
669192000,497.2951,32.0,95492.734,1.1346116
669204000,497.0441,32.0,95495.59,1.1346456
669212000,497.2317,32.0,95493.45,1.1346202
669224000,497.13922,32.0,95494.53,1.134633
669232000,497.22375,32.0,95493.53,1.1346211
669244000,497.23434,32.0,95493.414,1.1346197
669252000,497.23434,32.0,95493.43,1.13462
669264000,497.29245,32.0,95492.76,1.134612
669272000,497.28983,32.0,95492.79,1.1346123
669284000,497.1947,32.0,95493.875,1.1346252
669292000,497.126,32.0,95494.66,1.1346345
669304000,497.3506,32.0,95492.11,1.1346042
669312000,497.36646,32.0,95491.92,1.134602
669324000,497.19733,32.0,95493.84,1.1346248
669332000,497.4061,32.0,95491.46,1.1345965
669344000,497.27133,32.0,95493.01,1.134615
669352000,497.09692,32.0,95495.016,1.1346388
669364000,497.126,32.0,95494.67,1.1346346
669372000,497.4008,32.0,95491.516,1.1345972
669384000,497.20792,32.0,95493.72,1.1346234
669392000,497.21585,32.0,95493.625,1.1346222
669404000,497.37967,32.0,95491.766,1.1346002
669412000,497.21585,32.0,95493.625,1.1346222
669424000,497.28455,32.0,95492.86,1.1346132
669432000,497.32416,32.0,95492.39,1.1346076
669444000,497.3506,32.0,95492.11,1.1346042
669452000,497.1762,32.0,95494.11,1.1346279
669464000,497.19205,32.0,95493.914,1.1346257
669472000,497.25018,32.0,95493.234,1.1346176
669484000,497.2449,32.0,95493.31,1.1346185
669492000,497.2951,32.0,95492.72,1.1346115
669504000,497.28455,32.0,95492.84,1.1346129
669512000,497.29776,32.0,95492.69,1.1346111
669524000,497.30832,32.0,95492.58,1.1346098
669532000,497.26605,32.0,95493.06,1.1346155
669544000,497.1577,32.0,95494.32,1.1346304
669552000,497.37967,32.0,95491.766,1.1346002
669564000,497.414,32.0,95491.375,1.1345955
669572000,497.36646,32.0,95491.91,1.1346018
669584000,497.21585,32.0,95493.625,1.1346222
669592000,497.22113,32.0,95493.56,1.1346215
669604000,497.31097,32.0,95492.53,1.1346092
669612000,497.4695,32.0,95490.734,1.1345879
669624000,497.30566,32.0,95492.62,1.1346103
669632000,497.44836,32.0,95490.99,1.134591
669644000,497.25018,32.0,95493.25,1.1346178
669652000,497.42987,32.0,95491.195,1.1345934
669664000,497.16562,32.0,95494.21,1.1346292
669672000,497.37967,32.0,95491.766,1.1346002
669684000,497.29776,32.0,95492.695,1.1346111
669692000,497.32416,32.0,95492.4,1.1346077
669704000,497.38495,32.0,95491.71,1.1345994
669712000,497.25546,32.0,95493.18,1.134617
669724000,497.27927,32.0,95492.92,1.1346139
669732000,497.43515,32.0,95491.125,1.1345925
669744000,497.28455,32.0,95492.836,1.1346129
669752000,497.30832,32.0,95492.58,1.1346098
669764000,497.2634,32.0,95493.09,1.1346159
669772000,497.26074,32.0,95493.13,1.1346164
669784000,497.36646,32.0,95491.914,1.134602
669792000,497.32416,32.0,95492.4,1.1346077
669804000,497.26605,32.0,95493.055,1.1346154
669812000,497.2132,32.0,95493.66,1.1346226
669824000,497.31625,32.0,95492.5,1.1346089
669832000,497.39816,32.0,95491.55,1.1345975
669844000,497.24225,32.0,95493.32,1.1346186
669852000,497.48007,32.0,95490.6,1.1345863
669864000,497.34003,32.0,95492.2,1.1346053
669872000,497.31097,32.0,95492.555,1.1346095
669884000,497.30038,32.0,95492.67,1.1346109
669892000,497.25284,32.0,95493.2,1.1346172
669904000,497.3506,32.0,95492.086,1.134604
669912000,497.18677,32.0,95493.96,1.1346263
669924000,497.14185,32.0,95494.48,1.1346323
669932000,497.30566,32.0,95492.61,1.1346102
669944000,497.44308,32.0,95491.05,1.1345916
669952000,497.33737,32.0,95492.24,1.1346058
669964000,497.32153,32.0,95492.42,1.1346079
669972000,497.35587,32.0,95492.03,1.1346033
669984000,497.11807,32.0,95494.766,1.1346358
669992000,497.36118,32.0,95491.97,1.1346025
670004000,497.41928,32.0,95491.31,1.1345948
670012000,497.24225,32.0,95493.33,1.1346188
670024000,497.39288,32.0,95491.62,1.1345984
670032000,497.37967,32.0,95491.766,1.1346002
670044000,497.16034,32.0,95494.29,1.1346301
670052000,497.17355,32.0,95494.12,1.134628
670064000,497.2951,32.0,95492.73,1.1346116
670072000,497.23962,32.0,95493.375,1.1346192
670084000,497.08902,32.0,95495.1,1.1346397
670092000,497.39288,32.0,95491.62,1.1345984
670104000,497.28455,32.0,95492.84,1.1346129
670112000,497.41666,32.0,95491.336,1.134595
670124000,497.28717,32.0,95492.83,1.1346128
670132000,497.3506,32.0,95492.09,1.1346041
670144000,497.2819,32.0,95492.875,1.1346133
670152000,497.33737,32.0,95492.25,1.1346059
670164000,497.22375,32.0,95493.53,1.1346211
670172000,497.25018,32.0,95493.25,1.1346178
670184000,497.49857,32.0,95490.414,1.1345841
670192000,497.4008,32.0,95491.53,1.1345973
670204000,497.25546,32.0,95493.18,1.134617
670212000,497.23962,32.0,95493.375,1.1346192
670224000,497.52762,32.0,95490.055,1.1345798
670232000,497.2766,32.0,95492.945,1.1346141
670244000,497.46158,32.0,95490.836,1.1345891
670252000,497.32947,32.0,95492.35,1.1346071
670264000,497.21848,32.0,95493.61,1.1346221
670272000,497.41138,32.0,95491.39,1.1345956
670284000,497.31888,32.0,95492.45,1.1346083
670292000,497.2132,32.0,95493.67,1.1346228
670304000,497.377,32.0,95491.8,1.1346005
670312000,497.36646,32.0,95491.91,1.1346018
670332000,497.33737,32.0,95492.26,1.134606
670344000,497.34796,32.0,95492.12,1.1346043
670352000,497.18414,32.0,95494.01,1.1346267
670364000,497.3506,32.0,95492.1,1.1346041
670372000,497.4748,32.0,95490.68,1.1345873
670384000,497.39288,32.0,95491.6,1.1345981
670392000,497.4827,32.0,95490.57,1.134586
670404000,497.2449,32.0,95493.29,1.1346183
670412000,497.38757,32.0,95491.67,1.134599
670424000,497.39023,32.0,95491.64,1.1345986
670432000,497.16562,32.0,95494.2,1.1346291
670444000,497.23434,32.0,95493.43,1.13462
670452000,497.32416,32.0,95492.4,1.1346077
670464000,497.3268,32.0,95492.37,1.1346073
670472000,497.46158,32.0,95490.836,1.1345891
670484000,497.41928,32.0,95491.32,1.1345948
670492000,497.27927,32.0,95492.92,1.1346139
670504000,497.41666,32.0,95491.33,1.1345949
670512000,497.4563,32.0,95490.89,1.1345898
670524000,497.47214,32.0,95490.71,1.1345876
670532000,497.3321,32.0,95492.31,1.1346066
670544000,497.46158,32.0,95490.82,1.134589
670552000,497.44836,32.0,95490.99,1.134591
670564000,497.43515,32.0,95491.125,1.1345925
670572000,497.47214,32.0,95490.71,1.1345876
670584000,497.30038,32.0,95492.664,1.1346108
670592000,497.4378,32.0,95491.11,1.1345923
670604000,497.3321,32.0,95492.31,1.1346066
670612000,497.45364,32.0,95490.914,1.13459
670624000,497.414,32.0,95491.375,1.1345955
670632000,497.4457,32.0,95491.02,1.1345913
670644000,497.4563,32.0,95490.88,1.1345897
670652000,497.2819,32.0,95492.88,1.1346134
670664000,497.39023,32.0,95491.64,1.1345986
670672000,497.35324,32.0,95492.055,1.1346036
670684000,497.37173,32.0,95491.86,1.1346012
670692000,497.47742,32.0,95490.63,1.1345867
670704000,497.30832,32.0,95492.56,1.1346096
670712000,497.31888,32.0,95492.45,1.1346083
670724000,497.38495,32.0,95491.72,1.1345996
670732000,497.49857,32.0,95490.414,1.1345841
670744000,497.36646,32.0,95491.914,1.134602
670752000,497.4378,32.0,95491.1,1.1345923
670764000,497.4008,32.0,95491.52,1.1345973
670772000,497.414,32.0,95491.375,1.1345955
670784000,497.59634,32.0,95489.27,1.1345705
670792000,497.4827,32.0,95490.586,1.1345861
670804000,497.36908,32.0,95491.87,1.1346014
670812000,497.49857,32.0,95490.414,1.1345841
670824000,497.42722,32.0,95491.23,1.1345937
670832000,497.35587,32.0,95492.03,1.1346033
670844000,497.39816,32.0,95491.56,1.1345978
670852000,497.3506,32.0,95492.1,1.1346041
670864000,497.4748,32.0,95490.69,1.1345873
670872000,497.39288,32.0,95491.62,1.1345984
670884000,497.4642,32.0,95490.79,1.1345885
670892000,497.41928,32.0,95491.32,1.1345948
670904000,497.33737,32.0,95492.26,1.134606
670912000,497.53555,32.0,95489.97,1.1345788
670924000,497.41928,32.0,95491.305,1.1345947
670932000,497.41928,32.0,95491.3,1.1345946
670952000,497.41666,32.0,95491.336,1.134595
670964000,497.38495,32.0,95491.72,1.1345996
670972000,497.35324,32.0,95492.06,1.1346036
670984000,497.46686,32.0,95490.766,1.1345882
670992000,497.34003,32.0,95492.23,1.1346056
671004000,497.57254,32.0,95489.55,1.1345738
671012000,497.40872,32.0,95491.42,1.1345961
671024000,497.30832,32.0,95492.586,1.1346099
671032000,497.28983,32.0,95492.79,1.1346123
671044000,497.4325,32.0,95491.16,1.1345929
671052000,497.41138,32.0,95491.41,1.1345959
671064000,497.5884,32.0,95489.38,1.1345718
671072000,497.43515,32.0,95491.14,1.1345928
671084000,497.451,32.0,95490.94,1.1345903
671092000,497.52762,32.0,95490.055,1.1345798
