timestamp,time_utc_usec,lat,lon,alt,alt_ellipsoid,s_variance_m_s,c_variance_rad,eph,epv,hdop,vdop,noise_per_ms,jamming_indicator,vel_m_s,vel_n_m_s,vel_e_m_s,vel_d_m_s,cog_rad,timestamp_time_relative,heading,heading_offset,fix_type,vel_ned_valid,satellites_used
657168000,0,473977509,85456065,488104,0,0.25,0.0,1.0,1.0,0.0,0.0,0,0,0.0,0.01,0.01,0.0,0.9747377,0,nan,nan,3,0,10
657368000,0,473977509,85456065,488099,0,0.25,0.0,1.0,1.0,0.0,0.0,0,0,0.0,-0.02,-0.01,-0.02,3.8027859,0,nan,nan,3,0,10
657568000,0,473977509,85456065,488104,0,0.25,0.0,1.0,1.0,0.0,0.0,0,0,0.0,-0.03,0.0,0.0,3.011128,0,nan,nan,3,0,10
657768000,0,473977510,85456065,488109,0,0.25,0.0,1.0,1.0,0.0,0.0,0,0,0.0,0.0,0.0,0.02,0.39094225,0,nan,nan,3,0,10
657968000,0,473977509,85456065,488123,0,0.25,0.0,1.0,1.0,0.0,0.0,0,0,0.02,-0.03,0.02,-0.26,2.4121485,0,nan,nan,3,0,10
658168000,0,473977509,85456065,488241,0,0.25,0.0,1.0,1.0,0.0,0.0,0,0,0.06,0.0,0.049999997,-0.85999995,1.664297,0,nan,nan,3,0,10
658368000,0,473977509,85456068,488499,0,0.25,0.0,1.0,1.0,0.0,0.0,0,0,0.06,-0.01,0.049999997,-1.53,1.8114239,0,nan,nan,3,0,10
658568000,0,473977509,85456070,488847,0,0.25,0.0,1.0,1.0,0.0,0.0,0,0,0.06,0.0,0.08,-1.91,1.48942,0,nan,nan,3,0,10
658768000,0,473977509,85456072,489227,0,0.25,0.0,1.0,1.0,0.0,0.0,0,0,0.049999997,-0.01,0.049999997,-1.76,1.8011267,0,nan,nan,3,0,10
658968000,0,473977509,85456073,489585,0,0.25,0.0,1.0,1.0,0.0,0.0,0,0,0.04,-0.02,0.02,-1.73,2.274795,0,nan,nan,3,0,10
659168000,0,473977508,85456074,489923,0,0.25,0.0,1.0,1.0,0.0,0.0,0,0,0.03,-0.02,0.04,-1.7099999,2.0259185,0,nan,nan,3,0,10
659368000,0,473977508,85456075,490272,0,0.25,0.0,1.0,1.0,0.0,0.0,0,0,0.02,-0.01,0.0,-1.65,2.8622556,0,nan,nan,3,0,10
659568000,0,473977508,85456075,490618,0,0.25,0.0,1.0,1.0,0.0,0.0,0,0,0.02,-0.02,0.01,-1.67,2.6257706,0,nan,nan,3,0,10
659768000,0,473977508,85456075,490942,0,0.25,0.0,1.0,1.0,0.0,0.0,0,0,0.02,0.0,0.02,-1.64,1.8658766,0,nan,nan,3,0,10
659968000,0,473977507,85456076,491268,0,0.25,0.0,1.0,1.0,0.0,0.0,0,0,0.02,-0.02,0.02,-1.5899999,2.4044693,0,nan,nan,3,0,10
660168000,0,473977507,85456076,491607,0,0.25,0.0,1.0,1.0,0.0,0.0,0,0,0.02,0.0,0.03,-1.5699999,1.815438,0,nan,nan,3,0,10
660368000,0,473977506,85456076,491923,0,0.25,0.0,1.0,1.0,0.0,0.0,0,0,0.03,-0.01,0.01,-1.54,2.4959219,0,nan,nan,3,0,10
660568000,0,473977505,85456076,492242,0,0.25,0.0,1.0,1.0,0.0,0.0,0,0,0.03,-0.02,0.0,-1.52,3.4064333,0,nan,nan,3,0,10
660768000,0,473977505,85456075,492563,0,0.25,0.0,1.0,1.0,0.0,0.0,0,0,0.03,-0.049999997,0.0,-1.56,3.2725704,0,nan,nan,3,0,10
660968000,0,473977504,85456075,492879,0,0.25,0.0,1.0,1.0,0.0,0.0,0,0,0.04,0.0,-0.03,-1.51,4.5967126,0,nan,nan,3,0,10
661168000,0,473977503,85456074,493196,0,0.25,0.0,1.0,1.0,0.0,0.0,0,0,0.04,-0.02,0.0,-1.55,3.351457,0,nan,nan,3,0,10
661368000,0,473977503,85456073,493504,0,0.25,0.0,1.0,1.0,0.0,0.0,0,0,0.04,-0.02,-0.03,-1.4699999,4.157601,0,nan,nan,3,0,10
661568000,0,473977501,85456073,493782,0,0.25,0.0,1.0,1.0,0.0,0.0,0,0,0.049999997,-0.01,-0.03,-1.3399999,4.271393,0,nan,nan,3,0,10
661868000,0,473977501,85456072,494057,0,0.25,0.0,1.0,1.0,0.0,0.0,0,0,0.049999997,-0.03,-0.03,-1.23,3.821984,0,nan,nan,3,0,10
662068000,0,473977501,85456070,494307,0,0.25,0.0,1.0,1.0,0.0,0.0,0,0,0.06,-0.04,-0.03,-1.24,3.7219796,0,nan,nan,3,0,10
662268000,0,473977500,85456069,494545,0,0.25,0.0,1.0,1.0,0.0,0.0,0,0,0.06,-0.03,-0.03,-1.12,3.9963372,0,nan,nan,3,0,10
662468000,0,473977500,85456067,494760,0,0.25,0.0,1.0,1.0,0.0,0.0,0,0,0.06,-0.04,-0.06,-1.04,4.0263557,0,nan,nan,3,0,10
662668000,0,473977499,85456066,494981,0,0.25,0.0,1.0,1.0,0.0,0.0,0,0,0.06,-0.04,-0.06,-0.95,4.133516,0,nan,nan,3,0,10
662868000,0,473977498,85456065,495182,0,0.25,0.0,1.0,1.0,0.0,0.0,0,0,0.06,-0.01,-0.07,-0.91999996,4.535628,0,nan,nan,3,0,10
663068000,0,473977498,85456062,495373,0,0.25,0.0,1.0,1.0,0.0,0.0,0,0,0.06,-0.02,-0.04,-0.81,4.1500964,0,nan,nan,3,0,10
663268000,0,473977498,85456060,495532,0,0.25,0.0,1.0,1.0,0.0,0.0,0,0,0.06,-0.03,-0.06,-0.74,4.2722654,0,nan,nan,3,0,10
663468000,0,473977498,85456059,495691,0,0.25,0.0,1.0,1.0,0.0,0.0,0,0,0.06,0.0,-0.02,-0.75,4.5656466,0,nan,nan,3,0,10
663668000,0,473977497,85456058,495836,0,0.25,0.0,1.0,1.0,0.0,0.0,0,0,0.049999997,0.0,-0.049999997,-0.66999996,4.720802,0,nan,nan,3,0,10
663868000,0,473977497,85456057,495979,0,0.25,0.0,1.0,1.0,0.0,0.0,0,0,0.049999997,0.0,-0.04,-0.68,4.8066697,0,nan,nan,3,0,10
664068000,0,473977497,85456056,496097,0,0.25,0.0,1.0,1.0,0.0,0.0,0,0,0.04,0.01,-0.049999997,-0.59999996,5.024306,0,nan,nan,3,0,10
664268000,0,473977498,85456054,496223,0,0.25,0.0,1.0,1.0,0.0,0.0,0,0,0.04,0.0,-0.04,-0.61,4.6721087,0,nan,nan,3,0,10
664468000,0,473977498,85456052,496341,0,0.25,0.0,1.0,1.0,0.0,0.0,0,0,0.04,-0.01,-0.04,-0.53,4.468435,0,nan,nan,3,0,10
664668000,0,473977498,85456051,496447,0,0.25,0.0,1.0,1.0,0.0,0.0,0,0,0.03,0.0,-0.049999997,-0.51,4.8148727,0,nan,nan,3,0,10
664868000,0,473977498,85456051,496548,0,0.25,0.0,1.0,1.0,0.0,0.0,0,0,0.03,0.03,-0.02,-0.51,5.6805305,0,nan,nan,3,0,10
665068000,0,473977499,85456050,496641,0,0.25,0.0,1.0,1.0,0.0,0.0,0,0,0.03,0.03,-0.02,-0.48,5.637422,0,nan,nan,3,0,10
665268000,0,473977499,85456049,496734,0,0.25,0.0,1.0,1.0,0.0,0.0,0,0,0.03,0.049999997,0.0,-0.47,6.279684,0,nan,nan,3,0,10
665468000,0,473977500,85456049,496818,0,0.25,0.0,1.0,1.0,0.0,0.0,0,0,0.04,0.01,-0.02,-0.39,5.248225,0,nan,nan,3,0,10
665668000,0,473977500,85456049,496897,0,0.25,0.0,1.0,1.0,0.0,0.0,0,0,0.04,0.07,0.0,-0.37,0.030193307,0,nan,nan,3,0,10
665868000,0,473977501,85456049,496967,0,0.25,0.0,1.0,1.0,0.0,0.0,0,0,0.04,0.04,0.0,-0.32,6.197307,0,nan,nan,3,0,10
666068000,0,473977502,85456049,497041,0,0.25,0.0,1.0,1.0,0.0,0.0,0,0,0.04,0.049999997,0.0,-0.37,6.19626,0,nan,nan,3,0,10
666268000,0,473977503,85456049,497099,0,0.25,0.0,1.0,1.0,0.0,0.0,0,0,0.04,0.04,0.02,-0.32,0.43265438,0,nan,nan,3,0,10
666468000,0,473977504,85456049,497153,0,0.25,0.0,1.0,1.0,0.0,0.0,0,0,0.04,0.03,0.0,-0.28,0.08499503,0,nan,nan,3,0,10
666668000,0,473977505,85456049,497213,0,0.25,0.0,1.0,1.0,0.0,0.0,0,0,0.04,0.02,0.01,-0.24,0.5363239,0,nan,nan,3,0,10
666968000,0,473977506,85456050,497264,0,0.25,0.0,1.0,1.0,0.0,0.0,0,0,0.04,0.03,0.01,-0.22999999,0.3303811,0,nan,nan,3,0,10
667168000,0,473977506,85456051,497308,0,0.25,0.0,1.0,1.0,0.0,0.0,0,0,0.04,0.03,0.049999997,-0.26999998,1.0574639,0,nan,nan,3,0,10
667368000,0,473977507,85456052,497367,0,0.25,0.0,1.0,1.0,0.0,0.0,0,0,0.04,0.03,0.01,-0.26,0.4497581,0,nan,nan,3,0,10
667568000,0,473977507,85456052,497414,0,0.25,0.0,1.0,1.0,0.0,0.0,0,0,0.04,-0.01,-0.03,-0.25,4.2068176,0,nan,nan,3,0,10
667768000,0,473977505,85456047,497464,0,0.25,0.0,1.0,1.0,0.0,0.0,0,0,0.41,-0.26,-0.34,-0.24,4.0534077,0,nan,nan,3,0,10
667968000,0,473977497,85456032,497508,0,0.25,0.0,1.0,1.0,0.0,0.0,0,0,1.0,-0.59999996,-0.77,-0.19,4.05079,0,nan,nan,3,0,10
668168000,0,473977483,85456003,497551,0,0.25,0.0,1.0,1.0,0.0,0.0,0,0,1.5799999,-0.97999996,-1.27,-0.14999999,4.0560255,0,nan,nan,3,0,10
668368000,0,473977462,85455963,497590,0,0.25,0.0,1.0,1.0,0.0,0.0,0,0,2.09,-1.27,-1.6999999,-0.12,4.0685916,0,nan,nan,3,0,10
668568000,0,473977435,85455912,497625,0,0.25,0.0,1.0,1.0,0.0,0.0,0,0,2.57,-1.56,-2.03,-0.14,4.0575967,0,nan,nan,3,0,10
668768000,0,473977404,85455852,497653,0,0.25,0.0,1.0,1.0,0.0,0.0,0,0,3.0,-1.8299999,-2.3799999,-0.17,4.056549,0,nan,nan,3,0,10
668968000,0,473977369,85455785,497671,0,0.25,0.0,1.0,1.0,0.0,0.0,0,0,3.3799999,-2.05,-2.6599998,-0.099999994,4.055153,0,nan,nan,3,0,10
669168000,0,473977328,85455707,497698,0,0.25,0.0,1.0,1.0,0.0,0.0,0,0,3.72,-2.31,-2.9199998,-0.089999996,4.0411906,0,nan,nan,3,0,10
669368000,0,473977284,85455624,497719,0,0.25,0.0,1.0,1.0,0.0,0.0,0,0,3.97,-2.49,-3.09,-0.06,4.032988,0,nan,nan,3,0,10
669568000,0,473977238,85455540,497733,0,0.25,0.0,1.0,1.0,0.0,0.0,0,0,4.0499997,-2.55,-3.1399999,-0.02,4.028625,0,nan,nan,3,0,10
669768000,0,473977192,85455455,497743,0,0.25,0.0,1.0,1.0,0.0,0.0,0,0,3.97,-2.51,-3.09,-0.089999996,4.0301957,0,nan,nan,3,0,10
669968000,0,473977145,85455371,497764,0,0.25,0.0,1.0,1.0,0.0,0.0,0,0,3.85,-2.45,-2.96,-0.12,4.0212946,0,nan,nan,3,0,10
670168000,0,473977100,85455291,497790,0,0.25,0.0,1.0,1.0,0.0,0.0,0,0,3.82,-2.45,-2.9299998,-0.12,4.0158844,0,nan,nan,3,0,10
670368000,0,473977055,85455211,497815,0,0.25,0.0,1.0,1.0,0.0,0.0,0,0,3.82,-2.4199998,-2.9399998,-0.16,4.0242615,0,nan,nan,3,0,10
670568000,0,473977012,85455133,497842,0,0.25,0.0,1.0,1.0,0.0,0.0,0,0,3.79,-2.3899999,-2.9299998,-0.17,4.0281014,0,nan,nan,3,0,10
670768000,0,473976968,85455053,497865,0,0.25,0.0,1.0,1.0,0.0,0.0,0,0,3.77,-2.3899999,-2.9199998,-0.14,4.026181,0,nan,nan,3,0,10
670968000,0,473976923,85454972,497904,0,0.25,0.0,1.0,1.0,0.0,0.0,0,0,3.77,-2.36,-2.9299998,-0.11,4.033686,0,nan,nan,3,0,10
671168000,0,473976880,85454892,497937,0,0.25,0.0,1.0,1.0,0.0,0.0,0,0,3.77,-2.32,-2.95,-0.19999999,4.045554,0,nan,nan,3,0,10
671368000,0,473976838,85454813,497969,0,0.25,0.0,1.0,1.0,0.0,0.0,0,0,3.76,-2.33,-2.96,-0.17,4.045205,0,nan,nan,3,0,10
671568000,0,473976795,85454731,498015,0,0.25,0.0,1.0,1.0,0.0,0.0,0,0,3.77,-2.31,-2.98,-0.14999999,4.052535,0,nan,nan,3,0,10
671868000,0,473976751,85454649,498035,0,0.25,0.0,1.0,1.0,0.0,0.0,0,0,3.78,-2.31,-2.97,-0.17,4.0509644,0,nan,nan,3,0,10
672068000,0,473976710,85454569,498072,0,0.25,0.0,1.0,1.0,0.0,0.0,0,0,3.8,-2.29,-3.03,-0.17,4.064054,0,nan,nan,3,0,10
672268000,0,473976667,85454487,498107,0,0.25,0.0,1.0,1.0,0.0,0.0,0,0,3.81,-2.3,-3.04,-0.17,4.0656247,0,nan,nan,3,0,10
672468000,0,473976623,85454403,498143,0,0.25,0.0,1.0,1.0,0.0,0.0,0,0,3.82,-2.31,-3.04,-0.14,4.0621343,0,nan,nan,3,0,10
672668000,0,473976580,85454320,498177,0,0.25,0.0,1.0,1.0,0.0,0.0,0,0,3.86,-2.32,-3.06,-0.19999999,4.062658,0,nan,nan,3,0,10
672868000,0,473976537,85454236,498205,0,0.25,0.0,1.0,1.0,0.0,0.0,0,0,3.8999999,-2.36,-3.12,-0.16,4.064403,0,nan,nan,3,0,10
673068000,0,473976495,85454153,498224,0,0.25,0.0,1.0,1.0,0.0,0.0,0,0,3.9299998,-2.36,-3.1299999,-0.11,4.065101,0,nan,nan,3,0,10
673268000,0,473976451,85454067,498237,0,0.25,0.0,1.0,1.0,0.0,0.0,0,0,3.9599998,-2.3799999,-3.1399999,-0.08,4.064054,0,nan,nan,3,0,10
673468000,0,473976405,85453980,498257,0,0.25,0.0,1.0,1.0,0.0,0.0,0,0,3.99,-2.4299998,-3.1799998,-0.01,4.058993,0,nan,nan,3,0,10
673668000,0,473976360,85453893,498274,0,0.25,0.0,1.0,1.0,0.0,0.0,0,0,4.02,-2.45,-3.21,-0.06,4.058993,0,nan,nan,3,0,10
673868000,0,473976316,85453808,498291,0,0.25,0.0,1.0,1.0,0.0,0.0,0,0,4.04,-2.45,-3.21,-0.04,4.0591674,0,nan,nan,3,0,10
674068000,0,473976270,85453719,498306,0,0.25,0.0,1.0,1.0,0.0,0.0,0,0,4.06,-2.48,-3.21,-0.089999996,4.0534077,0,nan,nan,3,0,10
674268000,0,473976224,85453631,498314,0,0.25,0.0,1.0,1.0,0.0,0.0,0,0,4.0499997,-2.49,-3.23,-0.02,4.0553274,0,nan,nan,3,0,10
674468000,0,473976179,85453547,498324,0,0.25,0.0,1.0,1.0,0.0,0.0,0,0,3.9299998,-2.4299998,-3.11,-0.03,4.0476484,0,nan,nan,3,0,10
674668000,0,473976136,85453465,498335,0,0.25,0.0,1.0,1.0,0.0,0.0,0,0,3.74,-2.33,-2.9399998,0.02,4.042238,0,nan,nan,3,0,10
674868000,0,473976094,85453385,498332,0,0.25,0.0,1.0,1.0,0.0,0.0,0,0,3.57,-2.18,-2.8,-0.02,4.049917,0,nan,nan,3,0,10
675068000,0,473976054,85453311,498345,0,0.25,0.0,1.0,1.0,0.0,0.0,0,0,3.4099998,-2.12,-2.6599998,-0.02,4.038573,0,nan,nan,3,0,10
675268000,0,473976016,85453240,498340,0,0.25,0.0,1.0,1.0,0.0,0.0,0,0,3.26,-2.04,-2.55,-0.01,4.0383983,0,nan,nan,3,0,10
675468000,0,473975980,85453173,498339,0,0.25,0.0,1.0,1.0,0.0,0.0,0,0,3.1299999,-1.9599999,-2.4099998,0.02,4.0291486,0,nan,nan,3,0,10
675668000,0,473975945,85453109,498352,0,0.25,0.0,1.0,1.0,0.0,0.0,0,0,2.98,-1.88,-2.34,0.02,4.034559,0,nan,nan,3,0,10
675868000,0,473975911,85453045,498346,0,0.25,0.0,1.0,1.0,0.0,0.0,0,0,2.83,-1.77,-2.22,0.01,4.0387473,0,nan,nan,3,0,10
676068000,0,473975879,85452986,498343,0,0.25,0.0,1.0,1.0,0.0,0.0,0,0,2.72,-1.6999999,-2.12,0.0,4.034559,0,nan,nan,3,0,10
676268000,0,473975849,85452932,498339,0,0.25,0.0,1.0,1.0,0.0,0.0,0,0,2.59,-1.62,-2.02,0.01,4.036304,0,nan,nan,3,0,10
676468000,0,473975819,85452877,498336,0,0.25,0.0,1.0,1.0,0.0,0.0,0,0,2.46,-1.55,-1.92,0.04,4.031941,0,nan,nan,3,0,10
676668000,0,473975791,85452825,498326,0,0.25,0.0,1.0,1.0,0.0,0.0,0,0,2.36,-1.49,-1.81,0.03,4.0209455,0,nan,nan,3,0,10
676868000,0,473975766,85452777,498333,0,0.25,0.0,1.0,1.0,0.0,0.0,0,0,2.25,-1.42,-1.74,0.01,4.0267053,0,nan,nan,3,0,10
677168000,0,473975740,85452731,498328,0,0.25,0.0,1.0,1.0,0.0,0.0,0,0,2.1499999,-1.35,-1.65,0.04,4.024087,0,nan,nan,3,0,10
677368000,0,473975715,85452686,498323,0,0.25,0.0,1.0,1.0,0.0,0.0,0,0,2.04,-1.29,-1.5699999,0.06,4.024087,0,nan,nan,3,0,10
677568000,0,473975692,85452644,498314,0,0.25,0.0,1.0,1.0,0.0,0.0,0,0,1.9399999,-1.24,-1.53,0.06,4.031941,0,nan,nan,3,0,10
677768000,0,473975670,85452603,498312,0,0.25,0.0,1.0,1.0,0.0,0.0,0,0,1.8399999,-1.16,-1.4599999,0.06,4.038922,0,nan,nan,3,0,10
677968000,0,473975650,85452566,498294,0,0.25,0.0,1.0,1.0,0.0,0.0,0,0,1.76,-1.11,-1.35,0.03,4.025832,0,nan,nan,3,0,10
678168000,0,473975630,85452529,498279,0,0.25,0.0,1.0,1.0,0.0,0.0,0,0,1.67,-1.05,-1.29,0.06,4.030894,0,nan,nan,3,0,10
678368000,0,473975610,85452494,498276,0,0.25,0.0,1.0,1.0,0.0,0.0,0,0,1.5899999,-1.02,-1.23,0.06,4.019026,0,nan,nan,3,0,10
678568000,0,473975592,85452462,498263,0,0.25,0.0,1.0,1.0,0.0,0.0,0,0,1.51,-0.96,-1.15,0.089999996,4.0172806,0,nan,nan,3,0,10
678768000,0,473975575,85452431,498243,0,0.25,0.0,1.0,1.0,0.0,0.0,0,0,1.4399999,-0.90999997,-1.14,0.08,4.0420637,0,nan,nan,3,0,10
678968000,0,473975558,85452401,498227,0,0.25,0.0,1.0,1.0,0.0,0.0,0,0,1.37,-0.85999995,-1.05,0.11,4.0246105,0,nan,nan,3,0,10
679168000,0,473975542,85452373,498216,0,0.25,0.0,1.0,1.0,0.0,0.0,0,0,1.3,-0.83,-1.0,0.04,4.0198984,0,nan,nan,3,0,10
679368000,0,473975528,85452347,498210,0,0.25,0.0,1.0,1.0,0.0,0.0,0,0,1.23,-0.79999995,-0.91999996,0.04,3.9972098,0,nan,nan,3,0,10
679568000,0,473975513,85452322,498208,0,0.25,0.0,1.0,1.0,0.0,0.0,0,0,1.16,-0.74,-0.89,0.08,4.016757,0,nan,nan,3,0,10
679768000,0,473975500,85452298,498195,0,0.25,0.0,1.0,1.0,0.0,0.0,0,0,1.1,-0.7,-0.84999996,0.04,4.0232143,0,nan,nan,3,0,10
679968000,0,473975487,85452276,498188,0,0.25,0.0,1.0,1.0,0.0,0.0,0,0,1.03,-0.65999997,-0.79999995,0.08,4.0228653,0,nan,nan,3,0,10
680168000,0,473975475,85452255,498169,0,0.25,0.0,1.0,1.0,0.0,0.0,0,0,0.96999997,-0.61,-0.74,0.04,4.024436,0,nan,nan,3,0,10
680368000,0,473975464,85452236,498156,0,0.25,0.0,1.0,1.0,0.0,0.0,0,0,0.91999996,-0.56,-0.71,0.07,4.039271,0,nan,nan,3,0,10
680568000,0,473975454,85452217,498131,0,0.25,0.0,1.0,1.0,0.0,0.0,0,0,0.85999995,-0.57,-0.65999997,0.08,4.005936,0,nan,nan,3,0,10
680768000,0,473975444,85452200,498125,0,0.25,0.0,1.0,1.0,0.0,0.0,0,0,0.81,-0.53,-0.62,0.06,4.008205,0,nan,nan,3,0,10
680968000,0,473975434,85452184,498118,0,0.25,0.0,1.0,1.0,0.0,0.0,0,0,0.76,-0.48,-0.59,0.07,4.023738,0,nan,nan,3,0,10
681168000,0,473975427,85452167,498123,0,0.25,0.0,1.0,1.0,0.0,0.0,0,0,0.7,-0.29,-0.64,0.0,4.2804685,0,nan,nan,3,0,10
681368000,0,473975425,85452149,498116,0,0.25,0.0,1.0,1.0,0.0,0.0,0,0,0.69,0.099999994,-0.71,0.04,4.8511744,0,nan,nan,3,0,10
681568000,0,473975430,85452130,498092,0,0.25,0.0,1.0,1.0,0.0,0.0,0,0,0.88,0.53,-0.69,0.089999996,5.3684745,0,nan,nan,3,0,10
681768000,0,473975443,85452111,498083,0,0.25,0.0,1.0,1.0,0.0,0.0,0,0,1.14,0.88,-0.72999996,-0.01,5.5868087,0,nan,nan,3,0,10
681968000,0,473975462,85452092,498079,0,0.25,0.0,1.0,1.0,0.0,0.0,0,0,1.4,1.2099999,-0.7,0.0,5.757672,0,nan,nan,3,0,10
682268000,0,473975487,85452072,498056,0,0.25,0.0,1.0,1.0,0.0,0.0,0,0,1.65,1.49,-0.66999996,0.04,5.8557563,0,nan,nan,3,0,10
682468000,0,473975518,85452055,498042,0,0.25,0.0,1.0,1.0,0.0,0.0,0,0,1.8299999,1.7199999,-0.59,0.07,5.951572,0,nan,nan,3,0,10
682668000,0,473975552,85452040,498029,0,0.25,0.0,1.0,1.0,0.0,0.0,0,0,1.91,1.8499999,-0.48,0.07,6.0250483,0,nan,nan,3,0,10
682868000,0,473975585,85452029,498025,0,0.25,0.0,1.0,1.0,0.0,0.0,0,0,1.9,1.86,-0.38,0.049999997,6.0807223,0,nan,nan,3,0,10
683068000,0,473975619,85452020,498013,0,0.25,0.0,1.0,1.0,0.0,0.0,0,0,1.8,1.75,-0.29999998,0.049999997,6.1077743,0,nan,nan,3,0,10
683268000,0,473975651,85452011,498012,0,0.25,0.0,1.0,1.0,0.0,0.0,0,0,1.63,1.5799999,-0.26999998,0.02,6.109694,0,nan,nan,3,0,10
683468000,0,473975678,85452003,498008,0,0.25,0.0,1.0,1.0,0.0,0.0,0,0,1.49,1.4599999,-0.26,0.04,6.1044583,0,nan,nan,3,0,10
683668000,0,473975704,85451996,498007,0,0.25,0.0,1.0,1.0,0.0,0.0,0,0,1.37,1.38,-0.24,0.01,6.1069016,0,nan,nan,3,0,10
683868000,0,473975729,85451990,497999,0,0.25,0.0,1.0,1.0,0.0,0.0,0,0,1.28,1.26,-0.19,0.0,6.130114,0,nan,nan,3,0,10
684068000,0,473975751,85451985,497996,0,0.25,0.0,1.0,1.0,0.0,0.0,0,0,1.1999999,1.2099999,-0.19,0.01,6.1220856,0,nan,nan,3,0,10
684268000,0,473975772,85451980,497992,0,0.25,0.0,1.0,1.0,0.0,0.0,0,0,1.13,1.12,-0.17,0.03,6.127845,0,nan,nan,3,0,10
684468000,0,473975792,85451975,498000,0,0.25,0.0,1.0,1.0,0.0,0.0,0,0,1.0699999,1.02,-0.16,0.0,6.119817,0,nan,nan,3,0,10
684668000,0,473975811,85451970,498002,0,0.25,0.0,1.0,1.0,0.0,0.0,0,0,1.01,1.0,-0.14999999,-0.01,6.129067,0,nan,nan,3,0,10
684868000,0,473975829,85451966,498006,0,0.25,0.0,1.0,1.0,0.0,0.0,0,0,0.96,0.96,-0.13,0.01,6.142505,0,nan,nan,3,0,10
685068000,0,473975846,85451962,498009,0,0.25,0.0,1.0,1.0,0.0,0.0,0,0,0.90999997,0.90999997,-0.14,-0.06,6.123831,0,nan,nan,3,0,10
685268000,0,473975862,85451959,498015,0,0.25,0.0,1.0,1.0,0.0,0.0,0,0,0.87,0.87,-0.12,-0.01,6.137444,0,nan,nan,3,0,10
685468000,0,473975878,85451955,498016,0,0.25,0.0,1.0,1.0,0.0,0.0,0,0,0.84,0.83,-0.12,0.0,6.129067,0,nan,nan,3,0,10
685668000,0,473975894,85451953,498013,0,0.25,0.0,1.0,1.0,0.0,0.0,0,0,0.79999995,0.79999995,-0.11,-0.04,6.143727,0,nan,nan,3,0,10
685868000,0,473975908,85451949,498020,0,0.25,0.0,1.0,1.0,0.0,0.0,0,0,0.77,0.75,-0.099999994,0.0,6.1419816,0,nan,nan,3,0,10
686068000,0,473975921,85451946,498025,0,0.25,0.0,1.0,1.0,0.0,0.0,0,0,0.74,0.74,-0.11,0.04,6.1302886,0,nan,nan,3,0,10
686268000,0,473975935,85451944,498023,0,0.25,0.0,1.0,1.0,0.0,0.0,0,0,0.71,0.69,-0.099999994,-0.01,6.13884,0,nan,nan,3,0,10
686468000,0,473975947,85451942,498028,0,0.25,0.0,1.0,1.0,0.0,0.0,0,0,0.68,0.65999997,-0.07,0.04,6.1782837,0,nan,nan,3,0,10
686668000,0,473975960,85451939,498034,0,0.25,0.0,1.0,1.0,0.0,0.0,0,0,0.65999997,0.65999997,-0.07,0.0,6.1709533,0,nan,nan,3,0,10
686868000,0,473975971,85451937,498034,0,0.25,0.0,1.0,1.0,0.0,0.0,0,0,0.63,0.64,-0.06,-0.02,6.1805525,0,nan,nan,3,0,10
687168000,0,473975983,85451936,498048,0,0.25,0.0,1.0,1.0,0.0,0.0,0,0,0.61,0.59999996,-0.03,0.0,6.2220902,0,nan,nan,3,0,10
687368000,0,473975994,85451934,498041,0,0.25,0.0,1.0,1.0,0.0,0.0,0,0,0.59,0.59,-0.06,0.0,6.182472,0,nan,nan,3,0,10
687568000,0,473976005,85451932,498052,0,0.25,0.0,1.0,1.0,0.0,0.0,0,0,0.57,0.57,-0.04,-0.04,6.209175,0,nan,nan,3,0,10
687768000,0,473976015,85451931,498048,0,0.25,0.0,1.0,1.0,0.0,0.0,0,0,0.55,0.56,-0.049999997,-0.01,6.19085,0,nan,nan,3,0,10
687968000,0,473976025,85451930,498050,0,0.25,0.0,1.0,1.0,0.0,0.0,0,0,0.53999996,0.53,-0.06,0.0,6.168161,0,nan,nan,3,0,10
688168000,0,473976036,85451929,498052,0,0.25,0.0,1.0,1.0,0.0,0.0,0,0,0.52,0.53,-0.06,0.0,6.160482,0,nan,nan,3,0,10
688368000,0,473976045,85451928,498049,0,0.25,0.0,1.0,1.0,0.0,0.0,0,0,0.5,0.51,-0.03,0.03,6.2086515,0,nan,nan,3,0,10
688568000,0,473976054,85451927,498056,0,0.25,0.0,1.0,1.0,0.0,0.0,0,0,0.48999998,0.45999998,0.0,0.04,6.2711325,0,nan,nan,3,0,10
688768000,0,473976064,85451926,498057,0,0.25,0.0,1.0,1.0,0.0,0.0,0,0,0.47,0.47,0.0,-0.03,0.005410361,0,nan,nan,3,0,10
688968000,0,473976072,85451926,498052,0,0.25,0.0,1.0,1.0,0.0,0.0,0,0,0.45,0.45,0.0,0.0,0.0013962223,0,nan,nan,3,0,10
689168000,0,473976080,85451926,498052,0,0.25,0.0,1.0,1.0,0.0,0.0,0,0,0.44,0.42,0.0,0.0,0.016754668,0,nan,nan,3,0,10
689368000,0,473976087,85451926,498064,0,0.25,0.0,1.0,1.0,0.0,0.0,0,0,0.42,0.41,0.0,-0.03,6.2772408,0,nan,nan,3,0,10
689568000,0,473976095,85451925,498074,0,0.25,0.0,1.0,1.0,0.0,0.0,0,0,0.45,0.44,-0.01,-0.07,6.245302,0,nan,nan,3,0,10
689768000,0,473976105,85451925,498084,0,0.25,0.0,1.0,1.0,0.0,0.0,0,0,0.61,0.62,0.0,-0.03,6.274972,0,nan,nan,3,0,10
689968000,0,473976119,85451925,498090,0,0.25,0.0,1.0,1.0,0.0,0.0,0,0,0.94,0.96999997,0.0,0.0,0.009075445,0,nan,nan,3,0,10
690168000,0,473976140,85451925,498105,0,0.25,0.0,1.0,1.0,0.0,0.0,0,0,1.3199999,1.3199999,0.0,-0.08,0.0052358336,0,nan,nan,3,0,10
690368000,0,473976168,85451925,498112,0,0.25,0.0,1.0,1.0,0.0,0.0,0,0,1.7099999,1.7099999,-0.02,-0.04,6.2704344,0,nan,nan,3,0,10
690568000,0,473976204,85451925,498117,0,0.25,0.0,1.0,1.0,0.0,0.0,0,0,2.09,2.09,0.0,-0.02,6.280033,0,nan,nan,3,0,10
690768000,0,473976245,85451925,498119,0,0.25,0.0,1.0,1.0,0.0,0.0,0,0,2.4099998,2.4199998,0.01,-0.01,0.00785375,0,nan,nan,3,0,10
690968000,0,473976291,85451925,498115,0,0.25,0.0,1.0,1.0,0.0,0.0,0,0,2.6,2.61,0.02,0.0,0.010297139,0,nan,nan,3,0,10
691168000,0,473976341,85451925,498115,0,0.25,0.0,1.0,1.0,0.0,0.0,0,0,2.61,2.61,0.03,0.0,0.013089584,0,nan,nan,3,0,10
691368000,0,473976388,85451926,498120,0,0.25,0.0,1.0,1.0,0.0,0.0,0,0,2.47,2.49,0.03,-0.03,0.01413675,0,nan,nan,3,0,10
691568000,0,473976430,85451928,498125,0,0.25,0.0,1.0,1.0,0.0,0.0,0,0,2.26,2.26,0.03,0.0,0.017103722,0,nan,nan,3,0,10
691768000,0,473976471,85451928,498128,0,0.25,0.0,1.0,1.0,0.0,0.0,0,0,2.08,2.08,0.04,-0.02,0.023735778,0,nan,nan,3,0,10
691968000,0,473976508,85451930,498119,0,0.25,0.0,1.0,1.0,0.0,0.0,0,0,1.9599999,1.9499999,0.03,-0.02,0.017976362,0,nan,nan,3,0,10
692168000,0,473976543,85451931,498118,0,0.25,0.0,1.0,1.0,0.0,0.0,0,0,1.8499999,1.8299999,0.03,-0.049999997,0.019023528,0,nan,nan,3,0,10
692468000,0,473976576,85451933,498125,0,0.25,0.0,1.0,1.0,0.0,0.0,0,0,1.75,1.75,0.02,-0.04,0.012915056,0,nan,nan,3,0,10
692668000,0,473976607,85451934,498129,0,0.25,0.0,1.0,1.0,0.0,0.0,0,0,1.67,1.65,0.07,-0.04,0.044330057,0,nan,nan,3,0,10
692868000,0,473976638,85451935,498130,0,0.25,0.0,1.0,1.0,0.0,0.0,0,0,1.5999999,1.5999999,0.04,-0.04,0.028797084,0,nan,nan,3,0,10
693068000,0,473976667,85451936,498129,0,0.25,0.0,1.0,1.0,0.0,0.0,0,0,1.53,1.54,0.06,0.03,0.039617807,0,nan,nan,3,0,10
693268000,0,473976694,85451938,498137,0,0.25,0.0,1.0,1.0,0.0,0.0,0,0,1.4599999,1.4499999,0.049999997,-0.02,0.03560367,0,nan,nan,3,0,10
693468000,0,473976720,85451939,498132,0,0.25,0.0,1.0,1.0,0.0,0.0,0,0,1.4,1.41,0.06,0.0,0.043631945,0,nan,nan,3,0,10
693668000,0,473976746,85451941,498145,0,0.25,0.0,1.0,1.0,0.0,0.0,0,0,1.3399999,1.36,0.049999997,-0.01,0.03874517,0,nan,nan,3,0,10
693868000,0,473976770,85451942,498157,0,0.25,0.0,1.0,1.0,0.0,0.0,0,0,1.28,1.29,0.03,-0.01,0.030193307,0,nan,nan,3,0,10
694068000,0,473976792,85451944,498154,0,0.25,0.0,1.0,1.0,0.0,0.0,0,0,1.23,1.22,0.049999997,-0.03,0.0471225,0,nan,nan,3,0,10
694268000,0,473976815,85451945,498162,0,0.25,0.0,1.0,1.0,0.0,0.0,0,0,1.18,1.18,0.06,-0.04,0.050787587,0,nan,nan,3,0,10
694468000,0,473976836,85451947,498168,0,0.25,0.0,1.0,1.0,0.0,0.0,0,0,1.12,1.13,0.049999997,-0.03,0.04729703,0,nan,nan,3,0,10
694668000,0,473976857,85451948,498181,0,0.25,0.0,1.0,1.0,0.0,0.0,0,0,1.0699999,1.0699999,0.049999997,-0.03,0.04729703,0,nan,nan,3,0,10
694868000,0,473976877,85451949,498174,0,0.25,0.0,1.0,1.0,0.0,0.0,0,0,1.02,1.02,0.06,0.0,0.06632056,0,nan,nan,3,0,10
695068000,0,473976894,85451951,498181,0,0.25,0.0,1.0,1.0,0.0,0.0,0,0,0.96999997,0.96999997,0.03,0.0,0.03699989,0,nan,nan,3,0,10
695268000,0,473976912,85451953,498184,0,0.25,0.0,1.0,1.0,0.0,0.0,0,0,0.91999996,0.9,0.06,-0.07,0.07504695,0,nan,nan,3,0,10
695468000,0,473976929,85451953,498187,0,0.25,0.0,1.0,1.0,0.0,0.0,0,0,0.87,0.85999995,0.04,-0.03,0.051660225,0,nan,nan,3,0,10
695668000,0,473976944,85451955,498183,0,0.25,0.0,1.0,1.0,0.0,0.0,0,0,0.83,0.82,0.049999997,0.0,0.060910195,0,nan,nan,3,0,10
695868000,0,473976959,85451955,498177,0,0.25,0.0,1.0,1.0,0.0,0.0,0,0,0.78999996,0.78999996,0.04,0.03,0.05515078,0,nan,nan,3,0,10
696068000,0,473976973,85451957,498179,0,0.25,0.0,1.0,1.0,0.0,0.0,0,0,0.74,0.71999997,0.01,0.0,0.023735778,0,nan,nan,3,0,10
696268000,0,473976987,85451958,498178,0,0.25,0.0,1.0,1.0,0.0,0.0,0,0,0.7,0.69,0.02,0.04,0.032113113,0,nan,nan,3,0,10
696468000,0,473976999,85451959,498174,0,0.25,0.0,1.0,1.0,0.0,0.0,0,0,0.65999997,0.65,0.04,0.02,0.06527339,0,nan,nan,3,0,10
696668000,0,473977011,85451961,498177,0,0.25,0.0,1.0,1.0,0.0,0.0,0,0,0.63,0.63,0.02,0.01,0.045377225,0,nan,nan,3,0,10
696868000,0,473977022,85451962,498190,0,0.25,0.0,1.0,1.0,0.0,0.0,0,0,0.65999997,0.66999996,0.07,-0.01,0.11658456,0,nan,nan,3,0,10
697068000,0,473977037,85451965,498193,0,0.25,0.0,1.0,1.0,0.0,0.0,0,0,0.95,0.94,0.12,-0.04,0.13665526,0,nan,nan,3,0,10
697268000,0,473977059,85451968,498192,0,0.25,0.0,1.0,1.0,0.0,0.0,0,0,1.42,1.42,0.19999999,0.0,0.14363636,0,nan,nan,3,0,10
697568000,0,473977088,85451975,498195,0,0.25,0.0,1.0,1.0,0.0,0.0,0,0,1.88,1.86,0.26999998,0.0,0.14607975,0,nan,nan,3,0,10
697768000,0,473977128,85451984,498185,0,0.25,0.0,1.0,1.0,0.0,0.0,0,0,2.32,2.28,0.35,-0.049999997,0.15498067,0,nan,nan,3,0,10
697968000,0,473977174,85451994,498191,0,0.25,0.0,1.0,1.0,0.0,0.0,0,0,2.75,2.72,0.42999998,0.03,0.15672594,0,nan,nan,3,0,10
698168000,0,473977227,85452006,498186,0,0.25,0.0,1.0,1.0,0.0,0.0,0,0,3.1699998,3.12,0.48,0.0,0.15463161,0,nan,nan,3,0,10
698368000,0,473977289,85452021,498186,0,0.25,0.0,1.0,1.0,0.0,0.0,0,0,3.58,3.55,0.56,0.04,0.15864575,0,nan,nan,3,0,10
698568000,0,473977359,85452037,498172,0,0.25,0.0,1.0,1.0,0.0,0.0,0,0,3.97,3.8999999,0.63,0.01,0.16074009,0,nan,nan,3,0,10
698768000,0,473977434,85452055,498165,0,0.25,0.0,1.0,1.0,0.0,0.0,0,0,4.24,4.16,0.71999997,0.07,0.17138629,0,nan,nan,3,0,10
698968000,0,473977512,85452076,498160,0,0.25,0.0,1.0,1.0,0.0,0.0,0,0,4.31,4.25,0.77,0.06,0.17906551,0,nan,nan,3,0,10
699168000,0,473977587,85452097,498163,0,0.25,0.0,1.0,1.0,0.0,0.0,0,0,4.27,4.19,0.79999995,0.03,0.18918812,0,nan,nan,3,0,10
699368000,0,473977664,85452120,498162,0,0.25,0.0,1.0,1.0,0.0,0.0,0,0,4.2599998,4.18,0.78999996,-0.02,0.18883906,0,nan,nan,3,0,10
699568000,0,473977743,85452143,498157,0,0.25,0.0,1.0,1.0,0.0,0.0,0,0,4.2799997,4.17,0.83,-0.01,0.1959947,0,nan,nan,3,0,10
699768000,0,473977820,85452165,498163,0,0.25,0.0,1.0,1.0,0.0,0.0,0,0,4.2599998,4.15,0.85999995,0.0,0.20402297,0,nan,nan,3,0,10
699968000,0,473977895,85452187,498171,0,0.25,0.0,1.0,1.0,0.0,0.0,0,0,4.23,4.14,0.83,-0.03,0.19878715,0,nan,nan,3,0,10
700168000,0,473977973,85452211,498174,0,0.25,0.0,1.0,1.0,0.0,0.0,0,0,4.24,4.15,0.83,0.01,0.19826356,0,nan,nan,3,0,10
700368000,0,473978050,85452235,498175,0,0.25,0.0,1.0,1.0,0.0,0.0,0,0,4.24,4.15,0.87,-0.08,0.20681542,0,nan,nan,3,0,10
700568000,0,473978125,85452258,498172,0,0.25,0.0,1.0,1.0,0.0,0.0,0,0,4.23,4.14,0.84999996,0.0,0.20384845,0,nan,nan,3,0,10
700768000,0,473978201,85452281,498173,0,0.25,0.0,1.0,1.0,0.0,0.0,0,0,4.23,4.17,0.85999995,-0.02,0.20332487,0,nan,nan,3,0,10
700968000,0,473978279,85452305,498176,0,0.25,0.0,1.0,1.0,0.0,0.0,0,0,4.24,4.16,0.84,0.0,0.2003579,0,nan,nan,3,0,10
701168000,0,473978355,85452327,498173,0,0.25,0.0,1.0,1.0,0.0,0.0,0,0,4.24,4.16,0.83,-0.01,0.19861262,0,nan,nan,3,0,10
701368000,0,473978432,85452350,498177,0,0.25,0.0,1.0,1.0,0.0,0.0,0,0,4.24,4.12,0.85999995,0.03,0.207339,0,nan,nan,3,0,10
701568000,0,473978507,85452374,498167,0,0.25,0.0,1.0,1.0,0.0,0.0,0,0,4.23,4.15,0.85999995,0.04,0.2054192,0,nan,nan,3,0,10
701768000,0,473978582,85452397,498159,0,0.25,0.0,1.0,1.0,0.0,0.0,0,0,4.12,4.02,0.84,0.0,0.20698996,0,nan,nan,3,0,10
701968000,0,473978656,85452420,498157,0,0.25,0.0,1.0,1.0,0.0,0.0,0,0,3.9099998,3.83,0.83,0.0,0.21466917,0,nan,nan,3,0,10
702168000,0,473978724,85452443,498163,0,0.25,0.0,1.0,1.0,0.0,0.0,0,0,3.73,3.6599998,0.79999995,0.049999997,0.21641445,0,nan,nan,3,0,10
702368000,0,473978789,85452464,498161,0,0.25,0.0,1.0,1.0,0.0,0.0,0,0,3.55,3.46,0.77,0.02,0.22060312,0,nan,nan,3,0,10
702668000,0,473978852,85452485,498153,0,0.25,0.0,1.0,1.0,0.0,0.0,0,0,3.35,3.29,0.72999996,0.0,0.219905,0,nan,nan,3,0,10
702868000,0,473978910,85452505,498141,0,0.25,0.0,1.0,1.0,0.0,0.0,0,0,3.1799998,3.1299999,0.7,0.06,0.22077765,0,nan,nan,3,0,10
703068000,0,473978965,85452523,498146,0,0.25,0.0,1.0,1.0,0.0,0.0,0,0,3.03,2.9399998,0.65999997,0.02,0.2211267,0,nan,nan,3,0,10
703268000,0,473979018,85452540,498152,0,0.25,0.0,1.0,1.0,0.0,0.0,0,0,2.8799999,2.81,0.65,-0.049999997,0.22775877,0,nan,nan,3,0,10
703468000,0,473979070,85452558,498137,0,0.25,0.0,1.0,1.0,0.0,0.0,0,0,2.73,2.6499999,0.63,0.0,0.23526345,0,nan,nan,3,0,10
703668000,0,473979117,85452574,498144,0,0.25,0.0,1.0,1.0,0.0,0.0,0,0,2.6,2.52,0.59,-0.049999997,0.23212196,0,nan,nan,3,0,10
703868000,0,473979163,85452590,498142,0,0.25,0.0,1.0,1.0,0.0,0.0,0,0,2.46,2.3899999,0.56,0.0,0.23107478,0,nan,nan,3,0,10
704068000,0,473979205,85452605,498147,0,0.25,0.0,1.0,1.0,0.0,0.0,0,0,2.34,2.29,0.52,0.04,0.22269745,0,nan,nan,3,0,10
704268000,0,473979246,85452619,498148,0,0.25,0.0,1.0,1.0,0.0,0.0,0,0,2.22,2.1599998,0.48999998,-0.02,0.22671159,0,nan,nan,3,0,10
704468000,0,473979286,85452633,498148,0,0.25,0.0,1.0,1.0,0.0,0.0,0,0,2.09,2.03,0.47,0.04,0.23090026,0,nan,nan,3,0,10
704668000,0,473979322,85452645,498140,0,0.25,0.0,1.0,1.0,0.0,0.0,0,0,1.9799999,1.91,0.44,0.02,0.22950403,0,nan,nan,3,0,10
704868000,0,473979356,85452655,498143,0,0.25,0.0,1.0,1.0,0.0,0.0,0,0,1.87,1.8199999,0.42,0.03,0.22863139,0,nan,nan,3,0,10
705068000,0,473979390,85452667,498144,0,0.25,0.0,1.0,1.0,0.0,0.0,0,0,1.76,1.7099999,0.41,0.02,0.23543797,0,nan,nan,3,0,10
705268000,0,473979420,85452678,498142,0,0.25,0.0,1.0,1.0,0.0,0.0,0,0,1.66,1.62,0.37,0.02,0.22671159,0,nan,nan,3,0,10
705468000,0,473979448,85452687,498135,0,0.25,0.0,1.0,1.0,0.0,0.0,0,0,1.56,1.53,0.34,-0.01,0.21815974,0,nan,nan,3,0,10
705668000,0,473979475,85452696,498123,0,0.25,0.0,1.0,1.0,0.0,0.0,0,0,1.4699999,1.4399999,0.32,0.0,0.22287197,0,nan,nan,3,0,10
705868000,0,473979502,85452705,498125,0,0.25,0.0,1.0,1.0,0.0,0.0,0,0,1.38,1.37,0.29,0.0,0.21152768,0,nan,nan,3,0,10
706068000,0,473979526,85452713,498129,0,0.25,0.0,1.0,1.0,0.0,0.0,0,0,1.29,1.24,0.31,0.0,0.24643323,0,nan,nan,3,0,10
706268000,0,473979548,85452721,498126,0,0.25,0.0,1.0,1.0,0.0,0.0,0,0,1.1999999,1.16,0.26999998,0.0,0.22932951,0,nan,nan,3,0,10
706468000,0,473979569,85452728,498130,0,0.25,0.0,1.0,1.0,0.0,0.0,0,0,1.13,1.09,0.26,0.02,0.23840496,0,nan,nan,3,0,10
706668000,0,473979588,85452735,498123,0,0.25,0.0,1.0,1.0,0.0,0.0,0,0,1.05,1.04,0.22999999,-0.04,0.22095217,0,nan,nan,3,0,10
706868000,0,473979607,85452742,498132,0,0.25,0.0,1.0,1.0,0.0,0.0,0,0,0.97999996,0.95,0.25,0.0,0.26231527,0,nan,nan,3,0,10
707068000,0,473979624,85452747,498135,0,0.25,0.0,1.0,1.0,0.0,0.0,0,0,0.91999996,0.89,0.22999999,0.0,0.26126808,0,nan,nan,3,0,10
707268000,0,473979640,85452753,498132,0,0.25,0.0,1.0,1.0,0.0,0.0,0,0,0.85999995,0.81,0.19,0.01,0.23823042,0,nan,nan,3,0,10
707468000,0,473979655,85452758,498140,0,0.25,0.0,1.0,1.0,0.0,0.0,0,0,0.81,0.81,0.19,-0.01,0.24154645,0,nan,nan,3,0,10
707768000,0,473979669,85452763,498140,0,0.25,0.0,1.0,1.0,0.0,0.0,0,0,0.75,0.72999996,0.17999999,-0.01,0.24154645,0,nan,nan,3,0,10
707968000,0,473979682,85452768,498145,0,0.25,0.0,1.0,1.0,0.0,0.0,0,0,0.7,0.65999997,0.19,-0.01,0.28378218,0,nan,nan,3,0,10
708168000,0,473979693,85452773,498147,0,0.25,0.0,1.0,1.0,0.0,0.0,0,0,0.52,0.48,0.19,-0.049999997,0.37698,0,nan,nan,3,0,10
708368000,0,473979698,85452779,498152,0,0.25,0.0,1.0,1.0,0.0,0.0,0,0,0.22,0.099999994,0.19,-0.049999997,1.0867845,0,nan,nan,3,0,10
708568000,0,473979696,85452785,498152,0,0.25,0.0,1.0,1.0,0.0,0.0,0,0,0.37,-0.31,0.19999999,-0.02,2.549502,0,nan,nan,3,0,10
708768000,0,473979687,85452790,498157,0,0.25,0.0,1.0,1.0,0.0,0.0,0,0,0.65999997,-0.63,0.19,0.0,2.8420105,0,nan,nan,3,0,10
708968000,0,473979673,85452796,498158,0,0.25,0.0,1.0,1.0,0.0,0.0,0,0,0.95,-0.93,0.19999999,-0.04,2.9224677,0,nan,nan,3,0,10
709168000,0,473979653,85452803,498157,0,0.25,0.0,1.0,1.0,0.0,0.0,0,0,1.23,-1.1999999,0.19999999,-0.02,2.9739535,0,nan,nan,3,0,10
709368000,0,473979628,85452808,498150,0,0.25,0.0,1.0,1.0,0.0,0.0,0,0,1.48,-1.4499999,0.22,-0.01,2.9894865,0,nan,nan,3,0,10
709568000,0,473979599,85452813,498155,0,0.25,0.0,1.0,1.0,0.0,0.0,0,0,1.66,-1.66,0.17999999,0.03,3.0329437,0,nan,nan,3,0,10
709768000,0,473979567,85452817,498156,0,0.25,0.0,1.0,1.0,0.0,0.0,0,0,1.76,-1.75,0.19,0.0,3.0329437,0,nan,nan,3,0,10
709968000,0,473979535,85452821,498149,0,0.25,0.0,1.0,1.0,0.0,0.0,0,0,1.76,-1.75,0.12,0.01,3.0711653,0,nan,nan,3,0,10
710168000,0,473979503,85452825,498143,0,0.25,0.0,1.0,1.0,0.0,0.0,0,0,1.65,-1.64,0.11,0.01,3.068722,0,nan,nan,3,0,10
710368000,0,473979474,85452827,498136,0,0.25,0.0,1.0,1.0,0.0,0.0,0,0,1.51,-1.49,0.099999994,-0.04,3.0725617,0,nan,nan,3,0,10
710568000,0,473979448,85452830,498132,0,0.25,0.0,1.0,1.0,0.0,0.0,0,0,1.39,-1.4,0.06,-0.03,3.0943775,0,nan,nan,3,0,10
710768000,0,473979423,85452832,498135,0,0.25,0.0,1.0,1.0,0.0,0.0,0,0,1.3,-1.3,0.06,-0.01,3.0950756,0,nan,nan,3,0,10
710968000,0,473979399,85452833,498138,0,0.25,0.0,1.0,1.0,0.0,0.0,0,0,1.23,-1.25,0.04,0.02,3.1018822,0,nan,nan,3,0,10
711168000,0,473979377,85452834,498138,0,0.25,0.0,1.0,1.0,0.0,0.0,0,0,1.16,-1.1899999,0.06,0.01,3.0907125,0,nan,nan,3,0,10
711368000,0,473979357,85452835,498139,0,0.25,0.0,1.0,1.0,0.0,0.0,0,0,1.09,-1.09,0.02,-0.03,3.1168916,0,nan,nan,3,0,10
711568000,0,473979337,85452836,498137,0,0.25,0.0,1.0,1.0,0.0,0.0,0,0,1.04,-1.02,0.01,0.0,3.131552,0,nan,nan,3,0,10
711768000,0,473979318,85452837,498128,0,0.25,0.0,1.0,1.0,0.0,0.0,0,0,0.97999996,-0.98999995,0.03,0.049999997,3.1024058,0,nan,nan,3,0,10
711968000,0,473979301,85452838,498123,0,0.25,0.0,1.0,1.0,0.0,0.0,0,0,0.94,-0.94,0.03,0.0,3.0999625,0,nan,nan,3,0,10
712168000,0,473979284,85452838,498129,0,0.25,0.0,1.0,1.0,0.0,0.0,0,0,0.89,-0.9,0.01,0.049999997,3.1214294,0,nan,nan,3,0,10
712368000,0,473979267,85452838,498123,0,0.25,0.0,1.0,1.0,0.0,0.0,0,0,0.84999996,-0.85999995,0.02,0.02,3.1154954,0,nan,nan,3,0,10
712568000,0,473979252,85452839,498110,0,0.25,0.0,1.0,1.0,0.0,0.0,0,0,0.82,-0.81,0.0,-0.01,3.153368,0,nan,nan,3,0,10
712868000,0,473979237,85452839,498117,0,0.25,0.0,1.0,1.0,0.0,0.0,0,0,0.78,-0.76,-0.02,0.01,3.1718678,0,nan,nan,3,0,10
713068000,0,473979223,85452839,498121,0,0.25,0.0,1.0,1.0,0.0,0.0,0,0,0.75,-0.76,0.0,-0.01,3.131203,0,nan,nan,3,0,10
713268000,0,473979209,85452839,498125,0,0.25,0.0,1.0,1.0,0.0,0.0,0,0,0.71999997,-0.71999997,0.0,0.01,3.142722,0,nan,nan,3,0,10
713468000,0,473979196,85452839,498131,0,0.25,0.0,1.0,1.0,0.0,0.0,0,0,0.69,-0.68,-0.01,0.03,3.158953,0,nan,nan,3,0,10
713668000,0,473979184,85452838,498122,0,0.25,0.0,1.0,1.0,0.0,0.0,0,0,0.65999997,-0.65,0.0,0.0,3.1483066,0,nan,nan,3,0,10
713868000,0,473979173,85452838,498125,0,0.25,0.0,1.0,1.0,0.0,0.0,0,0,0.63,-0.63,0.0,0.04,3.1352172,0,nan,nan,3,0,10
714068000,0,473979161,85452837,498129,0,0.25,0.0,1.0,1.0,0.0,0.0,0,0,0.61,-0.61,0.0,-0.049999997,3.148132,0,nan,nan,3,0,10
714268000,0,473979150,85452837,498131,0,0.25,0.0,1.0,1.0,0.0,0.0,0,0,0.58,-0.57,-0.02,-0.02,3.184085,0,nan,nan,3,0,10
714468000,0,473979139,85452837,498125,0,0.25,0.0,1.0,1.0,0.0,0.0,0,0,0.56,-0.55,-0.02,0.0,3.1867027,0,nan,nan,3,0,10
714668000,0,473979129,85452836,498121,0,0.25,0.0,1.0,1.0,0.0,0.0,0,0,0.53999996,-0.53,-0.01,-0.04,3.172217,0,nan,nan,3,0,10
714868000,0,473979119,85452837,498123,0,0.25,0.0,1.0,1.0,0.0,0.0,0,0,0.52,-0.52,-0.01,0.0,3.1615708,0,nan,nan,3,0,10
715068000,0,473979109,85452836,498137,0,0.25,0.0,1.0,1.0,0.0,0.0,0,0,0.48999998,-0.5,-0.02,0.01,3.196302,0,nan,nan,3,0,10
715268000,0,473979101,85452835,498122,0,0.25,0.0,1.0,1.0,0.0,0.0,0,0,0.47,-0.45999998,-0.02,-0.04,3.1887972,0,nan,nan,3,0,10
715468000,0,473979092,85452835,498126,0,0.25,0.0,1.0,1.0,0.0,0.0,0,0,0.45,-0.47,-0.01,0.03,3.162967,0,nan,nan,3,0,10
715668000,0,473979084,85452834,498132,0,0.25,0.0,1.0,1.0,0.0,0.0,0,0,0.42999998,-0.44,-0.02,0.0,3.1983962,0,nan,nan,3,0,10
715868000,0,473979075,85452834,498127,0,0.25,0.0,1.0,1.0,0.0,0.0,0,0,0.51,-0.53,-0.01,0.0,3.1608727,0,nan,nan,3,0,10
716068000,0,473979064,85452834,498140,0,0.25,0.0,1.0,1.0,0.0,0.0,0,0,0.78,-0.77,-0.02,-0.02,3.1673303,0,nan,nan,3,0,10
716268000,0,473979045,85452833,498145,0,0.25,0.0,1.0,1.0,0.0,0.0,0,0,1.18,-1.17,-0.03,0.0,3.1682029,0,nan,nan,3,0,10
716468000,0,473979021,85452832,498148,0,0.25,0.0,1.0,1.0,0.0,0.0,0,0,1.5899999,-1.5999999,-0.01,0.0,3.1510992,0,nan,nan,3,0,10
716668000,0,473978987,85452833,498152,0,0.25,0.0,1.0,1.0,0.0,0.0,0,0,1.9699999,-1.9799999,-0.02,0.0,3.1531935,0,nan,nan,3,0,10
716868000,0,473978948,85452832,498151,0,0.25,0.0,1.0,1.0,0.0,0.0,0,0,2.33,-2.34,-0.01,-0.02,3.1469104,0,nan,nan,3,0,10
717068000,0,473978901,85452831,498161,0,0.25,0.0,1.0,1.0,0.0,0.0,0,0,2.69,-2.6799998,-0.01,0.04,3.1458633,0,nan,nan,3,0,10
717268000,0,473978848,85452830,498158,0,0.25,0.0,1.0,1.0,0.0,0.0,0,0,3.04,-3.03,-0.01,-0.049999997,3.147783,0,nan,nan,3,0,10
717468000,0,473978789,85452830,498165,0,0.25,0.0,1.0,1.0,0.0,0.0,0,0,3.3799999,-3.4099998,-0.04,-0.02,3.153368,0,nan,nan,3,0,10
717668000,0,473978724,85452829,498161,0,0.25,0.0,1.0,1.0,0.0,0.0,0,0,3.7099998,-3.6999998,-0.03,0.02,3.1521463,0,nan,nan,3,0,10
717968000,0,473978653,85452828,498163,0,0.25,0.0,1.0,1.0,0.0,0.0,0,0,3.97,-3.97,-0.04,0.01,3.153717,0,nan,nan,3,0,10
718168000,0,473978579,85452827,498166,0,0.25,0.0,1.0,1.0,0.0,0.0,0,0,4.0499997,-4.0499997,-0.03,0.03,3.150401,0,nan,nan,3,0,10
718368000,0,473978504,85452826,498166,0,0.25,0.0,1.0,1.0,0.0,0.0,0,0,4.02,-4.0299997,-0.02,-0.02,3.1472595,0,nan,nan,3,0,10
718568000,0,473978429,85452825,498173,0,0.25,0.0,1.0,1.0,0.0,0.0,0,0,4.04,-4.04,-0.03,-0.02,3.1505756,0,nan,nan,3,0,10
718768000,0,473978356,85452825,498166,0,0.25,0.0,1.0,1.0,0.0,0.0,0,0,4.1,-4.0899997,0.0,0.0,3.1404529,0,nan,nan,3,0,10
718968000,0,473978280,85452824,498170,0,0.25,0.0,1.0,1.0,0.0,0.0,0,0,4.11,-4.1,-0.01,0.0,3.144467,0,nan,nan,3,0,10
719168000,0,473978203,85452824,498173,0,0.25,0.0,1.0,1.0,0.0,0.0,0,0,4.12,-4.0899997,-0.02,0.01,3.1472595,0,nan,nan,3,0,10
719368000,0,473978128,85452824,498166,0,0.25,0.0,1.0,1.0,0.0,0.0,0,0,4.15,-4.15,-0.02,-0.049999997,3.1476085,0,nan,nan,3,0,10
719568000,0,473978051,85452823,498166,0,0.25,0.0,1.0,1.0,0.0,0.0,0,0,4.16,-4.17,-0.01,0.0,3.1439435,0,nan,nan,3,0,10
719768000,0,473977974,85452823,498159,0,0.25,0.0,1.0,1.0,0.0,0.0,0,0,4.17,-4.18,-0.01,0.02,3.1448162,0,nan,nan,3,0,10
719968000,0,473977897,85452823,498164,0,0.25,0.0,1.0,1.0,0.0,0.0,0,0,4.19,-4.2,-0.01,0.0,3.1439435,0,nan,nan,3,0,10
720168000,0,473977819,85452823,498170,0,0.25,0.0,1.0,1.0,0.0,0.0,0,0,4.2,-4.19,0.0,0.01,3.143769,0,nan,nan,3,0,10
720368000,0,473977743,85452822,498162,0,0.25,0.0,1.0,1.0,0.0,0.0,0,0,4.21,-4.2,-0.01,0.04,3.1446416,0,nan,nan,3,0,10
720568000,0,473977665,85452823,498153,0,0.25,0.0,1.0,1.0,0.0,0.0,0,0,4.22,-4.21,0.0,0.02,3.1423728,0,nan,nan,3,0,10
720768000,0,473977586,85452823,498159,0,0.25,0.0,1.0,1.0,0.0,0.0,0,0,4.24,-4.24,-0.01,0.0,3.1446416,0,nan,nan,3,0,10
720968000,0,473977508,85452823,498157,0,0.25,0.0,1.0,1.0,0.0,0.0,0,0,4.21,-4.24,0.01,0.049999997,3.1380095,0,nan,nan,3,0,10
721168000,0,473977433,85452823,498140,0,0.25,0.0,1.0,1.0,0.0,0.0,0,0,4.08,-4.06,0.01,0.04,3.1383586,0,nan,nan,3,0,10
721368000,0,473977358,85452823,498137,0,0.25,0.0,1.0,1.0,0.0,0.0,0,0,3.85,-3.83,0.01,0.0,3.1383586,0,nan,nan,3,0,10
721568000,0,473977289,85452824,498129,0,0.25,0.0,1.0,1.0,0.0,0.0,0,0,3.6499999,-3.6599998,-0.01,0.01,3.1455142,0,nan,nan,3,0,10
721768000,0,473977225,85452824,498124,0,0.25,0.0,1.0,1.0,0.0,0.0,0,0,3.48,-3.49,0.0,0.02,3.1402783,0,nan,nan,3,0,10
721968000,0,473977163,85452824,498114,0,0.25,0.0,1.0,1.0,0.0,0.0,0,0,3.3,-3.31,0.03,0.07,3.1320755,0,nan,nan,3,0,10
722168000,0,473977103,85452824,498100,0,0.25,0.0,1.0,1.0,0.0,0.0,0,0,3.12,-3.1399999,0.0,0.01,3.1406274,0,nan,nan,3,0,10
722368000,0,473977047,85452825,498106,0,0.25,0.0,1.0,1.0,0.0,0.0,0,0,2.96,-2.97,0.02,0.02,3.1339955,0,nan,nan,3,0,10
722568000,0,473976994,85452826,498089,0,0.25,0.0,1.0,1.0,0.0,0.0,0,0,2.8,-2.82,0.01,0.04,3.136788,0,nan,nan,3,0,10
722768000,0,473976944,85452827,498077,0,0.25,0.0,1.0,1.0,0.0,0.0,0,0,2.6599998,-2.6699998,0.02,0.049999997,3.1327736,0,nan,nan,3,0,10
723068000,0,473976896,85452827,498074,0,0.25,0.0,1.0,1.0,0.0,0.0,0,0,2.53,-2.53,0.04,0.02,3.1254435,0,nan,nan,3,0,10
723268000,0,473976850,85452828,498071,0,0.25,0.0,1.0,1.0,0.0,0.0,0,0,2.3999999,-2.3999999,0.03,0.049999997,3.1264908,0,nan,nan,3,0,10
723468000,0,473976807,85452828,498064,0,0.25,0.0,1.0,1.0,0.0,0.0,0,0,2.27,-2.29,0.04,0.0,3.122651,0,nan,nan,3,0,10
723668000,0,473976767,85452829,498073,0,0.25,0.0,1.0,1.0,0.0,0.0,0,0,2.1499999,-2.1399999,0.03,0.0,3.1235237,0,nan,nan,3,0,10
723868000,0,473976727,85452830,498057,0,0.25,0.0,1.0,1.0,0.0,0.0,0,0,2.05,-2.04,0.01,0.03,3.1357408,0,nan,nan,3,0,10
724068000,0,473976691,85452830,498063,0,0.25,0.0,1.0,1.0,0.0,0.0,0,0,1.9399999,-1.93,0.03,-0.049999997,3.121953,0,nan,nan,3,0,10
724268000,0,473976657,85452831,498066,0,0.25,0.0,1.0,1.0,0.0,0.0,0,0,1.8399999,-1.86,0.02,0.01,3.1280615,0,nan,nan,3,0,10
724468000,0,473976623,85452832,498068,0,0.25,0.0,1.0,1.0,0.0,0.0,0,0,1.76,-1.77,0.02,0.06,3.1299813,0,nan,nan,3,0,10
724668000,0,473976592,85452833,498076,0,0.25,0.0,1.0,1.0,0.0,0.0,0,0,1.66,-1.65,0.0,0.04,3.138533,0,nan,nan,3,0,10
724868000,0,473976561,85452833,498068,0,0.25,0.0,1.0,1.0,0.0,0.0,0,0,1.5699999,-1.5899999,0.01,-0.02,3.1310284,0,nan,nan,3,0,10
725068000,0,473976533,85452834,498068,0,0.25,0.0,1.0,1.0,0.0,0.0,0,0,1.49,-1.49,0.01,0.02,3.1296322,0,nan,nan,3,0,10
725268000,0,473976507,85452834,498075,0,0.25,0.0,1.0,1.0,0.0,0.0,0,0,1.41,-1.41,0.02,0.0,3.1202078,0,nan,nan,3,0,10
725468000,0,473976482,85452834,498076,0,0.25,0.0,1.0,1.0,0.0,0.0,0,0,1.3299999,-1.3299999,0.01,-0.01,3.1291087,0,nan,nan,3,0,10
725668000,0,473976457,85452835,498082,0,0.25,0.0,1.0,1.0,0.0,0.0,0,0,1.25,-1.26,0.03,0.03,3.11567,0,nan,nan,3,0,10
725868000,0,473976435,85452835,498074,0,0.25,0.0,1.0,1.0,0.0,0.0,0,0,1.18,-1.18,0.02,0.0,3.1202078,0,nan,nan,3,0,10
726068000,0,473976414,85452836,498083,0,0.25,0.0,1.0,1.0,0.0,0.0,0,0,1.11,-1.11,0.0,0.04,3.1421983,0,nan,nan,3,0,10
726268000,0,473976394,85452837,498082,0,0.25,0.0,1.0,1.0,0.0,0.0,0,0,1.05,-1.0699999,0.0,-0.03,3.1383586,0,nan,nan,3,0,10
726468000,0,473976375,85452837,498088,0,0.25,0.0,1.0,1.0,0.0,0.0,0,0,0.97999996,-1.0,0.01,0.0,3.1287596,0,nan,nan,3,0,10
726668000,0,473976358,85452837,498090,0,0.25,0.0,1.0,1.0,0.0,0.0,0,0,0.91999996,-0.95,0.01,0.0,3.1224766,0,nan,nan,3,0,10
726868000,0,473976342,85452837,498083,0,0.25,0.0,1.0,1.0,0.0,0.0,0,0,0.85999995,-0.85999995,0.0,0.01,3.1306794,0,nan,nan,3,0,10
727068000,0,473976326,85452838,498080,0,0.25,0.0,1.0,1.0,0.0,0.0,0,0,0.79999995,-0.79999995,0.0,-0.02,3.1348681,0,nan,nan,3,0,10
727268000,0,473976312,85452838,498073,0,0.25,0.0,1.0,1.0,0.0,0.0,0,0,0.75,-0.75,0.01,0.0,3.1161935,0,nan,nan,3,0,10
727468000,0,473976299,85452838,498066,0,0.25,0.0,1.0,1.0,0.0,0.0,0,0,0.7,-0.71999997,0.02,-0.02,3.1095614,0,nan,nan,3,0,10
727668000,0,473976285,85452839,498077,0,0.25,0.0,1.0,1.0,0.0,0.0,0,0,0.74,-0.75,0.02,0.0,3.110085,0,nan,nan,3,0,10
727868000,0,473976269,85452839,498085,0,0.25,0.0,1.0,1.0,0.0,0.0,0,0,1.04,-1.04,0.0,0.0,3.1439435,0,nan,nan,3,0,10
728168000,0,473976245,85452839,498093,0,0.25,0.0,1.0,1.0,0.0,0.0,0,0,1.5699999,-1.5899999,0.0,0.0,3.1390567,0,nan,nan,3,0,10
728368000,0,473976210,85452839,498095,0,0.25,0.0,1.0,1.0,0.0,0.0,0,0,2.1399999,-2.1399999,0.0,0.03,3.1394057,0,nan,nan,3,0,10
728568000,0,473976167,85452839,498087,0,0.25,0.0,1.0,1.0,0.0,0.0,0,0,2.62,-2.61,-0.02,0.0,3.150052,0,nan,nan,3,0,10
728768000,0,473976115,85452838,498077,0,0.25,0.0,1.0,1.0,0.0,0.0,0,0,2.8999999,-2.8899999,-0.01,0.01,3.1451652,0,nan,nan,3,0,10
728968000,0,473976061,85452838,498074,0,0.25,0.0,1.0,1.0,0.0,0.0,0,0,2.8999999,-2.87,-0.01,0.04,3.1460378,0,nan,nan,3,0,10
729168000,0,473976010,85452837,498066,0,0.25,0.0,1.0,1.0,0.0,0.0,0,0,2.7,-2.71,-0.02,0.0,3.1495285,0,nan,nan,3,0,10
729368000,0,473975963,85452837,498070,0,0.25,0.0,1.0,1.0,0.0,0.0,0,0,2.49,-2.49,0.01,0.04,3.1357408,0,nan,nan,3,0,10
729568000,0,473975917,85452836,498062,0,0.25,0.0,1.0,1.0,0.0,0.0,0,0,2.34,-2.33,0.0,0.0,3.143071,0,nan,nan,3,0,10
729768000,0,473975875,85452835,498054,0,0.25,0.0,1.0,1.0,0.0,0.0,0,0,2.22,-2.22,0.0,0.04,3.1423728,0,nan,nan,3,0,10
729968000,0,473975836,85452835,498046,0,0.25,0.0,1.0,1.0,0.0,0.0,0,0,2.1,-2.12,-0.03,0.04,3.1565094,0,nan,nan,3,0,10
730168000,0,473975799,85452835,498054,0,0.25,0.0,1.0,1.0,0.0,0.0,0,0,1.99,-1.9799999,-0.02,0.02,3.1535425,0,nan,nan,3,0,10
730368000,0,473975763,85452833,498059,0,0.25,0.0,1.0,1.0,0.0,0.0,0,0,1.88,-1.87,-0.049999997,0.04,3.169599,0,nan,nan,3,0,10
730568000,0,473975729,85452832,498037,0,0.25,0.0,1.0,1.0,0.0,0.0,0,0,1.77,-1.77,-0.049999997,0.02,3.1704717,0,nan,nan,3,0,10
730768000,0,473975697,85452832,498045,0,0.25,0.0,1.0,1.0,0.0,0.0,0,0,1.67,-1.66,-0.03,-0.049999997,3.1622689,0,nan,nan,3,0,10
730968000,0,473975668,85452832,498047,0,0.25,0.0,1.0,1.0,0.0,0.0,0,0,1.5699999,-1.56,-0.02,0.0,3.1577313,0,nan,nan,3,0,10
731168000,0,473975639,85452831,498053,0,0.25,0.0,1.0,1.0,0.0,0.0,0,0,1.48,-1.48,-0.03,0.02,3.1624434,0,nan,nan,3,0,10
731368000,0,473975612,85452830,498053,0,0.25,0.0,1.0,1.0,0.0,0.0,0,0,1.39,-1.39,-0.02,0.03,3.1594765,0,nan,nan,3,0,10
731568000,0,473975588,85452829,498051,0,0.25,0.0,1.0,1.0,0.0,0.0,0,0,1.31,-1.3199999,-0.04,0.0,3.1732643,0,nan,nan,3,0,10
731768000,0,473975564,85452828,498060,0,0.25,0.0,1.0,1.0,0.0,0.0,0,0,1.23,-1.23,-0.03,0.0,3.1715188,0,nan,nan,3,0,10
731968000,0,473975542,85452828,498050,0,0.25,0.0,1.0,1.0,0.0,0.0,0,0,1.15,-1.16,-0.04,-0.06,3.1786745,0,nan,nan,3,0,10
732168000,0,473975522,85452826,498048,0,0.25,0.0,1.0,1.0,0.0,0.0,0,0,1.0799999,-1.06,-0.03,-0.04,3.1739624,0,nan,nan,3,0,10
732368000,0,473975503,85452825,498055,0,0.25,0.0,1.0,1.0,0.0,0.0,0,0,1.01,-0.98999995,-0.02,-0.089999996,3.1704717,0,nan,nan,3,0,10
732568000,0,473975485,85452825,498057,0,0.25,0.0,1.0,1.0,0.0,0.0,0,0,0.94,-0.96999997,-0.03,0.0,3.1734388,0,nan,nan,3,0,10
732768000,0,473975469,85452823,498062,0,0.25,0.0,1.0,1.0,0.0,0.0,0,0,0.88,-0.9,-0.04,0.0,3.1915896,0,nan,nan,3,0,10
732968000,0,473975452,85452822,498067,0,0.25,0.0,1.0,1.0,0.0,0.0,0,0,0.83,-0.83,-0.01,-0.089999996,3.1591275,0,nan,nan,3,0,10
733268000,0,473975438,85452821,498074,0,0.25,0.0,1.0,1.0,0.0,0.0,0,0,0.77,-0.75,-0.03,-0.03,3.1867027,0,nan,nan,3,0,10
733468000,0,473975424,85452820,498080,0,0.25,0.0,1.0,1.0,0.0,0.0,0,0,0.71999997,-0.71999997,-0.04,-0.01,3.207297,0,nan,nan,3,0,10
733668000,0,473975410,85452819,498080,0,0.25,0.0,1.0,1.0,0.0,0.0,0,0,0.7,-0.72999996,0.0,-0.02,3.153368,0,nan,nan,3,0,10
733868000,0,473975396,85452822,498098,0,0.25,0.0,1.0,1.0,0.0,0.0,0,0,0.84999996,-0.79999995,0.22,-0.04,2.8748217,0,nan,nan,3,0,10
734068000,0,473975380,85452833,498102,0,0.25,0.0,1.0,1.0,0.0,0.0,0,0,1.23,-1.02,0.65999997,-0.02,2.5683508,0,nan,nan,3,0,10
734268000,0,473975358,85452857,498118,0,0.25,0.0,1.0,1.0,0.0,0.0,0,0,1.68,-1.27,1.13,-0.02,2.4170353,0,nan,nan,3,0,10
734468000,0,473975334,85452892,498106,0,0.25,0.0,1.0,1.0,0.0,0.0,0,0,1.9699999,-1.3199999,1.4399999,-0.049999997,2.3103988,0,nan,nan,3,0,10
734668000,0,473975309,85452935,498115,0,0.25,0.0,1.0,1.0,0.0,0.0,0,0,2.05,-1.26,1.5999999,-0.03,2.238319,0,nan,nan,3,0,10
734868000,0,473975287,85452979,498113,0,0.25,0.0,1.0,1.0,0.0,0.0,0,0,1.9599999,-1.18,1.5799999,-0.01,2.210569,0,nan,nan,3,0,10
735068000,0,473975267,85453018,498120,0,0.25,0.0,1.0,1.0,0.0,0.0,0,0,1.74,-1.02,1.42,-0.01,2.1966066,0,nan,nan,3,0,10
735268000,0,473975250,85453054,498128,0,0.25,0.0,1.0,1.0,0.0,0.0,0,0,1.4699999,-0.82,1.1999999,0.0,2.1711257,0,nan,nan,3,0,10
735468000,0,473975236,85453086,498143,0,0.25,0.0,1.0,1.0,0.0,0.0,0,0,1.3299999,-0.66999996,1.11,-0.049999997,2.1147532,0,nan,nan,3,0,10
735668000,0,473975223,85453116,498154,0,0.25,0.0,1.0,1.0,0.0,0.0,0,0,1.28,-0.62,1.0799999,-0.04,2.0890975,0,nan,nan,3,0,10
735868000,0,473975212,85453146,498156,0,0.25,0.0,1.0,1.0,0.0,0.0,0,0,1.1999999,-0.56,1.04,-0.04,2.0616968,0,nan,nan,3,0,10
736068000,0,473975202,85453174,498165,0,0.25,0.0,1.0,1.0,0.0,0.0,0,0,1.13,-0.51,1.02,-0.07,2.0334232,0,nan,nan,3,0,10
736268000,0,473975193,85453201,498179,0,0.25,0.0,1.0,1.0,0.0,0.0,0,0,1.0699999,-0.45,0.97999996,-0.08,2.0023572,0,nan,nan,3,0,10
736468000,0,473975185,85453226,498189,0,0.25,0.0,1.0,1.0,0.0,0.0,0,0,1.02,-0.39999998,0.93,-0.03,1.9828101,0,nan,nan,3,0,10
736668000,0,473975178,85453252,498200,0,0.25,0.0,1.0,1.0,0.0,0.0,0,0,0.96,-0.38,0.9,-0.08,1.9740838,0,nan,nan,3,0,10
736868000,0,473975171,85453275,498204,0,0.25,0.0,1.0,1.0,0.0,0.0,0,0,0.91999996,-0.34,0.85999995,-0.06,1.9529659,0,nan,nan,3,0,10
737068000,0,473975165,85453298,498219,0,0.25,0.0,1.0,1.0,0.0,0.0,0,0,0.85999995,-0.28,0.81,-0.04,1.9112538,0,nan,nan,3,0,10
737268000,0,473975160,85453320,498222,0,0.25,0.0,1.0,1.0,0.0,0.0,0,0,0.81,-0.26999998,0.78999996,-0.03,1.9072397,0,nan,nan,3,0,10
737468000,0,473975156,85453340,498222,0,0.25,0.0,1.0,1.0,0.0,0.0,0,0,0.77,-0.26,0.72999996,-0.049999997,1.9133481,0,nan,nan,3,0,10
737668000,0,473975150,85453360,498228,0,0.25,0.0,1.0,1.0,0.0,0.0,0,0,0.72999996,-0.22999999,0.7,-0.04,1.8934519,0,nan,nan,3,0,10
737868000,0,473975147,85453378,498230,0,0.25,0.0,1.0,1.0,0.0,0.0,0,0,0.69,-0.21,0.65,-0.02,1.8855982,0,nan,nan,3,0,10
738168000,0,473975144,85453395,498232,0,0.25,0.0,1.0,1.0,0.0,0.0,0,0,0.65,-0.17,0.62,-0.06,1.8362068,0,nan,nan,3,0,10
738368000,0,473975140,85453412,498244,0,0.25,0.0,1.0,1.0,0.0,0.0,0,0,0.61,-0.14999999,0.59999996,-0.03,1.8159616,0,nan,nan,3,0,10
738568000,0,473975138,85453429,498250,0,0.25,0.0,1.0,1.0,0.0,0.0,0,0,0.59999996,-0.04,0.59999996,-0.03,1.6508583,0,nan,nan,3,0,10
738768000,0,473975140,85453446,498261,0,0.25,0.0,1.0,1.0,0.0,0.0,0,0,0.65999997,0.21,0.62,-0.049999997,1.2426379,0,nan,nan,3,0,10
738968000,0,473975147,85453463,498273,0,0.25,0.0,1.0,1.0,0.0,0.0,0,0,0.84,0.53,0.64,0.01,0.87351155,0,nan,nan,3,0,10
739168000,0,473975159,85453481,498275,0,0.25,0.0,1.0,1.0,0.0,0.0,0,0,1.1,0.88,0.65,-0.07,0.6384226,0,nan,nan,3,0,10
739368000,0,473975178,85453500,498272,0,0.25,0.0,1.0,1.0,0.0,0.0,0,0,1.39,1.1899999,0.7,0.01,0.5335314,0,nan,nan,3,0,10
739568000,0,473975204,85453519,498273,0,0.25,0.0,1.0,1.0,0.0,0.0,0,0,1.68,1.53,0.7,0.0,0.42759308,0,nan,nan,3,0,10
739768000,0,473975236,85453538,498262,0,0.25,0.0,1.0,1.0,0.0,0.0,0,0,1.9499999,1.8299999,0.68,0.01,0.35656026,0,nan,nan,3,0,10
739968000,0,473975271,85453555,498259,0,0.25,0.0,1.0,1.0,0.0,0.0,0,0,2.1699998,2.1,0.61,0.03,0.28378218,0,nan,nan,3,0,10
740168000,0,473975311,85453569,498253,0,0.25,0.0,1.0,1.0,0.0,0.0,0,0,2.27,2.2,0.53,0.06,0.2361361,0,nan,nan,3,0,10
740368000,0,473975352,85453582,498236,0,0.25,0.0,1.0,1.0,0.0,0.0,0,0,2.24,2.21,0.44,0.03,0.1991362,0,nan,nan,3,0,10
740568000,0,473975391,85453593,498219,0,0.25,0.0,1.0,1.0,0.0,0.0,0,0,2.11,2.08,0.37,0.08,0.17871645,0,nan,nan,3,0,10
740768000,0,473975428,85453603,498221,0,0.25,0.0,1.0,1.0,0.0,0.0,0,0,1.93,1.9,0.32,-0.01,0.1689429,0,nan,nan,3,0,10
740968000,0,473975462,85453611,498229,0,0.25,0.0,1.0,1.0,0.0,0.0,0,0,1.78,1.77,0.26999998,0.01,0.15218823,0,nan,nan,3,0,10
741168000,0,473975493,85453618,498227,0,0.25,0.0,1.0,1.0,0.0,0.0,0,0,1.67,1.68,0.22,0.0,0.13089584,0,nan,nan,3,0,10
741368000,0,473975523,85453624,498217,0,0.25,0.0,1.0,1.0,0.0,0.0,0,0,1.5799999,1.54,0.19999999,0.0,0.12984867,0,nan,nan,3,0,10
741568000,0,473975550,85453629,498212,0,0.25,0.0,1.0,1.0,0.0,0.0,0,0,1.49,1.48,0.19,0.02,0.12775433,0,nan,nan,3,0,10
741768000,0,473975577,85453634,498210,0,0.25,0.0,1.0,1.0,0.0,0.0,0,0,1.41,1.4,0.16,0.03,0.113792114,0,nan,nan,3,0,10
741968000,0,473975603,85453637,498203,0,0.25,0.0,1.0,1.0,0.0,0.0,0,0,1.3399999,1.3399999,0.14999999,0.03,0.11658456,0,nan,nan,3,0,10
742168000,0,473975627,85453641,498200,0,0.25,0.0,1.0,1.0,0.0,0.0,0,0,1.27,1.27,0.12,0.0,0.098782726,0,nan,nan,3,0,10
742368000,0,473975649,85453645,498195,0,0.25,0.0,1.0,1.0,0.0,0.0,0,0,1.2099999,1.18,0.08,0.0,0.073476195,0,nan,nan,3,0,10
742568000,0,473975671,85453648,498195,0,0.25,0.0,1.0,1.0,0.0,0.0,0,0,1.15,1.15,0.06,0.02,0.05916492,0,nan,nan,3,0,10
742768000,0,473975692,85453650,498198,0,0.25,0.0,1.0,1.0,0.0,0.0,0,0,1.1,1.1,0.089999996,0.0,0.086216725,0,nan,nan,3,0,10
742968000,0,473975711,85453652,498186,0,0.25,0.0,1.0,1.0,0.0,0.0,0,0,1.04,1.04,0.089999996,0.02,0.08778747,0,nan,nan,3,0,10
743168000,0,473975731,85453654,498191,0,0.25,0.0,1.0,1.0,0.0,0.0,0,0,0.98999995,0.98999995,0.049999997,0.0,0.05986303,0,nan,nan,3,0,10
743468000,0,473975749,85453655,498206,0,0.25,0.0,1.0,1.0,0.0,0.0,0,0,0.94,0.94,0.02,-0.02,0.022514084,0,nan,nan,3,0,10
743668000,0,473975765,85453656,498204,0,0.25,0.0,1.0,1.0,0.0,0.0,0,0,0.9,0.88,0.049999997,0.03,0.067367725,0,nan,nan,3,0,10
743868000,0,473975782,85453658,498205,0,0.25,0.0,1.0,1.0,0.0,0.0,0,0,0.85999995,0.84999996,0.049999997,-0.01,0.05829228,0,nan,nan,3,0,10
744068000,0,473975797,85453659,498203,0,0.25,0.0,1.0,1.0,0.0,0.0,0,0,0.82,0.79999995,0.02,0.01,0.03699989,0,nan,nan,3,0,10
744268000,0,473975812,85453660,498208,0,0.25,0.0,1.0,1.0,0.0,0.0,0,0,0.78,0.78999996,0.04,-0.01,0.055674363,0,nan,nan,3,0,10
744468000,0,473975826,85453661,498215,0,0.25,0.0,1.0,1.0,0.0,0.0,0,0,0.75,0.72999996,0.03,-0.01,0.048344195,0,nan,nan,3,0,10
744668000,0,473975839,85453661,498207,0,0.25,0.0,1.0,1.0,0.0,0.0,0,0,0.71,0.69,0.02,-0.02,0.032811224,0,nan,nan,3,0,10
744868000,0,473975852,85453662,498216,0,0.25,0.0,1.0,1.0,0.0,0.0,0,0,0.68,0.69,0.02,0.0,0.04101403,0,nan,nan,3,0,10
745068000,0,473975864,85453662,498217,0,0.25,0.0,1.0,1.0,0.0,0.0,0,0,0.64,0.65,0.01,0.02,0.023037668,0,nan,nan,3,0,10
745268000,0,473975876,85453663,498228,0,0.25,0.0,1.0,1.0,0.0,0.0,0,0,0.61,0.62,0.02,-0.049999997,0.042061195,0,nan,nan,3,0,10
745468000,0,473975887,85453663,498224,0,0.25,0.0,1.0,1.0,0.0,0.0,0,0,0.58,0.59999996,0.0,-0.01,0.0031415,0,nan,nan,3,0,10
745668000,0,473975898,85453664,498237,0,0.25,0.0,1.0,1.0,0.0,0.0,0,0,0.55,0.55,0.0,0.0,6.278637,0,nan,nan,3,0,10
745868000,0,473975907,85453664,498238,0,0.25,0.0,1.0,1.0,0.0,0.0,0,0,0.53,0.53,-0.01,-0.02,6.255425,0,nan,nan,3,0,10
746068000,0,473975918,85453664,498237,0,0.25,0.0,1.0,1.0,0.0,0.0,0,0,0.62,0.61,0.0,-0.02,6.279335,0,nan,nan,3,0,10
746268000,0,473975932,85453664,498236,0,0.25,0.0,1.0,1.0,0.0,0.0,0,0,0.94,0.94,0.0,0.02,6.282651,0,nan,nan,3,0,10
746468000,0,473975953,85453663,498243,0,0.25,0.0,1.0,1.0,0.0,0.0,0,0,1.39,1.38,-0.03,-0.01,6.258043,0,nan,nan,3,0,10
746668000,0,473975983,85453663,498252,0,0.25,0.0,1.0,1.0,0.0,0.0,0,0,1.8499999,1.86,-0.01,-0.02,6.273576,0,nan,nan,3,0,10
746868000,0,473976022,85453662,498256,0,0.25,0.0,1.0,1.0,0.0,0.0,0,0,2.28,2.26,-0.03,-0.03,6.2665944,0,nan,nan,3,0,10
747068000,0,473976068,85453662,498267,0,0.25,0.0,1.0,1.0,0.0,0.0,0,0,2.69,2.69,-0.02,0.01,6.274274,0,nan,nan,3,0,10
747268000,0,473976120,85453662,498268,0,0.25,0.0,1.0,1.0,0.0,0.0,0,0,3.07,3.06,-0.01,0.0,6.2788115,0,nan,nan,3,0,10
747468000,0,473976181,85453662,498266,0,0.25,0.0,1.0,1.0,0.0,0.0,0,0,3.4399998,3.46,-0.03,0.0,6.2732267,0,nan,nan,3,0,10
747668000,0,473976248,85453661,498267,0,0.25,0.0,1.0,1.0,0.0,0.0,0,0,3.79,3.78,-0.04,0.06,6.2718306,0,nan,nan,3,0,10
747868000,0,473976319,85453660,498256,0,0.25,0.0,1.0,1.0,0.0,0.0,0,0,4.08,4.08,0.0,0.02,6.2810802,0,nan,nan,3,0,10
748068000,0,473976396,85453660,498249,0,0.25,0.0,1.0,1.0,0.0,0.0,0,0,4.18,4.19,0.0,0.049999997,6.2809057,0,nan,nan,3,0,10
748368000,0,473976474,85453660,498248,0,0.25,0.0,1.0,1.0,0.0,0.0,0,0,4.14,4.17,0.0,-0.01,6.2810802,0,nan,nan,3,0,10
748568000,0,473976550,85453660,498248,0,0.25,0.0,1.0,1.0,0.0,0.0,0,0,4.13,4.15,-0.03,0.03,6.275321,0,nan,nan,3,0,10
748768000,0,473976627,85453660,498242,0,0.25,0.0,1.0,1.0,0.0,0.0,0,0,4.17,4.19,0.0,-0.03,0.0005235834,0,nan,nan,3,0,10
748968000,0,473976702,85453659,498236,0,0.25,0.0,1.0,1.0,0.0,0.0,0,0,4.18,4.17,0.0,0.04,6.2821274,0,nan,nan,3,0,10
749168000,0,473976779,85453658,498232,0,0.25,0.0,1.0,1.0,0.0,0.0,0,0,4.19,4.18,-0.02,0.0,6.27759,0,nan,nan,3,0,10
749368000,0,473976858,85453658,498229,0,0.25,0.0,1.0,1.0,0.0,0.0,0,0,4.23,4.22,0.0,0.04,6.281604,0,nan,nan,3,0,10
749568000,0,473976936,85453658,498214,0,0.25,0.0,1.0,1.0,0.0,0.0,0,0,4.25,4.2599998,-0.01,0.01,6.279684,0,nan,nan,3,0,10
749768000,0,473977013,85453657,498215,0,0.25,0.0,1.0,1.0,0.0,0.0,0,0,4.2599998,4.24,-0.03,0.01,6.274274,0,nan,nan,3,0,10
749968000,0,473977093,85453657,498210,0,0.25,0.0,1.0,1.0,0.0,0.0,0,0,4.2799997,4.29,0.0,0.03,6.2810802,0,nan,nan,3,0,10
750168000,0,473977172,85453657,498201,0,0.25,0.0,1.0,1.0,0.0,0.0,0,0,4.2999997,4.3199997,-0.02,0.06,6.2772408,0,nan,nan,3,0,10
750368000,0,473977250,85453656,498188,0,0.25,0.0,1.0,1.0,0.0,0.0,0,0,4.2999997,4.2799997,-0.02,0.03,6.276717,0,nan,nan,3,0,10
750568000,0,473977329,85453656,498189,0,0.25,0.0,1.0,1.0,0.0,0.0,0,0,4.31,4.2999997,-0.02,-0.02,6.276717,0,nan,nan,3,0,10
750768000,0,473977410,85453656,498177,0,0.25,0.0,1.0,1.0,0.0,0.0,0,0,4.3199997,4.31,-0.01,0.03,6.2795095,0,nan,nan,3,0,10
750968000,0,473977489,85453655,498163,0,0.25,0.0,1.0,1.0,0.0,0.0,0,0,4.3199997,4.31,-0.01,0.06,6.278637,0,nan,nan,3,0,10
751168000,0,473977569,85453655,498152,0,0.25,0.0,1.0,1.0,0.0,0.0,0,0,4.33,4.33,-0.01,0.02,6.279684,0,nan,nan,3,0,10
751368000,0,473977647,85453655,498143,0,0.25,0.0,1.0,1.0,0.0,0.0,0,0,4.35,4.33,0.0,0.03,6.281604,0,nan,nan,3,0,10
751568000,0,473977728,85453655,498132,0,0.25,0.0,1.0,1.0,0.0,0.0,0,0,4.36,4.38,0.0,0.07,6.2810802,0,nan,nan,3,0,10
751768000,0,473977810,85453654,498118,0,0.25,0.0,1.0,1.0,0.0,0.0,0,0,4.36,4.35,-0.01,0.049999997,6.2795095,0,nan,nan,3,0,10
751968000,0,473977891,85453655,498107,0,0.25,0.0,1.0,1.0,0.0,0.0,0,0,4.37,4.36,0.0,0.04,0.0012216945,0,nan,nan,3,0,10
752168000,0,473977969,85453655,498088,0,0.25,0.0,1.0,1.0,0.0,0.0,0,0,4.38,4.4,0.0,0.04,6.2809057,0,nan,nan,3,0,10
752368000,0,473978052,85453655,498069,0,0.25,0.0,1.0,1.0,0.0,0.0,0,0,4.38,4.37,0.0,0.11,0.0020943335,0,nan,nan,3,0,10
752568000,0,473978133,85453655,498063,0,0.25,0.0,1.0,1.0,0.0,0.0,0,0,4.38,4.36,0.01,0.089999996,0.0034905556,0,nan,nan,3,0,10
752768000,0,473978211,85453655,498055,0,0.25,0.0,1.0,1.0,0.0,0.0,0,0,4.39,4.37,0.01,0.08,0.004188667,0,nan,nan,3,0,10
752968000,0,473978293,85453656,498037,0,0.25,0.0,1.0,1.0,0.0,0.0,0,0,4.39,4.4,-0.01,0.01,6.2805567,0,nan,nan,3,0,10
753168000,0,473978375,85453656,498020,0,0.25,0.0,1.0,1.0,0.0,0.0,0,0,4.4,4.39,0.01,0.07,0.0033160278,0,nan,nan,3,0,10
753368000,0,473978456,85453656,498016,0,0.25,0.0,1.0,1.0,0.0,0.0,0,0,4.41,4.41,0.0,0.089999996,6.282651,0,nan,nan,3,0,10
753668000,0,473978538,85453657,498007,0,0.25,0.0,1.0,1.0,0.0,0.0,0,0,4.42,4.42,0.0,0.07,0.0010471668,0,nan,nan,3,0,10
753868000,0,473978617,85453657,497985,0,0.25,0.0,1.0,1.0,0.0,0.0,0,0,4.43,4.44,0.01,0.03,0.002443389,0,nan,nan,3,0,10
754068000,0,473978699,85453658,497972,0,0.25,0.0,1.0,1.0,0.0,0.0,0,0,4.43,4.42,0.01,0.03,0.0038396113,0,nan,nan,3,0,10
754268000,0,473978782,85453658,497972,0,0.25,0.0,1.0,1.0,0.0,0.0,0,0,4.46,4.45,0.01,0.08,0.0027924445,0,nan,nan,3,0,10
754468000,0,473978865,85453658,497963,0,0.25,0.0,1.0,1.0,0.0,0.0,0,0,4.48,4.49,-0.01,0.04,6.278986,0,nan,nan,3,0,10
754668000,0,473978946,85453658,497961,0,0.25,0.0,1.0,1.0,0.0,0.0,0,0,4.5,4.5,0.02,0.04,0.004886778,0,nan,nan,3,0,10
754868000,0,473979030,85453659,497959,0,0.25,0.0,1.0,1.0,0.0,0.0,0,0,4.52,4.52,0.01,0.01,0.0026179168,0,nan,nan,3,0,10
755068000,0,473979114,85453659,497953,0,0.25,0.0,1.0,1.0,0.0,0.0,0,0,4.5299997,4.54,0.0,0.0,0.00069811114,0,nan,nan,3,0,10
755268000,0,473979196,85453660,497953,0,0.25,0.0,1.0,1.0,0.0,0.0,0,0,4.54,4.5499997,0.0,0.02,0.0,0,nan,nan,3,0,10
755468000,0,473979280,85453660,497944,0,0.25,0.0,1.0,1.0,0.0,0.0,0,0,4.5499997,4.52,0.0,0.02,6.2810802,0,nan,nan,3,0,10
755668000,0,473979366,85453661,497941,0,0.25,0.0,1.0,1.0,0.0,0.0,0,0,4.56,4.54,0.01,0.01,0.0038396113,0,nan,nan,3,0,10
755868000,0,473979449,85453661,497933,0,0.25,0.0,1.0,1.0,0.0,0.0,0,0,4.5699997,4.58,0.0,0.04,0.0010471668,0,nan,nan,3,0,10
756068000,0,473979534,85453662,497934,0,0.25,0.0,1.0,1.0,0.0,0.0,0,0,4.5699997,4.5899997,0.01,0.01,0.0036650836,0,nan,nan,3,0,10
756268000,0,473979616,85453662,497917,0,0.25,0.0,1.0,1.0,0.0,0.0,0,0,4.5699997,4.5899997,0.01,-0.01,0.0036650836,0,nan,nan,3,0,10
756468000,0,473979700,85453663,497921,0,0.25,0.0,1.0,1.0,0.0,0.0,0,0,4.5699997,4.5699997,0.01,0.0,0.0026179168,0,nan,nan,3,0,10
756668000,0,473979786,85453664,497930,0,0.25,0.0,1.0,1.0,0.0,0.0,0,0,4.5699997,4.56,0.0,-0.01,0.0017452778,0,nan,nan,3,0,10
756868000,0,473979870,85453664,497931,0,0.25,0.0,1.0,1.0,0.0,0.0,0,0,4.58,4.5899997,0.01,-0.01,0.0020943335,0,nan,nan,3,0,10
757068000,0,473979953,85453664,497928,0,0.25,0.0,1.0,1.0,0.0,0.0,0,0,4.58,4.5899997,0.0,-0.01,0.0017452778,0,nan,nan,3,0,10
