timestamp,noutputs,output[0],output[1],output[2],output[3],output[4],output[5],output[6],output[7],output[8],output[9],output[10],output[11],output[12],output[13],output[14],output[15]
657300000,6,900.0,900.0,900.0,900.0,900.0,900.0,nan,nan,nan,nan,nan,nan,nan,nan,nan,nan
657396000,6,1478.4387,1522.2509,1506.194,1493.4989,1500.0,1500.0,nan,nan,nan,nan,nan,nan,nan,nan,nan,nan
657496000,6,1498.5253,1537.479,1538.8242,1496.1711,1500.0,1500.0,nan,nan,nan,nan,nan,nan,nan,nan,nan,nan
657596000,6,1554.2947,1594.5961,1586.5278,1564.2875,1500.0,1500.0,nan,nan,nan,nan,nan,nan,nan,nan,nan,nan
657696000,6,1628.9539,1636.3711,1617.3457,1650.2498,1500.0,1500.0,nan,nan,nan,nan,nan,nan,nan,nan,nan,nan
657796000,6,1657.2345,1648.8671,1649.064,1654.4586,1500.0,1500.0,nan,nan,nan,nan,nan,nan,nan,nan,nan,nan
657896000,6,1679.7556,1677.4897,1677.3333,1676.1586,1500.0,1500.0,nan,nan,nan,nan,nan,nan,nan,nan,nan,nan
657996000,6,1685.1404,1702.6141,1690.3617,1694.1992,1500.0,1500.0,nan,nan,nan,nan,nan,nan,nan,nan,nan,nan
658096000,6,1699.1694,1697.0106,1699.2097,1698.6904,1500.0,1500.0,nan,nan,nan,nan,nan,nan,nan,nan,nan,nan
658196000,6,1534.668,1543.3362,1531.8359,1544.4293,1500.0,1500.0,nan,nan,nan,nan,nan,nan,nan,nan,nan,nan
658296000,6,1697.17,1691.1283,1696.695,1682.4535,1500.0,1500.0,nan,nan,nan,nan,nan,nan,nan,nan,nan,nan
658396000,6,1506.3534,1494.4454,1497.0895,1504.3901,1500.0,1500.0,nan,nan,nan,nan,nan,nan,nan,nan,nan,nan
658496000,6,1586.1176,1585.6215,1591.0449,1584.0751,1500.0,1500.0,nan,nan,nan,nan,nan,nan,nan,nan,nan,nan
658596000,6,1574.3784,1586.5103,1579.6671,1583.6116,1500.0,1500.0,nan,nan,nan,nan,nan,nan,nan,nan,nan,nan
658696000,6,1576.59,1572.563,1577.2899,1575.6044,1500.0,1500.0,nan,nan,nan,nan,nan,nan,nan,nan,nan,nan
658796000,6,1585.8826,1577.5767,1592.1799,1575.0553,1500.0,1500.0,nan,nan,nan,nan,nan,nan,nan,nan,nan,nan
658896000,6,1578.435,1583.6122,1577.3108,1588.2487,1500.0,1500.0,nan,nan,nan,nan,nan,nan,nan,nan,nan,nan
658996000,6,1589.1887,1575.552,1586.0282,1582.0343,1500.0,1500.0,nan,nan,nan,nan,nan,nan,nan,nan,nan,nan
659096000,6,1585.8499,1569.3502,1577.0292,1583.6016,1500.0,1500.0,nan,nan,nan,nan,nan,nan,nan,nan,nan,nan
659200000,6,1578.5758,1579.8125,1572.9637,1580.9384,1500.0,1500.0,nan,nan,nan,nan,nan,nan,nan,nan,nan,nan
659296000,6,1581.5769,1578.808,1568.0022,1590.4922,1500.0,1500.0,nan,nan,nan,nan,nan,nan,nan,nan,nan,nan
659396000,6,1578.2214,1580.9469,1574.051,1587.0447,1500.0,1500.0,nan,nan,nan,nan,nan,nan,nan,nan,nan,nan
659496000,6,1599.7686,1568.3386,1596.6545,1571.2175,1500.0,1500.0,nan,nan,nan,nan,nan,nan,nan,nan,nan,nan
659596000,6,1586.5232,1574.4043,1581.8157,1575.1481,1500.0,1500.0,nan,nan,nan,nan,nan,nan,nan,nan,nan,nan
659696000,6,1579.8073,1580.0049,1574.3871,1582.3193,1500.0,1500.0,nan,nan,nan,nan,nan,nan,nan,nan,nan,nan
659796000,6,1581.5016,1579.5521,1582.3243,1577.2401,1500.0,1500.0,nan,nan,nan,nan,nan,nan,nan,nan,nan,nan
659896000,6,1579.8087,1582.5856,1584.1029,1580.8151,1500.0,1500.0,nan,nan,nan,nan,nan,nan,nan,nan,nan,nan
659996000,6,1569.6113,1594.8508,1570.4791,1597.1567,1500.0,1500.0,nan,nan,nan,nan,nan,nan,nan,nan,nan,nan
660096000,6,1588.9475,1578.3604,1585.2305,1588.0012,1500.0,1500.0,nan,nan,nan,nan,nan,nan,nan,nan,nan,nan
660196000,6,1588.4718,1571.2113,1565.9155,1589.7797,1500.0,1500.0,nan,nan,nan,nan,nan,nan,nan,nan,nan,nan
660296000,6,1586.7252,1573.2092,1590.3893,1572.5043,1500.0,1500.0,nan,nan,nan,nan,nan,nan,nan,nan,nan,nan
660396000,6,1577.7539,1581.149,1586.4716,1573.9313,1500.0,1500.0,nan,nan,nan,nan,nan,nan,nan,nan,nan,nan
660496000,6,1592.0461,1573.514,1588.5774,1579.0948,1500.0,1500.0,nan,nan,nan,nan,nan,nan,nan,nan,nan,nan
660596000,6,1589.8484,1578.9393,1591.1927,1578.6453,1500.0,1500.0,nan,nan,nan,nan,nan,nan,nan,nan,nan,nan
660696000,6,1571.3981,1594.0325,1577.5294,1595.813,1500.0,1500.0,nan,nan,nan,nan,nan,nan,nan,nan,nan,nan
660796000,6,1581.0967,1579.3192,1574.5011,1588.1101,1500.0,1500.0,nan,nan,nan,nan,nan,nan,nan,nan,nan,nan
660896000,6,1584.9525,1579.1344,1581.065,1583.6115,1500.0,1500.0,nan,nan,nan,nan,nan,nan,nan,nan,nan,nan
661000000,6,1577.9823,1584.7411,1578.5228,1582.2365,1500.0,1500.0,nan,nan,nan,nan,nan,nan,nan,nan,nan,nan
661096000,6,1570.7593,1562.9451,1570.9165,1564.1998,1500.0,1500.0,nan,nan,nan,nan,nan,nan,nan,nan,nan,nan
661196000,6,1575.1154,1556.415,1565.947,1567.8119,1500.0,1500.0,nan,nan,nan,nan,nan,nan,nan,nan,nan,nan
661296000,6,1567.5906,1568.2649,1560.8444,1574.0024,1500.0,1500.0,nan,nan,nan,nan,nan,nan,nan,nan,nan,nan
661400000,6,1569.41,1564.3643,1562.1161,1568.7571,1500.0,1500.0,nan,nan,nan,nan,nan,nan,nan,nan,nan,nan
661496000,6,1558.0825,1568.5342,1556.7368,1568.4207,1500.0,1500.0,nan,nan,nan,nan,nan,nan,nan,nan,nan,nan
661596000,6,1563.359,1564.552,1560.6211,1563.133,1500.0,1500.0,nan,nan,nan,nan,nan,nan,nan,nan,nan,nan
661696000,6,1560.3899,1570.1699,1558.8225,1572.9006,1500.0,1500.0,nan,nan,nan,nan,nan,nan,nan,nan,nan,nan
661796000,6,1570.3286,1566.9283,1569.2935,1568.0157,1500.0,1500.0,nan,nan,nan,nan,nan,nan,nan,nan,nan,nan
661900000,6,1571.2727,1563.3755,1576.0529,1554.4622,1500.0,1500.0,nan,nan,nan,nan,nan,nan,nan,nan,nan,nan
661996000,6,1565.5864,1567.8331,1559.9524,1562.8545,1500.0,1500.0,nan,nan,nan,nan,nan,nan,nan,nan,nan,nan
662100000,6,1562.5822,1570.5261,1567.0724,1562.8572,1500.0,1500.0,nan,nan,nan,nan,nan,nan,nan,nan,nan,nan
662196000,6,1562.4297,1561.5319,1551.8514,1572.5594,1500.0,1500.0,nan,nan,nan,nan,nan,nan,nan,nan,nan,nan
662296000,6,1570.442,1551.432,1560.445,1565.7644,1500.0,1500.0,nan,nan,nan,nan,nan,nan,nan,nan,nan,nan
662400000,6,1557.2657,1568.5536,1559.3771,1562.8643,1500.0,1500.0,nan,nan,nan,nan,nan,nan,nan,nan,nan,nan
662500000,6,1563.9333,1567.402,1570.5737,1555.8817,1500.0,1500.0,nan,nan,nan,nan,nan,nan,nan,nan,nan,nan
662596000,6,1560.3098,1573.8345,1547.9545,1577.7341,1500.0,1500.0,nan,nan,nan,nan,nan,nan,nan,nan,nan,nan
662696000,6,1564.7999,1568.0496,1550.3438,1573.6776,1500.0,1500.0,nan,nan,nan,nan,nan,nan,nan,nan,nan,nan
662796000,6,1560.7039,1566.561,1564.905,1560.955,1500.0,1500.0,nan,nan,nan,nan,nan,nan,nan,nan,nan,nan
662896000,6,1567.7694,1554.0967,1556.7372,1568.8538,1500.0,1500.0,nan,nan,nan,nan,nan,nan,nan,nan,nan,nan
662996000,6,1570.9935,1561.2623,1564.3715,1560.8456,1500.0,1500.0,nan,nan,nan,nan,nan,nan,nan,nan,nan,nan
663096000,6,1565.1158,1567.5078,1566.985,1561.3424,1500.0,1500.0,nan,nan,nan,nan,nan,nan,nan,nan,nan,nan
663200000,6,1557.1765,1570.3462,1560.8131,1571.9939,1500.0,1500.0,nan,nan,nan,nan,nan,nan,nan,nan,nan,nan
663296000,6,1568.4601,1560.5487,1571.9712,1559.4705,1500.0,1500.0,nan,nan,nan,nan,nan,nan,nan,nan,nan,nan
663396000,6,1569.9429,1557.7858,1570.3105,1557.1624,1500.0,1500.0,nan,nan,nan,nan,nan,nan,nan,nan,nan,nan
663500000,6,1561.223,1564.6576,1565.4681,1559.552,1500.0,1500.0,nan,nan,nan,nan,nan,nan,nan,nan,nan,nan
663596000,6,1568.6975,1561.1251,1563.9015,1564.7084,1500.0,1500.0,nan,nan,nan,nan,nan,nan,nan,nan,nan,nan
663700000,6,1570.1488,1560.343,1565.012,1559.4219,1500.0,1500.0,nan,nan,nan,nan,nan,nan,nan,nan,nan,nan
663796000,6,1561.2091,1565.7793,1569.9418,1558.5847,1500.0,1500.0,nan,nan,nan,nan,nan,nan,nan,nan,nan,nan
663896000,6,1566.5344,1561.253,1566.6385,1562.4746,1500.0,1500.0,nan,nan,nan,nan,nan,nan,nan,nan,nan,nan
663996000,6,1577.4619,1548.7925,1566.6086,1560.2416,1500.0,1500.0,nan,nan,nan,nan,nan,nan,nan,nan,nan,nan
664100000,6,1561.1018,1569.1045,1567.2881,1562.3303,1500.0,1500.0,nan,nan,nan,nan,nan,nan,nan,nan,nan,nan
664200000,6,1557.4033,1572.9556,1567.1794,1561.7946,1500.0,1500.0,nan,nan,nan,nan,nan,nan,nan,nan,nan,nan
664296000,6,1559.2184,1568.1384,1569.6304,1556.896,1500.0,1500.0,nan,nan,nan,nan,nan,nan,nan,nan,nan,nan
664396000,6,1559.189,1568.7423,1570.8379,1555.3567,1500.0,1500.0,nan,nan,nan,nan,nan,nan,nan,nan,nan,nan
664496000,6,1567.103,1561.6123,1556.8458,1566.5632,1500.0,1500.0,nan,nan,nan,nan,nan,nan,nan,nan,nan,nan
664596000,6,1571.3806,1551.7266,1564.3994,1562.9564,1500.0,1500.0,nan,nan,nan,nan,nan,nan,nan,nan,nan,nan
664696000,6,1565.7434,1561.8475,1566.8551,1561.4642,1500.0,1500.0,nan,nan,nan,nan,nan,nan,nan,nan,nan,nan
664796000,6,1547.9076,1576.9414,1556.5824,1568.5809,1500.0,1500.0,nan,nan,nan,nan,nan,nan,nan,nan,nan,nan
664896000,6,1561.5322,1565.921,1568.6472,1557.7756,1500.0,1500.0,nan,nan,nan,nan,nan,nan,nan,nan,nan,nan
664996000,6,1558.4481,1566.6669,1562.748,1560.4039,1500.0,1500.0,nan,nan,nan,nan,nan,nan,nan,nan,nan,nan
665096000,6,1568.4062,1555.631,1563.8328,1560.6252,1500.0,1500.0,nan,nan,nan,nan,nan,nan,nan,nan,nan,nan
665196000,6,1565.3868,1565.3638,1569.757,1558.8872,1500.0,1500.0,nan,nan,nan,nan,nan,nan,nan,nan,nan,nan
665296000,6,1572.213,1555.7852,1570.8901,1554.0707,1500.0,1500.0,nan,nan,nan,nan,nan,nan,nan,nan,nan,nan
665400000,6,1559.1598,1564.3451,1555.0424,1571.1808,1500.0,1500.0,nan,nan,nan,nan,nan,nan,nan,nan,nan,nan
665496000,6,1553.6497,1575.3406,1560.2179,1562.8254,1500.0,1500.0,nan,nan,nan,nan,nan,nan,nan,nan,nan,nan
665596000,6,1556.0087,1571.2845,1560.8131,1561.1908,1500.0,1500.0,nan,nan,nan,nan,nan,nan,nan,nan,nan,nan
665696000,6,1559.8186,1564.8329,1564.8478,1564.64,1500.0,1500.0,nan,nan,nan,nan,nan,nan,nan,nan,nan,nan
665796000,6,1574.1577,1547.707,1555.5095,1566.1881,1500.0,1500.0,nan,nan,nan,nan,nan,nan,nan,nan,nan,nan
665900000,6,1556.7638,1568.7542,1564.9908,1561.4207,1500.0,1500.0,nan,nan,nan,nan,nan,nan,nan,nan,nan,nan
665996000,6,1565.028,1562.2417,1559.2472,1565.7786,1500.0,1500.0,nan,nan,nan,nan,nan,nan,nan,nan,nan,nan
666096000,6,1556.4934,1568.1829,1562.6011,1567.3828,1500.0,1500.0,nan,nan,nan,nan,nan,nan,nan,nan,nan,nan
666196000,6,1562.0264,1563.2205,1560.4304,1564.3999,1500.0,1500.0,nan,nan,nan,nan,nan,nan,nan,nan,nan,nan
666296000,6,1563.9401,1559.1938,1568.5066,1556.1696,1500.0,1500.0,nan,nan,nan,nan,nan,nan,nan,nan,nan,nan
666400000,6,1568.3004,1554.7937,1563.024,1560.2062,1500.0,1500.0,nan,nan,nan,nan,nan,nan,nan,nan,nan,nan
666496000,6,1548.846,1578.095,1564.1072,1561.4448,1500.0,1500.0,nan,nan,nan,nan,nan,nan,nan,nan,nan,nan
666596000,6,1575.5862,1550.6473,1579.6658,1545.9507,1500.0,1500.0,nan,nan,nan,nan,nan,nan,nan,nan,nan,nan
666696000,6,1558.2712,1568.2725,1560.9968,1566.024,1500.0,1500.0,nan,nan,nan,nan,nan,nan,nan,nan,nan,nan
666796000,6,1572.7354,1553.8927,1567.3923,1556.2675,1500.0,1500.0,nan,nan,nan,nan,nan,nan,nan,nan,nan,nan
666896000,6,1559.5541,1563.4761,1559.9789,1566.043,1500.0,1500.0,nan,nan,nan,nan,nan,nan,nan,nan,nan,nan
666996000,6,1553.7532,1567.32,1559.4154,1560.0337,1500.0,1500.0,nan,nan,nan,nan,nan,nan,nan,nan,nan,nan
667096000,6,1551.4028,1542.0267,1607.7579,1595.518,1500.0,1500.0,nan,nan,nan,nan,nan,nan,nan,nan,nan,nan
667200000,6,1539.6423,1472.0547,1620.0726,1605.6683,1500.0,1500.0,nan,nan,nan,nan,nan,nan,nan,nan,nan,nan
667296000,6,1561.8854,1444.5044,1646.6633,1602.5809,1500.0,1500.0,nan,nan,nan,nan,nan,nan,nan,nan,nan,nan
667396000,6,1528.3501,1494.7917,1620.1531,1639.0038,1500.0,1500.0,nan,nan,nan,nan,nan,nan,nan,nan,nan,nan
667496000,6,1502.9662,1534.857,1609.8451,1641.4454,1500.0,1500.0,nan,nan,nan,nan,nan,nan,nan,nan,nan,nan
667596000,6,1497.619,1565.0955,1602.6073,1658.1799,1500.0,1500.0,nan,nan,nan,nan,nan,nan,nan,nan,nan,nan
667700000,6,1526.4484,1565.1096,1631.4879,1646.2611,1500.0,1500.0,nan,nan,nan,nan,nan,nan,nan,nan,nan,nan
667796000,6,1568.7118,1550.22,1661.0885,1657.9536,1500.0,1500.0,nan,nan,nan,nan,nan,nan,nan,nan,nan,nan
667896000,6,1603.5864,1542.3257,1674.0471,1656.1666,1500.0,1500.0,nan,nan,nan,nan,nan,nan,nan,nan,nan,nan
667996000,6,1612.1754,1551.173,1677.6086,1662.1161,1500.0,1500.0,nan,nan,nan,nan,nan,nan,nan,nan,nan,nan
668096000,6,1614.0022,1560.6937,1672.8761,1671.1575,1500.0,1500.0,nan,nan,nan,nan,nan,nan,nan,nan,nan,nan
668196000,6,1611.0043,1584.9395,1673.7341,1679.0509,1500.0,1500.0,nan,nan,nan,nan,nan,nan,nan,nan,nan,nan
668296000,6,1615.2487,1593.8859,1682.8218,1679.528,1500.0,1500.0,nan,nan,nan,nan,nan,nan,nan,nan,nan,nan
668396000,6,1629.5135,1588.4198,1688.4114,1719.0981,1500.0,1500.0,nan,nan,nan,nan,nan,nan,nan,nan,nan,nan
668496000,6,1654.7449,1581.1594,1701.2327,1718.4442,1500.0,1500.0,nan,nan,nan,nan,nan,nan,nan,nan,nan,nan
668596000,6,1641.4803,1597.1221,1693.0673,1730.9318,1500.0,1500.0,nan,nan,nan,nan,nan,nan,nan,nan,nan,nan
668696000,6,1657.2838,1608.5005,1715.0171,1714.8129,1500.0,1500.0,nan,nan,nan,nan,nan,nan,nan,nan,nan,nan
668796000,6,1659.9323,1619.1819,1710.7128,1720.5956,1500.0,1500.0,nan,nan,nan,nan,nan,nan,nan,nan,nan,nan
668896000,6,1651.8132,1641.9597,1698.8542,1738.2019,1500.0,1500.0,nan,nan,nan,nan,nan,nan,nan,nan,nan,nan
668996000,6,1669.1993,1634.6271,1701.4141,1733.4685,1500.0,1500.0,nan,nan,nan,nan,nan,nan,nan,nan,nan,nan
669096000,6,1658.9906,1646.62,1699.6178,1755.059,1500.0,1500.0,nan,nan,nan,nan,nan,nan,nan,nan,nan,nan
669196000,6,1658.4597,1650.049,1686.7151,1743.6357,1500.0,1500.0,nan,nan,nan,nan,nan,nan,nan,nan,nan,nan
669300000,6,1671.929,1642.9413,1683.2751,1728.352,1500.0,1500.0,nan,nan,nan,nan,nan,nan,nan,nan,nan,nan
669396000,6,1684.5818,1630.469,1678.7478,1715.3641,1500.0,1500.0,nan,nan,nan,nan,nan,nan,nan,nan,nan,nan
669496000,6,1655.4016,1650.0311,1662.0317,1736.5696,1500.0,1500.0,nan,nan,nan,nan,nan,nan,nan,nan,nan,nan
669596000,6,1635.0017,1643.6864,1646.678,1764.7063,1500.0,1500.0,nan,nan,nan,nan,nan,nan,nan,nan,nan,nan
669696000,6,1621.3846,1651.4674,1643.488,1769.4171,1500.0,1500.0,nan,nan,nan,nan,nan,nan,nan,nan,nan,nan
669796000,6,1611.0607,1653.3964,1643.845,1741.543,1500.0,1500.0,nan,nan,nan,nan,nan,nan,nan,nan,nan,nan
669896000,6,1631.3231,1646.3794,1662.0112,1726.0537,1500.0,1500.0,nan,nan,nan,nan,nan,nan,nan,nan,nan,nan
669996000,6,1634.9521,1653.3538,1669.4064,1715.5665,1500.0,1500.0,nan,nan,nan,nan,nan,nan,nan,nan,nan,nan
670096000,6,1636.8296,1662.5674,1655.4747,1728.9692,1500.0,1500.0,nan,nan,nan,nan,nan,nan,nan,nan,nan,nan
670196000,6,1631.4064,1653.5045,1652.1555,1750.5979,1500.0,1500.0,nan,nan,nan,nan,nan,nan,nan,nan,nan,nan
670296000,6,1615.8936,1671.2986,1645.2415,1754.1189,1500.0,1500.0,nan,nan,nan,nan,nan,nan,nan,nan,nan,nan
670396000,6,1632.2289,1673.7042,1642.1205,1726.4558,1500.0,1500.0,nan,nan,nan,nan,nan,nan,nan,nan,nan,nan
670496000,6,1650.8665,1704.7202,1621.983,1694.5211,1500.0,1500.0,nan,nan,nan,nan,nan,nan,nan,nan,nan,nan
670596000,6,1665.1687,1711.4292,1615.2457,1676.9744,1500.0,1500.0,nan,nan,nan,nan,nan,nan,nan,nan,nan,nan
670696000,6,1672.4354,1714.2404,1605.7499,1683.2743,1500.0,1500.0,nan,nan,nan,nan,nan,nan,nan,nan,nan,nan
670796000,6,1660.3065,1713.4468,1618.3146,1679.0798,1500.0,1500.0,nan,nan,nan,nan,nan,nan,nan,nan,nan,nan
670896000,6,1655.2429,1720.4719,1620.4707,1689.2942,1500.0,1500.0,nan,nan,nan,nan,nan,nan,nan,nan,nan,nan
670996000,6,1649.8799,1716.6136,1634.1583,1683.1383,1500.0,1500.0,nan,nan,nan,nan,nan,nan,nan,nan,nan,nan
671096000,6,1639.4471,1716.7329,1626.4606,1694.5106,1500.0,1500.0,nan,nan,nan,nan,nan,nan,nan,nan,nan,nan
671200000,6,1637.006,1707.3882,1641.4568,1687.8633,1500.0,1500.0,nan,nan,nan,nan,nan,nan,nan,nan,nan,nan
671296000,6,1636.6792,1710.9474,1632.1339,1701.8378,1500.0,1500.0,nan,nan,nan,nan,nan,nan,nan,nan,nan,nan
671396000,6,1635.0076,1710.7877,1636.2307,1700.2001,1500.0,1500.0,nan,nan,nan,nan,nan,nan,nan,nan,nan,nan
671500000,6,1635.9873,1699.4095,1640.2356,1696.5851,1500.0,1500.0,nan,nan,nan,nan,nan,nan,nan,nan,nan,nan
671596000,6,1631.9277,1706.1223,1637.4977,1697.5693,1500.0,1500.0,nan,nan,nan,nan,nan,nan,nan,nan,nan,nan
671696000,6,1626.2555,1714.9788,1637.3907,1704.9645,1500.0,1500.0,nan,nan,nan,nan,nan,nan,nan,nan,nan,nan
671796000,6,1629.7046,1703.8799,1632.0234,1707.692,1500.0,1500.0,nan,nan,nan,nan,nan,nan,nan,nan,nan,nan
671896000,6,1635.2,1700.9431,1644.4904,1693.1697,1500.0,1500.0,nan,nan,nan,nan,nan,nan,nan,nan,nan,nan
671996000,6,1636.9597,1708.3953,1629.8931,1717.6693,1500.0,1500.0,nan,nan,nan,nan,nan,nan,nan,nan,nan,nan
672096000,6,1637.6265,1703.5096,1640.2039,1702.815,1500.0,1500.0,nan,nan,nan,nan,nan,nan,nan,nan,nan,nan
672196000,6,1636.09,1701.5321,1641.3037,1705.3994,1500.0,1500.0,nan,nan,nan,nan,nan,nan,nan,nan,nan,nan
672296000,6,1647.6328,1690.2747,1645.1992,1697.1471,1500.0,1500.0,nan,nan,nan,nan,nan,nan,nan,nan,nan,nan
672396000,6,1641.923,1703.1437,1641.8583,1706.6003,1500.0,1500.0,nan,nan,nan,nan,nan,nan,nan,nan,nan,nan
672496000,6,1633.524,1708.4248,1651.125,1696.1338,1500.0,1500.0,nan,nan,nan,nan,nan,nan,nan,nan,nan,nan
672596000,6,1638.8982,1710.3752,1633.3682,1716.618,1500.0,1500.0,nan,nan,nan,nan,nan,nan,nan,nan,nan,nan
672696000,6,1649.1499,1696.7236,1643.4161,1703.3995,1500.0,1500.0,nan,nan,nan,nan,nan,nan,nan,nan,nan,nan
672796000,6,1640.823,1710.8865,1645.4169,1705.781,1500.0,1500.0,nan,nan,nan,nan,nan,nan,nan,nan,nan,nan
672896000,6,1640.9973,1702.9967,1642.2067,1706.0441,1500.0,1500.0,nan,nan,nan,nan,nan,nan,nan,nan,nan,nan
672996000,6,1642.2964,1707.734,1643.5575,1708.2822,1500.0,1500.0,nan,nan,nan,nan,nan,nan,nan,nan,nan,nan
673096000,6,1639.4675,1709.0873,1648.3115,1699.5128,1500.0,1500.0,nan,nan,nan,nan,nan,nan,nan,nan,nan,nan
673196000,6,1642.4713,1714.0298,1646.494,1712.2126,1500.0,1500.0,nan,nan,nan,nan,nan,nan,nan,nan,nan,nan
673296000,6,1642.9076,1709.77,1646.8553,1710.5751,1500.0,1500.0,nan,nan,nan,nan,nan,nan,nan,nan,nan,nan
673396000,6,1646.3524,1709.7711,1637.775,1723.7637,1500.0,1500.0,nan,nan,nan,nan,nan,nan,nan,nan,nan,nan
673496000,6,1633.1652,1719.9471,1647.5006,1710.8433,1500.0,1500.0,nan,nan,nan,nan,nan,nan,nan,nan,nan,nan
673596000,6,1638.667,1718.9891,1651.7788,1710.3517,1500.0,1500.0,nan,nan,nan,nan,nan,nan,nan,nan,nan,nan
673696000,6,1639.0934,1719.9109,1636.5593,1718.6636,1500.0,1500.0,nan,nan,nan,nan,nan,nan,nan,nan,nan,nan
673796000,6,1632.9037,1722.3551,1628.2876,1735.8884,1500.0,1500.0,nan,nan,nan,nan,nan,nan,nan,nan,nan,nan
673896000,6,1644.8768,1702.3444,1656.0076,1697.8456,1500.0,1500.0,nan,nan,nan,nan,nan,nan,nan,nan,nan,nan
673996000,6,1656.7117,1688.2231,1652.7856,1696.8508,1500.0,1500.0,nan,nan,nan,nan,nan,nan,nan,nan,nan,nan
674096000,6,1631.2815,1708.8627,1646.2025,1697.1643,1500.0,1500.0,nan,nan,nan,nan,nan,nan,nan,nan,nan,nan
674196000,6,1616.666,1715.0132,1621.2457,1715.0604,1500.0,1500.0,nan,nan,nan,nan,nan,nan,nan,nan,nan,nan
674296000,6,1613.8345,1706.5106,1612.0024,1707.6445,1500.0,1500.0,nan,nan,nan,nan,nan,nan,nan,nan,nan,nan
674396000,6,1601.552,1705.872,1611.2502,1697.2783,1500.0,1500.0,nan,nan,nan,nan,nan,nan,nan,nan,nan,nan
674496000,6,1616.4956,1679.0273,1611.2368,1688.3569,1500.0,1500.0,nan,nan,nan,nan,nan,nan,nan,nan,nan,nan
674596000,6,1623.1323,1667.3613,1618.4062,1678.4563,1500.0,1500.0,nan,nan,nan,nan,nan,nan,nan,nan,nan,nan
674696000,6,1619.7737,1670.8196,1613.6417,1679.171,1500.0,1500.0,nan,nan,nan,nan,nan,nan,nan,nan,nan,nan
674796000,6,1603.9724,1686.6085,1609.4783,1682.0033,1500.0,1500.0,nan,nan,nan,nan,nan,nan,nan,nan,nan,nan
674896000,6,1599.0482,1684.2516,1600.5691,1685.774,1500.0,1500.0,nan,nan,nan,nan,nan,nan,nan,nan,nan,nan
674996000,6,1599.8442,1670.4773,1613.5153,1668.492,1500.0,1500.0,nan,nan,nan,nan,nan,nan,nan,nan,nan,nan
675096000,6,1620.6913,1649.4735,1619.0402,1654.3892,1500.0,1500.0,nan,nan,nan,nan,nan,nan,nan,nan,nan,nan
675196000,6,1611.2632,1661.9612,1610.8594,1655.4933,1500.0,1500.0,nan,nan,nan,nan,nan,nan,nan,nan,nan,nan
675296000,6,1599.2937,1663.4604,1594.7898,1664.102,1500.0,1500.0,nan,nan,nan,nan,nan,nan,nan,nan,nan,nan
675396000,6,1598.3407,1666.4579,1590.999,1665.4371,1500.0,1500.0,nan,nan,nan,nan,nan,nan,nan,nan,nan,nan
675496000,6,1583.8188,1670.3439,1594.8544,1664.0621,1500.0,1500.0,nan,nan,nan,nan,nan,nan,nan,nan,nan,nan
675596000,6,1592.4015,1660.3235,1591.5144,1658.6537,1500.0,1500.0,nan,nan,nan,nan,nan,nan,nan,nan,nan,nan
675696000,6,1597.1652,1645.5725,1606.0289,1638.282,1500.0,1500.0,nan,nan,nan,nan,nan,nan,nan,nan,nan,nan
675796000,6,1591.6202,1650.8984,1595.805,1650.0099,1500.0,1500.0,nan,nan,nan,nan,nan,nan,nan,nan,nan,nan
675896000,6,1598.0714,1641.8419,1610.0686,1627.6895,1500.0,1500.0,nan,nan,nan,nan,nan,nan,nan,nan,nan,nan
676000000,6,1584.4404,1652.4937,1591.3726,1648.9154,1500.0,1500.0,nan,nan,nan,nan,nan,nan,nan,nan,nan,nan
676096000,6,1582.9161,1649.3203,1583.0017,1644.3147,1500.0,1500.0,nan,nan,nan,nan,nan,nan,nan,nan,nan,nan
676196000,6,1580.9298,1642.9492,1586.8843,1640.0651,1500.0,1500.0,nan,nan,nan,nan,nan,nan,nan,nan,nan,nan
676300000,6,1590.2302,1622.0577,1586.5269,1640.2534,1500.0,1500.0,nan,nan,nan,nan,nan,nan,nan,nan,nan,nan
676396000,6,1595.708,1629.222,1593.4749,1630.1572,1500.0,1500.0,nan,nan,nan,nan,nan,nan,nan,nan,nan,nan
676500000,6,1591.5,1628.6218,1590.7976,1631.1581,1500.0,1500.0,nan,nan,nan,nan,nan,nan,nan,nan,nan,nan
676600000,6,1580.381,1635.0732,1579.2654,1641.2516,1500.0,1500.0,nan,nan,nan,nan,nan,nan,nan,nan,nan,nan
676696000,6,1591.8975,1622.2217,1585.5309,1626.0363,1500.0,1500.0,nan,nan,nan,nan,nan,nan,nan,nan,nan,nan
676796000,6,1579.7784,1631.1785,1585.8932,1623.617,1500.0,1500.0,nan,nan,nan,nan,nan,nan,nan,nan,nan,nan
676896000,6,1587.9215,1617.7839,1597.267,1606.5156,1500.0,1500.0,nan,nan,nan,nan,nan,nan,nan,nan,nan,nan
676996000,6,1575.9414,1622.8376,1574.7605,1627.0842,1500.0,1500.0,nan,nan,nan,nan,nan,nan,nan,nan,nan,nan
677100000,6,1583.006,1617.4711,1580.5695,1622.923,1500.0,1500.0,nan,nan,nan,nan,nan,nan,nan,nan,nan,nan
677200000,6,1574.0869,1628.4438,1588.0664,1610.7783,1500.0,1500.0,nan,nan,nan,nan,nan,nan,nan,nan,nan,nan
677296000,6,1583.5653,1614.6237,1589.2706,1606.6914,1500.0,1500.0,nan,nan,nan,nan,nan,nan,nan,nan,nan,nan
677400000,6,1581.4922,1612.6714,1579.3756,1611.9414,1500.0,1500.0,nan,nan,nan,nan,nan,nan,nan,nan,nan,nan
677500000,6,1577.5714,1605.0592,1577.5255,1615.5096,1500.0,1500.0,nan,nan,nan,nan,nan,nan,nan,nan,nan,nan
677596000,6,1572.4539,1614.1293,1576.1338,1612.0674,1500.0,1500.0,nan,nan,nan,nan,nan,nan,nan,nan,nan,nan
677696000,6,1571.7223,1612.5192,1573.5736,1615.9062,1500.0,1500.0,nan,nan,nan,nan,nan,nan,nan,nan,nan,nan
677796000,6,1575.4559,1610.798,1588.7339,1596.4462,1500.0,1500.0,nan,nan,nan,nan,nan,nan,nan,nan,nan,nan
677896000,6,1576.9475,1606.2324,1582.8323,1599.2183,1500.0,1500.0,nan,nan,nan,nan,nan,nan,nan,nan,nan,nan
677996000,6,1585.0001,1597.1078,1585.9834,1595.1428,1500.0,1500.0,nan,nan,nan,nan,nan,nan,nan,nan,nan,nan
678100000,6,1566.6946,1613.2952,1580.5613,1599.4287,1500.0,1500.0,nan,nan,nan,nan,nan,nan,nan,nan,nan,nan
678200000,6,1571.1902,1602.867,1575.0137,1602.9613,1500.0,1500.0,nan,nan,nan,nan,nan,nan,nan,nan,nan,nan
678296000,6,1575.2191,1603.3424,1567.5753,1608.1888,1500.0,1500.0,nan,nan,nan,nan,nan,nan,nan,nan,nan,nan
678396000,6,1569.5891,1607.5685,1578.6802,1602.086,1500.0,1500.0,nan,nan,nan,nan,nan,nan,nan,nan,nan,nan
678496000,6,1572.4674,1605.9454,1572.9738,1594.4681,1500.0,1500.0,nan,nan,nan,nan,nan,nan,nan,nan,nan,nan
678600000,6,1581.2537,1590.9865,1574.2766,1599.9626,1500.0,1500.0,nan,nan,nan,nan,nan,nan,nan,nan,nan,nan
678696000,6,1569.9513,1600.7852,1578.5586,1593.5564,1500.0,1500.0,nan,nan,nan,nan,nan,nan,nan,nan,nan,nan
678796000,6,1573.6547,1599.065,1570.7817,1598.0883,1500.0,1500.0,nan,nan,nan,nan,nan,nan,nan,nan,nan,nan
678896000,6,1572.4474,1596.3857,1574.6638,1595.3319,1500.0,1500.0,nan,nan,nan,nan,nan,nan,nan,nan,nan,nan
678996000,6,1585.0011,1586.3175,1581.8561,1588.8113,1500.0,1500.0,nan,nan,nan,nan,nan,nan,nan,nan,nan,nan
679096000,6,1570.3871,1594.3059,1565.9215,1596.2896,1500.0,1500.0,nan,nan,nan,nan,nan,nan,nan,nan,nan,nan
679196000,6,1578.6564,1588.9485,1579.5637,1588.4888,1500.0,1500.0,nan,nan,nan,nan,nan,nan,nan,nan,nan,nan
679296000,6,1571.3728,1593.5286,1570.6708,1592.6692,1500.0,1500.0,nan,nan,nan,nan,nan,nan,nan,nan,nan,nan
679396000,6,1571.1313,1588.313,1565.6069,1594.6344,1500.0,1500.0,nan,nan,nan,nan,nan,nan,nan,nan,nan,nan
679500000,6,1562.2424,1601.3661,1566.8248,1596.1704,1500.0,1500.0,nan,nan,nan,nan,nan,nan,nan,nan,nan,nan
679596000,6,1564.8977,1590.1552,1566.208,1583.4656,1500.0,1500.0,nan,nan,nan,nan,nan,nan,nan,nan,nan,nan
679696000,6,1579.7794,1582.1674,1568.5359,1590.471,1500.0,1500.0,nan,nan,nan,nan,nan,nan,nan,nan,nan,nan
679796000,6,1575.1748,1578.4945,1573.1903,1581.453,1500.0,1500.0,nan,nan,nan,nan,nan,nan,nan,nan,nan,nan
679896000,6,1567.847,1589.2612,1567.9678,1587.0302,1500.0,1500.0,nan,nan,nan,nan,nan,nan,nan,nan,nan,nan
679996000,6,1566.8658,1588.3052,1557.5924,1593.1144,1500.0,1500.0,nan,nan,nan,nan,nan,nan,nan,nan,nan,nan
680100000,6,1571.337,1581.5826,1568.1807,1588.7424,1500.0,1500.0,nan,nan,nan,nan,nan,nan,nan,nan,nan,nan
680200000,6,1568.8707,1583.603,1574.7192,1575.2435,1500.0,1500.0,nan,nan,nan,nan,nan,nan,nan,nan,nan,nan
680296000,6,1576.1135,1576.2013,1573.1753,1581.6401,1500.0,1500.0,nan,nan,nan,nan,nan,nan,nan,nan,nan,nan
680396000,6,1563.8414,1586.0597,1559.0277,1594.1492,1500.0,1500.0,nan,nan,nan,nan,nan,nan,nan,nan,nan,nan
680496000,6,1566.4897,1582.9978,1568.7682,1581.3523,1500.0,1500.0,nan,nan,nan,nan,nan,nan,nan,nan,nan,nan
680596000,6,1569.2566,1599.8549,1564.9585,1561.6953,1500.0,1500.0,nan,nan,nan,nan,nan,nan,nan,nan,nan,nan
680696000,6,1606.8483,1621.253,1543.3585,1524.407,1500.0,1500.0,nan,nan,nan,nan,nan,nan,nan,nan,nan,nan
680796000,6,1626.4634,1628.5159,1528.3156,1501.4756,1500.0,1500.0,nan,nan,nan,nan,nan,nan,nan,nan,nan,nan
680896000,6,1632.501,1638.1694,1513.97,1506.8129,1500.0,1500.0,nan,nan,nan,nan,nan,nan,nan,nan,nan,nan
680996000,6,1635.3157,1652.1029,1525.1986,1486.466,1500.0,1500.0,nan,nan,nan,nan,nan,nan,nan,nan,nan,nan
681096000,6,1625.5984,1653.0603,1491.3711,1536.381,1500.0,1500.0,nan,nan,nan,nan,nan,nan,nan,nan,nan,nan
681196000,6,1631.2498,1637.6425,1490.3634,1538.8372,1500.0,1500.0,nan,nan,nan,nan,nan,nan,nan,nan,nan,nan
681296000,6,1629.3387,1638.9298,1505.5444,1547.8059,1500.0,1500.0,nan,nan,nan,nan,nan,nan,nan,nan,nan,nan
681396000,6,1622.8647,1641.5758,1529.0785,1544.8508,1500.0,1500.0,nan,nan,nan,nan,nan,nan,nan,nan,nan,nan
681496000,6,1620.8573,1639.0912,1550.6143,1539.9714,1500.0,1500.0,nan,nan,nan,nan,nan,nan,nan,nan,nan,nan
681596000,6,1625.5073,1647.5084,1565.8231,1530.8905,1500.0,1500.0,nan,nan,nan,nan,nan,nan,nan,nan,nan,nan
681696000,6,1625.7855,1649.3284,1572.116,1538.2655,1500.0,1500.0,nan,nan,nan,nan,nan,nan,nan,nan,nan,nan
681796000,6,1619.8774,1657.267,1559.5901,1556.8137,1500.0,1500.0,nan,nan,nan,nan,nan,nan,nan,nan,nan,nan
681896000,6,1620.5176,1648.6874,1560.2255,1563.5841,1500.0,1500.0,nan,nan,nan,nan,nan,nan,nan,nan,nan,nan
681996000,6,1612.8258,1656.9386,1563.4531,1571.3228,1500.0,1500.0,nan,nan,nan,nan,nan,nan,nan,nan,nan,nan
682096000,6,1625.1305,1642.0809,1573.2887,1568.0312,1500.0,1500.0,nan,nan,nan,nan,nan,nan,nan,nan,nan,nan
682196000,6,1627.9515,1650.6532,1581.466,1555.1788,1500.0,1500.0,nan,nan,nan,nan,nan,nan,nan,nan,nan,nan
682296000,6,1618.3856,1659.1487,1573.2676,1562.6643,1500.0,1500.0,nan,nan,nan,nan,nan,nan,nan,nan,nan,nan
682396000,6,1620.6405,1655.1265,1573.8247,1562.3556,1500.0,1500.0,nan,nan,nan,nan,nan,nan,nan,nan,nan,nan
682496000,6,1622.8193,1647.4478,1563.3043,1566.4838,1500.0,1500.0,nan,nan,nan,nan,nan,nan,nan,nan,nan,nan
682596000,6,1610.3663,1652.8342,1570.2439,1570.0544,1500.0,1500.0,nan,nan,nan,nan,nan,nan,nan,nan,nan,nan
682696000,6,1603.99,1653.6655,1565.9839,1570.7023,1500.0,1500.0,nan,nan,nan,nan,nan,nan,nan,nan,nan,nan
682796000,6,1615.4154,1652.1864,1570.3926,1543.3955,1500.0,1500.0,nan,nan,nan,nan,nan,nan,nan,nan,nan,nan
682896000,6,1603.5887,1659.6852,1565.5074,1546.1943,1500.0,1500.0,nan,nan,nan,nan,nan,nan,nan,nan,nan,nan
683000000,6,1595.2599,1657.3927,1554.94,1554.41,1500.0,1500.0,nan,nan,nan,nan,nan,nan,nan,nan,nan,nan
683096000,6,1598.7534,1658.3046,1544.7577,1550.7404,1500.0,1500.0,nan,nan,nan,nan,nan,nan,nan,nan,nan,nan
683196000,6,1601.7026,1643.6538,1554.4602,1547.683,1500.0,1500.0,nan,nan,nan,nan,nan,nan,nan,nan,nan,nan
683296000,6,1606.9563,1635.761,1541.0778,1563.1808,1500.0,1500.0,nan,nan,nan,nan,nan,nan,nan,nan,nan,nan
683396000,6,1612.6096,1624.8008,1548.764,1556.5013,1500.0,1500.0,nan,nan,nan,nan,nan,nan,nan,nan,nan,nan
683496000,6,1589.1517,1609.4772,1559.9979,1576.4528,1500.0,1500.0,nan,nan,nan,nan,nan,nan,nan,nan,nan,nan
683596000,6,1567.3948,1587.1222,1600.6554,1583.8514,1500.0,1500.0,nan,nan,nan,nan,nan,nan,nan,nan,nan,nan
683696000,6,1551.8884,1571.5599,1598.3446,1608.2603,1500.0,1500.0,nan,nan,nan,nan,nan,nan,nan,nan,nan,nan
683796000,6,1548.0033,1572.1205,1599.4033,1613.6317,1500.0,1500.0,nan,nan,nan,nan,nan,nan,nan,nan,nan,nan
683896000,6,1556.6338,1563.9083,1597.2413,1611.7578,1500.0,1500.0,nan,nan,nan,nan,nan,nan,nan,nan,nan,nan
683996000,6,1556.5515,1562.0579,1587.3109,1610.4003,1500.0,1500.0,nan,nan,nan,nan,nan,nan,nan,nan,nan,nan
684096000,6,1553.09,1577.2427,1588.1079,1601.8147,1500.0,1500.0,nan,nan,nan,nan,nan,nan,nan,nan,nan,nan
684196000,6,1561.0859,1576.0903,1576.4106,1611.3495,1500.0,1500.0,nan,nan,nan,nan,nan,nan,nan,nan,nan,nan
684296000,6,1555.4222,1588.6853,1561.7128,1609.356,1500.0,1500.0,nan,nan,nan,nan,nan,nan,nan,nan,nan,nan
684396000,6,1568.0189,1584.3896,1580.4205,1588.2416,1500.0,1500.0,nan,nan,nan,nan,nan,nan,nan,nan,nan,nan
684496000,6,1571.3975,1583.4978,1575.8728,1585.8823,1500.0,1500.0,nan,nan,nan,nan,nan,nan,nan,nan,nan,nan
684596000,6,1573.6704,1586.3474,1573.0669,1583.4308,1500.0,1500.0,nan,nan,nan,nan,nan,nan,nan,nan,nan,nan
684696000,6,1569.3315,1591.6448,1565.5334,1590.4248,1500.0,1500.0,nan,nan,nan,nan,nan,nan,nan,nan,nan,nan
684796000,6,1577.3575,1582.4315,1570.2191,1582.4193,1500.0,1500.0,nan,nan,nan,nan,nan,nan,nan,nan,nan,nan
684896000,6,1574.3566,1582.659,1567.7771,1584.5361,1500.0,1500.0,nan,nan,nan,nan,nan,nan,nan,nan,nan,nan
685000000,6,1570.0094,1585.645,1565.8815,1586.3345,1500.0,1500.0,nan,nan,nan,nan,nan,nan,nan,nan,nan,nan
685096000,6,1574.2212,1578.97,1574.5339,1574.7139,1500.0,1500.0,nan,nan,nan,nan,nan,nan,nan,nan,nan,nan
685196000,6,1570.4224,1582.1018,1564.6663,1582.6815,1500.0,1500.0,nan,nan,nan,nan,nan,nan,nan,nan,nan,nan
685296000,6,1565.6676,1589.6415,1559.3916,1586.3362,1500.0,1500.0,nan,nan,nan,nan,nan,nan,nan,nan,nan,nan
685396000,6,1570.0787,1580.606,1555.2063,1590.2516,1500.0,1500.0,nan,nan,nan,nan,nan,nan,nan,nan,nan,nan
685496000,6,1573.8624,1578.098,1564.4288,1578.8917,1500.0,1500.0,nan,nan,nan,nan,nan,nan,nan,nan,nan,nan
685596000,6,1564.5038,1584.4902,1573.6578,1570.6204,1500.0,1500.0,nan,nan,nan,nan,nan,nan,nan,nan,nan,nan
685696000,6,1572.6542,1573.8259,1565.8156,1577.9495,1500.0,1500.0,nan,nan,nan,nan,nan,nan,nan,nan,nan,nan
685796000,6,1576.292,1575.4463,1568.6561,1573.8995,1500.0,1500.0,nan,nan,nan,nan,nan,nan,nan,nan,nan,nan
685896000,6,1569.6351,1577.6699,1566.9978,1573.9167,1500.0,1500.0,nan,nan,nan,nan,nan,nan,nan,nan,nan,nan
685996000,6,1580.1956,1572.1211,1571.0195,1572.5122,1500.0,1500.0,nan,nan,nan,nan,nan,nan,nan,nan,nan,nan
686096000,6,1572.1658,1576.269,1565.6349,1576.6842,1500.0,1500.0,nan,nan,nan,nan,nan,nan,nan,nan,nan,nan
686196000,6,1566.6016,1584.2029,1556.4242,1586.7458,1500.0,1500.0,nan,nan,nan,nan,nan,nan,nan,nan,nan,nan
686296000,6,1560.8191,1586.8193,1558.5648,1580.7772,1500.0,1500.0,nan,nan,nan,nan,nan,nan,nan,nan,nan,nan
686396000,6,1568.2849,1577.8209,1561.9445,1584.174,1500.0,1500.0,nan,nan,nan,nan,nan,nan,nan,nan,nan,nan
686496000,6,1570.2562,1580.0027,1550.263,1583.8317,1500.0,1500.0,nan,nan,nan,nan,nan,nan,nan,nan,nan,nan
686596000,6,1569.433,1581.1523,1571.5646,1569.2913,1500.0,1500.0,nan,nan,nan,nan,nan,nan,nan,nan,nan,nan
686700000,6,1569.362,1576.179,1569.0563,1567.7349,1500.0,1500.0,nan,nan,nan,nan,nan,nan,nan,nan,nan,nan
686796000,6,1558.5704,1590.1765,1554.5277,1581.8813,1500.0,1500.0,nan,nan,nan,nan,nan,nan,nan,nan,nan,nan
686896000,6,1558.2896,1588.1846,1560.6772,1576.8035,1500.0,1500.0,nan,nan,nan,nan,nan,nan,nan,nan,nan,nan
686996000,6,1578.9828,1564.0361,1572.3618,1562.3042,1500.0,1500.0,nan,nan,nan,nan,nan,nan,nan,nan,nan,nan
687096000,6,1568.6967,1574.314,1562.0176,1575.3722,1500.0,1500.0,nan,nan,nan,nan,nan,nan,nan,nan,nan,nan
687196000,6,1576.4849,1564.6703,1570.2368,1567.2589,1500.0,1500.0,nan,nan,nan,nan,nan,nan,nan,nan,nan,nan
687296000,6,1569.2816,1576.5538,1568.0623,1573.9948,1500.0,1500.0,nan,nan,nan,nan,nan,nan,nan,nan,nan,nan
687396000,6,1559.9474,1583.5336,1565.3412,1572.5935,1500.0,1500.0,nan,nan,nan,nan,nan,nan,nan,nan,nan,nan
687496000,6,1571.2012,1569.825,1574.5919,1567.3252,1500.0,1500.0,nan,nan,nan,nan,nan,nan,nan,nan,nan,nan
687596000,6,1567.7524,1574.9095,1559.4336,1576.0859,1500.0,1500.0,nan,nan,nan,nan,nan,nan,nan,nan,nan,nan
687696000,6,1568.6289,1577.4911,1569.3052,1570.7274,1500.0,1500.0,nan,nan,nan,nan,nan,nan,nan,nan,nan,nan
687796000,6,1573.1312,1569.7588,1569.9728,1567.4692,1500.0,1500.0,nan,nan,nan,nan,nan,nan,nan,nan,nan,nan
687896000,6,1573.1901,1576.0242,1555.1051,1579.1511,1500.0,1500.0,nan,nan,nan,nan,nan,nan,nan,nan,nan,nan
687996000,6,1566.8419,1575.7649,1552.6195,1580.193,1500.0,1500.0,nan,nan,nan,nan,nan,nan,nan,nan,nan,nan
688096000,6,1569.0548,1578.782,1571.729,1563.4391,1500.0,1500.0,nan,nan,nan,nan,nan,nan,nan,nan,nan,nan
688196000,6,1573.2977,1573.5878,1566.0076,1569.1174,1500.0,1500.0,nan,nan,nan,nan,nan,nan,nan,nan,nan,nan
688296000,6,1569.2777,1575.3658,1560.6985,1567.543,1500.0,1500.0,nan,nan,nan,nan,nan,nan,nan,nan,nan,nan
688396000,6,1579.7523,1563.7156,1562.9468,1567.8077,1500.0,1500.0,nan,nan,nan,nan,nan,nan,nan,nan,nan,nan
688500000,6,1571.8049,1573.0062,1567.407,1565.1537,1500.0,1500.0,nan,nan,nan,nan,nan,nan,nan,nan,nan,nan
688596000,6,1577.9093,1566.8601,1565.5305,1569.165,1500.0,1500.0,nan,nan,nan,nan,nan,nan,nan,nan,nan,nan
688700000,6,1575.7583,1569.9169,1555.7686,1578.9419,1500.0,1500.0,nan,nan,nan,nan,nan,nan,nan,nan,nan,nan
688796000,6,1572.9031,1572.6172,1559.4045,1571.7523,1500.0,1500.0,nan,nan,nan,nan,nan,nan,nan,nan,nan,nan
688896000,6,1556.5051,1568.161,1563.0789,1583.957,1500.0,1500.0,nan,nan,nan,nan,nan,nan,nan,nan,nan,nan
688996000,6,1565.4045,1565.8223,1582.972,1570.0009,1500.0,1500.0,nan,nan,nan,nan,nan,nan,nan,nan,nan,nan
689096000,6,1527.1927,1548.8635,1576.9305,1627.5016,1500.0,1500.0,nan,nan,nan,nan,nan,nan,nan,nan,nan,nan
689196000,6,1499.9468,1532.2708,1607.5251,1632.1716,1500.0,1500.0,nan,nan,nan,nan,nan,nan,nan,nan,nan,nan
689296000,6,1515.2615,1538.9299,1593.4213,1625.7454,1500.0,1500.0,nan,nan,nan,nan,nan,nan,nan,nan,nan,nan
689396000,6,1548.1663,1556.723,1562.8787,1612.183,1500.0,1500.0,nan,nan,nan,nan,nan,nan,nan,nan,nan,nan
689500000,6,1556.1871,1592.4103,1564.7426,1592.6266,1500.0,1500.0,nan,nan,nan,nan,nan,nan,nan,nan,nan,nan
689596000,6,1574.1494,1593.5295,1571.0986,1574.4921,1500.0,1500.0,nan,nan,nan,nan,nan,nan,nan,nan,nan,nan
689696000,6,1592.978,1585.2378,1574.5413,1572.6058,1500.0,1500.0,nan,nan,nan,nan,nan,nan,nan,nan,nan,nan
689796000,6,1604.4725,1595.731,1574.907,1585.3407,1500.0,1500.0,nan,nan,nan,nan,nan,nan,nan,nan,nan,nan
689896000,6,1602.4846,1612.7687,1586.96,1582.8248,1500.0,1500.0,nan,nan,nan,nan,nan,nan,nan,nan,nan,nan
689996000,6,1598.6157,1627.9246,1588.4152,1605.1621,1500.0,1500.0,nan,nan,nan,nan,nan,nan,nan,nan,nan,nan
690096000,6,1593.2502,1636.3181,1591.4064,1617.7373,1500.0,1500.0,nan,nan,nan,nan,nan,nan,nan,nan,nan,nan
690196000,6,1618.4735,1619.9026,1602.094,1615.0117,1500.0,1500.0,nan,nan,nan,nan,nan,nan,nan,nan,nan,nan
690296000,6,1614.6804,1628.0685,1599.6731,1626.8226,1500.0,1500.0,nan,nan,nan,nan,nan,nan,nan,nan,nan,nan
690396000,6,1616.4174,1627.1857,1606.6823,1630.8395,1500.0,1500.0,nan,nan,nan,nan,nan,nan,nan,nan,nan,nan
690496000,6,1618.9537,1630.6449,1619.3411,1621.461,1500.0,1500.0,nan,nan,nan,nan,nan,nan,nan,nan,nan,nan
690596000,6,1634.0304,1626.6248,1624.384,1628.472,1500.0,1500.0,nan,nan,nan,nan,nan,nan,nan,nan,nan,nan
690696000,6,1606.5692,1646.661,1612.9658,1639.2091,1500.0,1500.0,nan,nan,nan,nan,nan,nan,nan,nan,nan,nan
690796000,6,1614.7183,1634.9523,1608.5538,1641.2731,1500.0,1500.0,nan,nan,nan,nan,nan,nan,nan,nan,nan,nan
690896000,6,1602.0559,1639.4297,1605.0731,1639.1713,1500.0,1500.0,nan,nan,nan,nan,nan,nan,nan,nan,nan,nan
690996000,6,1595.4651,1644.0244,1597.8853,1638.5621,1500.0,1500.0,nan,nan,nan,nan,nan,nan,nan,nan,nan,nan
691096000,6,1591.1912,1634.0619,1584.1187,1643.4832,1500.0,1500.0,nan,nan,nan,nan,nan,nan,nan,nan,nan,nan
691196000,6,1572.5527,1646.0696,1587.947,1641.5913,1500.0,1500.0,nan,nan,nan,nan,nan,nan,nan,nan,nan,nan
691296000,6,1574.5879,1643.5493,1575.5974,1633.863,1500.0,1500.0,nan,nan,nan,nan,nan,nan,nan,nan,nan,nan
691396000,6,1567.0405,1643.9572,1569.1401,1634.9225,1500.0,1500.0,nan,nan,nan,nan,nan,nan,nan,nan,nan,nan
691496000,6,1571.0377,1632.1946,1573.8666,1630.2716,1500.0,1500.0,nan,nan,nan,nan,nan,nan,nan,nan,nan,nan
691596000,6,1579.6475,1619.7728,1585.6635,1612.9613,1500.0,1500.0,nan,nan,nan,nan,nan,nan,nan,nan,nan,nan
691696000,6,1588.7441,1614.0798,1593.2261,1605.4712,1500.0,1500.0,nan,nan,nan,nan,nan,nan,nan,nan,nan,nan
691800000,6,1590.1205,1604.8184,1595.2837,1603.4114,1500.0,1500.0,nan,nan,nan,nan,nan,nan,nan,nan,nan,nan
691896000,6,1589.3173,1604.556,1588.7781,1608.4564,1500.0,1500.0,nan,nan,nan,nan,nan,nan,nan,nan,nan,nan
691996000,6,1571.7096,1623.6798,1570.3724,1620.5543,1500.0,1500.0,nan,nan,nan,nan,nan,nan,nan,nan,nan,nan
692096000,6,1576.5936,1611.623,1572.531,1613.7936,1500.0,1500.0,nan,nan,nan,nan,nan,nan,nan,nan,nan,nan
692200000,6,1583.6094,1604.4227,1571.4446,1615.4783,1500.0,1500.0,nan,nan,nan,nan,nan,nan,nan,nan,nan,nan
692296000,6,1589.4622,1596.7721,1575.8269,1611.397,1500.0,1500.0,nan,nan,nan,nan,nan,nan,nan,nan,nan,nan
692396000,6,1581.6675,1602.2616,1571.9633,1610.7942,1500.0,1500.0,nan,nan,nan,nan,nan,nan,nan,nan,nan,nan
692496000,6,1571.1515,1609.3909,1570.6633,1611.0764,1500.0,1500.0,nan,nan,nan,nan,nan,nan,nan,nan,nan,nan
692596000,6,1576.3062,1606.9302,1573.8767,1606.7872,1500.0,1500.0,nan,nan,nan,nan,nan,nan,nan,nan,nan,nan
692696000,6,1566.4519,1610.9393,1569.1113,1608.4891,1500.0,1500.0,nan,nan,nan,nan,nan,nan,nan,nan,nan,nan
692796000,6,1565.4048,1613.8473,1572.2333,1604.8617,1500.0,1500.0,nan,nan,nan,nan,nan,nan,nan,nan,nan,nan
692896000,6,1571.8383,1608.004,1572.9528,1606.7822,1500.0,1500.0,nan,nan,nan,nan,nan,nan,nan,nan,nan,nan
692996000,6,1580.531,1595.6506,1568.7584,1599.763,1500.0,1500.0,nan,nan,nan,nan,nan,nan,nan,nan,nan,nan
693096000,6,1579.7545,1597.9883,1574.3856,1605.4893,1500.0,1500.0,nan,nan,nan,nan,nan,nan,nan,nan,nan,nan
693196000,6,1580.7979,1593.0254,1588.5437,1582.1602,1500.0,1500.0,nan,nan,nan,nan,nan,nan,nan,nan,nan,nan
693296000,6,1586.6165,1592.6425,1583.3441,1594.2026,1500.0,1500.0,nan,nan,nan,nan,nan,nan,nan,nan,nan,nan
693400000,6,1576.6912,1593.3765,1580.022,1587.3187,1500.0,1500.0,nan,nan,nan,nan,nan,nan,nan,nan,nan,nan
693496000,6,1577.653,1601.2666,1572.0802,1603.83,1500.0,1500.0,nan,nan,nan,nan,nan,nan,nan,nan,nan,nan
693596000,6,1566.4847,1599.101,1561.7708,1601.2986,1500.0,1500.0,nan,nan,nan,nan,nan,nan,nan,nan,nan,nan
693696000,6,1572.469,1591.6282,1563.6538,1596.9398,1500.0,1500.0,nan,nan,nan,nan,nan,nan,nan,nan,nan,nan
693796000,6,1568.5834,1598.3678,1572.2515,1593.6763,1500.0,1500.0,nan,nan,nan,nan,nan,nan,nan,nan,nan,nan
693896000,6,1571.3712,1592.8932,1576.6898,1591.2822,1500.0,1500.0,nan,nan,nan,nan,nan,nan,nan,nan,nan,nan
694000000,6,1566.5881,1600.1405,1565.3171,1594.4595,1500.0,1500.0,nan,nan,nan,nan,nan,nan,nan,nan,nan,nan
694100000,6,1566.8972,1593.6063,1566.9844,1593.0178,1500.0,1500.0,nan,nan,nan,nan,nan,nan,nan,nan,nan,nan
694200000,6,1573.9543,1594.6448,1564.1755,1594.2152,1500.0,1500.0,nan,nan,nan,nan,nan,nan,nan,nan,nan,nan
694296000,6,1576.3832,1586.7372,1573.0084,1586.1885,1500.0,1500.0,nan,nan,nan,nan,nan,nan,nan,nan,nan,nan
694396000,6,1573.4003,1585.9653,1580.7153,1579.3728,1500.0,1500.0,nan,nan,nan,nan,nan,nan,nan,nan,nan,nan
694500000,6,1566.0295,1598.3624,1571.3502,1589.0586,1500.0,1500.0,nan,nan,nan,nan,nan,nan,nan,nan,nan,nan
694596000,6,1565.6908,1593.2605,1569.1971,1583.5869,1500.0,1500.0,nan,nan,nan,nan,nan,nan,nan,nan,nan,nan
694696000,6,1576.8489,1581.7538,1572.8368,1581.6178,1500.0,1500.0,nan,nan,nan,nan,nan,nan,nan,nan,nan,nan
694796000,6,1568.0847,1588.9194,1566.3633,1582.1422,1500.0,1500.0,nan,nan,nan,nan,nan,nan,nan,nan,nan,nan
694896000,6,1569.8109,1580.9326,1563.1816,1589.188,1500.0,1500.0,nan,nan,nan,nan,nan,nan,nan,nan,nan,nan
694996000,6,1576.6786,1579.7317,1573.6663,1575.9247,1500.0,1500.0,nan,nan,nan,nan,nan,nan,nan,nan,nan,nan
695096000,6,1565.8809,1588.1073,1572.4165,1578.6028,1500.0,1500.0,nan,nan,nan,nan,nan,nan,nan,nan,nan,nan
695196000,6,1564.6034,1580.8058,1556.8228,1590.0765,1500.0,1500.0,nan,nan,nan,nan,nan,nan,nan,nan,nan,nan
695296000,6,1574.6621,1580.5464,1570.8635,1576.605,1500.0,1500.0,nan,nan,nan,nan,nan,nan,nan,nan,nan,nan
695396000,6,1568.6934,1580.857,1562.8788,1584.9972,1500.0,1500.0,nan,nan,nan,nan,nan,nan,nan,nan,nan,nan
695496000,6,1559.4777,1592.0614,1563.99,1582.0994,1500.0,1500.0,nan,nan,nan,nan,nan,nan,nan,nan,nan,nan
695600000,6,1568.8254,1576.9524,1574.1483,1570.3853,1500.0,1500.0,nan,nan,nan,nan,nan,nan,nan,nan,nan,nan
695696000,6,1563.9762,1582.7072,1576.3026,1569.3364,1500.0,1500.0,nan,nan,nan,nan,nan,nan,nan,nan,nan,nan
695796000,6,1575.8678,1573.706,1573.0938,1573.076,1500.0,1500.0,nan,nan,nan,nan,nan,nan,nan,nan,nan,nan
695896000,6,1567.3759,1585.5491,1564.3794,1574.6344,1500.0,1500.0,nan,nan,nan,nan,nan,nan,nan,nan,nan,nan
695996000,6,1567.7896,1583.1589,1563.2295,1577.4172,1500.0,1500.0,nan,nan,nan,nan,nan,nan,nan,nan,nan,nan
696096000,6,1565.1478,1580.69,1572.3882,1572.6556,1500.0,1500.0,nan,nan,nan,nan,nan,nan,nan,nan,nan,nan
696196000,6,1570.7644,1579.1931,1560.5885,1578.3711,1500.0,1500.0,nan,nan,nan,nan,nan,nan,nan,nan,nan,nan
696296000,6,1574.1372,1570.4445,1563.6272,1578.7755,1500.0,1500.0,nan,nan,nan,nan,nan,nan,nan,nan,nan,nan
696396000,6,1569.463,1592.5928,1566.3079,1556.885,1500.0,1500.0,nan,nan,nan,nan,nan,nan,nan,nan,nan,nan
696496000,6,1577.854,1626.529,1512.5879,1564.9015,1500.0,1500.0,nan,nan,nan,nan,nan,nan,nan,nan,nan,nan
696596000,6,1564.2473,1621.7163,1517.8229,1595.8491,1500.0,1500.0,nan,nan,nan,nan,nan,nan,nan,nan,nan,nan
696696000,6,1546.9362,1626.7517,1538.6552,1608.9564,1500.0,1500.0,nan,nan,nan,nan,nan,nan,nan,nan,nan,nan
696796000,6,1579.2428,1585.3884,1569.2913,1599.1182,1500.0,1500.0,nan,nan,nan,nan,nan,nan,nan,nan,nan,nan
696896000,6,1608.8461,1553.2292,1607.2224,1570.7971,1500.0,1500.0,nan,nan,nan,nan,nan,nan,nan,nan,nan,nan
696996000,6,1606.0143,1576.5201,1614.3981,1588.3822,1500.0,1500.0,nan,nan,nan,nan,nan,nan,nan,nan,nan,nan
697096000,6,1607.3108,1588.3821,1614.4647,1610.6741,1500.0,1500.0,nan,nan,nan,nan,nan,nan,nan,nan,nan,nan
697196000,6,1603.6722,1612.3767,1610.0204,1624.5471,1500.0,1500.0,nan,nan,nan,nan,nan,nan,nan,nan,nan,nan
697296000,6,1598.6951,1635.7307,1608.1245,1647.254,1500.0,1500.0,nan,nan,nan,nan,nan,nan,nan,nan,nan,nan
697396000,6,1609.3474,1639.4834,1614.9587,1640.7373,1500.0,1500.0,nan,nan,nan,nan,nan,nan,nan,nan,nan,nan
697496000,6,1616.1768,1644.8715,1617.4042,1653.2771,1500.0,1500.0,nan,nan,nan,nan,nan,nan,nan,nan,nan,nan
697596000,6,1625.9738,1649.2842,1624.6194,1653.3782,1500.0,1500.0,nan,nan,nan,nan,nan,nan,nan,nan,nan,nan
697696000,6,1625.586,1663.0221,1634.2567,1655.8875,1500.0,1500.0,nan,nan,nan,nan,nan,nan,nan,nan,nan,nan
697796000,6,1632.5657,1685.253,1630.7119,1679.3721,1500.0,1500.0,nan,nan,nan,nan,nan,nan,nan,nan,nan,nan
697896000,6,1642.9719,1683.2566,1638.3362,1688.2821,1500.0,1500.0,nan,nan,nan,nan,nan,nan,nan,nan,nan,nan
697996000,6,1643.707,1689.2401,1640.1799,1692.3062,1500.0,1500.0,nan,nan,nan,nan,nan,nan,nan,nan,nan,nan
698096000,6,1656.9224,1690.6323,1651.7753,1699.4506,1500.0,1500.0,nan,nan,nan,nan,nan,nan,nan,nan,nan,nan
698196000,6,1657.599,1705.5316,1655.9965,1703.2958,1500.0,1500.0,nan,nan,nan,nan,nan,nan,nan,nan,nan,nan
698300000,6,1659.1724,1714.7854,1663.8457,1708.4042,1500.0,1500.0,nan,nan,nan,nan,nan,nan,nan,nan,nan,nan
698396000,6,1663.8391,1710.0742,1672.4392,1700.796,1500.0,1500.0,nan,nan,nan,nan,nan,nan,nan,nan,nan,nan
698496000,6,1668.9719,1716.977,1663.5082,1714.147,1500.0,1500.0,nan,nan,nan,nan,nan,nan,nan,nan,nan,nan
698596000,6,1658.3638,1714.9194,1670.1416,1700.4781,1500.0,1500.0,nan,nan,nan,nan,nan,nan,nan,nan,nan,nan
698696000,6,1658.9958,1709.4011,1647.8688,1716.0546,1500.0,1500.0,nan,nan,nan,nan,nan,nan,nan,nan,nan,nan
698796000,6,1640.418,1720.2073,1647.8364,1725.6323,1500.0,1500.0,nan,nan,nan,nan,nan,nan,nan,nan,nan,nan
698896000,6,1635.7733,1723.8184,1647.8204,1719.3403,1500.0,1500.0,nan,nan,nan,nan,nan,nan,nan,nan,nan,nan
698996000,6,1625.7167,1724.1292,1641.8928,1717.0259,1500.0,1500.0,nan,nan,nan,nan,nan,nan,nan,nan,nan,nan
699096000,6,1641.1505,1708.2749,1647.1403,1706.6088,1500.0,1500.0,nan,nan,nan,nan,nan,nan,nan,nan,nan,nan
699196000,6,1653.3352,1697.7443,1657.8771,1697.1201,1500.0,1500.0,nan,nan,nan,nan,nan,nan,nan,nan,nan,nan
699296000,6,1642.4877,1715.5497,1657.6904,1703.3317,1500.0,1500.0,nan,nan,nan,nan,nan,nan,nan,nan,nan,nan
699396000,6,1639.4224,1718.0873,1659.887,1703.8458,1500.0,1500.0,nan,nan,nan,nan,nan,nan,nan,nan,nan,nan
699496000,6,1643.0944,1712.381,1644.5082,1713.1014,1500.0,1500.0,nan,nan,nan,nan,nan,nan,nan,nan,nan,nan
699596000,6,1651.1952,1705.5261,1654.2744,1697.504,1500.0,1500.0,nan,nan,nan,nan,nan,nan,nan,nan,nan,nan
699696000,6,1639.7129,1705.4608,1650.9647,1704.145,1500.0,1500.0,nan,nan,nan,nan,nan,nan,nan,nan,nan,nan
699796000,6,1638.4102,1708.2504,1647.1128,1708.5078,1500.0,1500.0,nan,nan,nan,nan,nan,nan,nan,nan,nan,nan
699896000,6,1652.8212,1704.153,1647.1882,1702.5735,1500.0,1500.0,nan,nan,nan,nan,nan,nan,nan,nan,nan,nan
699996000,6,1640.6458,1712.2937,1643.8875,1711.5806,1500.0,1500.0,nan,nan,nan,nan,nan,nan,nan,nan,nan,nan
700096000,6,1641.647,1708.6255,1654.2535,1702.6799,1500.0,1500.0,nan,nan,nan,nan,nan,nan,nan,nan,nan,nan
700200000,6,1634.7107,1717.442,1655.109,1702.4701,1500.0,1500.0,nan,nan,nan,nan,nan,nan,nan,nan,nan,nan
700296000,6,1633.2482,1719.6384,1643.9347,1708.1329,1500.0,1500.0,nan,nan,nan,nan,nan,nan,nan,nan,nan,nan
700396000,6,1643.0365,1707.7041,1656.1622,1693.5986,1500.0,1500.0,nan,nan,nan,nan,nan,nan,nan,nan,nan,nan
700496000,6,1639.0443,1712.3186,1640.9446,1709.7493,1500.0,1500.0,nan,nan,nan,nan,nan,nan,nan,nan,nan,nan
700596000,6,1648.6316,1702.138,1648.6736,1705.7782,1500.0,1500.0,nan,nan,nan,nan,nan,nan,nan,nan,nan,nan
700696000,6,1638.2727,1707.7631,1641.9379,1713.3455,1500.0,1500.0,nan,nan,nan,nan,nan,nan,nan,nan,nan,nan
700796000,6,1645.6853,1710.4257,1630.5201,1721.8274,1500.0,1500.0,nan,nan,nan,nan,nan,nan,nan,nan,nan,nan
700896000,6,1647.0771,1705.9752,1647.6389,1704.6168,1500.0,1500.0,nan,nan,nan,nan,nan,nan,nan,nan,nan,nan
700996000,6,1641.1736,1707.9572,1642.9794,1709.5074,1500.0,1500.0,nan,nan,nan,nan,nan,nan,nan,nan,nan,nan
701096000,6,1644.9958,1703.5275,1654.0868,1696.1929,1500.0,1500.0,nan,nan,nan,nan,nan,nan,nan,nan,nan,nan
701196000,6,1647.3131,1701.4746,1647.973,1701.0928,1500.0,1500.0,nan,nan,nan,nan,nan,nan,nan,nan,nan,nan
701296000,6,1640.4982,1699.3021,1646.5112,1699.8354,1500.0,1500.0,nan,nan,nan,nan,nan,nan,nan,nan,nan,nan
701396000,6,1653.2181,1685.1166,1649.0527,1690.237,1500.0,1500.0,nan,nan,nan,nan,nan,nan,nan,nan,nan,nan
701496000,6,1636.3824,1702.3145,1638.6001,1702.3682,1500.0,1500.0,nan,nan,nan,nan,nan,nan,nan,nan,nan,nan
701596000,6,1616.7427,1716.9529,1613.6582,1721.3942,1500.0,1500.0,nan,nan,nan,nan,nan,nan,nan,nan,nan,nan
701696000,6,1609.4089,1705.2549,1619.0724,1700.4944,1500.0,1500.0,nan,nan,nan,nan,nan,nan,nan,nan,nan,nan
701796000,6,1598.1315,1705.7949,1618.3285,1692.136,1500.0,1500.0,nan,nan,nan,nan,nan,nan,nan,nan,nan,nan
701896000,6,1628.0618,1668.8904,1626.0448,1675.845,1500.0,1500.0,nan,nan,nan,nan,nan,nan,nan,nan,nan,nan
701996000,6,1625.7805,1668.9758,1625.3784,1672.6616,1500.0,1500.0,nan,nan,nan,nan,nan,nan,nan,nan,nan,nan
702096000,6,1625.4067,1667.8505,1623.7114,1668.096,1500.0,1500.0,nan,nan,nan,nan,nan,nan,nan,nan,nan,nan
702196000,6,1611.5186,1672.3599,1618.5322,1670.4556,1500.0,1500.0,nan,nan,nan,nan,nan,nan,nan,nan,nan,nan
702296000,6,1605.2662,1672.4103,1612.269,1668.2963,1500.0,1500.0,nan,nan,nan,nan,nan,nan,nan,nan,nan,nan
702396000,6,1610.635,1661.633,1606.681,1668.6843,1500.0,1500.0,nan,nan,nan,nan,nan,nan,nan,nan,nan,nan
702496000,6,1593.8315,1674.9095,1606.4532,1662.4562,1500.0,1500.0,nan,nan,nan,nan,nan,nan,nan,nan,nan,nan
702596000,6,1608.1111,1660.757,1610.112,1657.8551,1500.0,1500.0,nan,nan,nan,nan,nan,nan,nan,nan,nan,nan
702696000,6,1605.1399,1656.4352,1612.1765,1648.0812,1500.0,1500.0,nan,nan,nan,nan,nan,nan,nan,nan,nan,nan
702796000,6,1606.36,1652.0549,1604.5938,1650.5222,1500.0,1500.0,nan,nan,nan,nan,nan,nan,nan,nan,nan,nan
702896000,6,1601.9534,1648.4877,1598.5493,1650.0201,1500.0,1500.0,nan,nan,nan,nan,nan,nan,nan,nan,nan,nan
703000000,6,1596.5166,1648.397,1605.2953,1646.4341,1500.0,1500.0,nan,nan,nan,nan,nan,nan,nan,nan,nan,nan
703096000,6,1598.0077,1647.9022,1593.417,1649.4845,1500.0,1500.0,nan,nan,nan,nan,nan,nan,nan,nan,nan,nan
703196000,6,1593.6958,1647.1753,1596.069,1638.182,1500.0,1500.0,nan,nan,nan,nan,nan,nan,nan,nan,nan,nan
703296000,6,1597.7758,1639.9487,1595.3829,1641.1548,1500.0,1500.0,nan,nan,nan,nan,nan,nan,nan,nan,nan,nan
703396000,6,1600.996,1626.9984,1594.5791,1635.7623,1500.0,1500.0,nan,nan,nan,nan,nan,nan,nan,nan,nan,nan
703496000,6,1585.5449,1641.6294,1585.9015,1642.2854,1500.0,1500.0,nan,nan,nan,nan,nan,nan,nan,nan,nan,nan
703600000,6,1588.264,1629.5392,1592.1052,1632.1802,1500.0,1500.0,nan,nan,nan,nan,nan,nan,nan,nan,nan,nan
703696000,6,1583.9646,1636.7888,1585.1682,1638.9845,1500.0,1500.0,nan,nan,nan,nan,nan,nan,nan,nan,nan,nan
703796000,6,1582.9807,1632.8873,1593.944,1623.4614,1500.0,1500.0,nan,nan,nan,nan,nan,nan,nan,nan,nan,nan
703896000,6,1588.894,1625.0848,1588.6469,1622.3601,1500.0,1500.0,nan,nan,nan,nan,nan,nan,nan,nan,nan,nan
703996000,6,1588.4376,1620.081,1592.2261,1620.7998,1500.0,1500.0,nan,nan,nan,nan,nan,nan,nan,nan,nan,nan
704096000,6,1583.7443,1625.5758,1582.2502,1621.8353,1500.0,1500.0,nan,nan,nan,nan,nan,nan,nan,nan,nan,nan
704196000,6,1580.9738,1620.8586,1583.596,1619.2288,1500.0,1500.0,nan,nan,nan,nan,nan,nan,nan,nan,nan,nan
704296000,6,1586.0309,1617.3544,1583.0284,1619.8676,1500.0,1500.0,nan,nan,nan,nan,nan,nan,nan,nan,nan,nan
704396000,6,1568.7076,1627.0083,1576.5944,1620.9791,1500.0,1500.0,nan,nan,nan,nan,nan,nan,nan,nan,nan,nan
704496000,6,1577.7317,1619.8834,1573.998,1624.458,1500.0,1500.0,nan,nan,nan,nan,nan,nan,nan,nan,nan,nan
704596000,6,1577.5817,1611.7272,1587.0414,1612.053,1500.0,1500.0,nan,nan,nan,nan,nan,nan,nan,nan,nan,nan
704696000,6,1582.4004,1615.4896,1578.4967,1614.0522,1500.0,1500.0,nan,nan,nan,nan,nan,nan,nan,nan,nan,nan
704796000,6,1582.3707,1605.0736,1589.3756,1602.2925,1500.0,1500.0,nan,nan,nan,nan,nan,nan,nan,nan,nan,nan
704896000,6,1575.258,1607.9365,1568.9414,1620.2722,1500.0,1500.0,nan,nan,nan,nan,nan,nan,nan,nan,nan,nan
704996000,6,1570.8153,1608.7953,1575.446,1607.2803,1500.0,1500.0,nan,nan,nan,nan,nan,nan,nan,nan,nan,nan
705096000,6,1575.1481,1606.4631,1572.8757,1608.8555,1500.0,1500.0,nan,nan,nan,nan,nan,nan,nan,nan,nan,nan
705196000,6,1578.5734,1601.1945,1573.163,1605.3833,1500.0,1500.0,nan,nan,nan,nan,nan,nan,nan,nan,nan,nan
705296000,6,1574.8896,1605.5536,1567.1896,1608.6699,1500.0,1500.0,nan,nan,nan,nan,nan,nan,nan,nan,nan,nan
705396000,6,1565.7458,1611.9543,1575.1676,1601.8973,1500.0,1500.0,nan,nan,nan,nan,nan,nan,nan,nan,nan,nan
705496000,6,1573.8235,1598.6407,1566.841,1604.8945,1500.0,1500.0,nan,nan,nan,nan,nan,nan,nan,nan,nan,nan
705596000,6,1577.4714,1594.5249,1580.8313,1591.8414,1500.0,1500.0,nan,nan,nan,nan,nan,nan,nan,nan,nan,nan
705696000,6,1578.3683,1591.5974,1575.3204,1592.5883,1500.0,1500.0,nan,nan,nan,nan,nan,nan,nan,nan,nan,nan
705796000,6,1575.9926,1599.2308,1581.4069,1586.4552,1500.0,1500.0,nan,nan,nan,nan,nan,nan,nan,nan,nan,nan
705896000,6,1566.8325,1610.31,1565.4426,1598.8424,1500.0,1500.0,nan,nan,nan,nan,nan,nan,nan,nan,nan,nan
706000000,6,1573.4438,1593.6057,1575.1523,1588.6761,1500.0,1500.0,nan,nan,nan,nan,nan,nan,nan,nan,nan,nan
706096000,6,1572.2699,1587.8824,1570.2803,1588.2527,1500.0,1500.0,nan,nan,nan,nan,nan,nan,nan,nan,nan,nan
706196000,6,1563.8387,1598.6691,1567.6437,1594.4484,1500.0,1500.0,nan,nan,nan,nan,nan,nan,nan,nan,nan,nan
706296000,6,1574.7483,1587.4452,1568.3108,1592.7611,1500.0,1500.0,nan,nan,nan,nan,nan,nan,nan,nan,nan,nan
706396000,6,1568.8124,1590.4343,1569.0834,1586.9819,1500.0,1500.0,nan,nan,nan,nan,nan,nan,nan,nan,nan,nan
706496000,6,1565.6031,1595.9746,1565.4719,1591.1509,1500.0,1500.0,nan,nan,nan,nan,nan,nan,nan,nan,nan,nan
706596000,6,1564.8672,1597.5608,1562.8495,1593.1481,1500.0,1500.0,nan,nan,nan,nan,nan,nan,nan,nan,nan,nan
706696000,6,1579.9434,1580.7001,1572.1566,1579.384,1500.0,1500.0,nan,nan,nan,nan,nan,nan,nan,nan,nan,nan
706796000,6,1562.8826,1591.1619,1568.5859,1588.9176,1500.0,1500.0,nan,nan,nan,nan,nan,nan,nan,nan,nan,nan
706896000,6,1562.2151,1591.2692,1574.5668,1581.0225,1500.0,1500.0,nan,nan,nan,nan,nan,nan,nan,nan,nan,nan
706996000,6,1571.7859,1579.8878,1576.4679,1574.8376,1500.0,1500.0,nan,nan,nan,nan,nan,nan,nan,nan,nan,nan
707100000,6,1571.8258,1579.8153,1570.1036,1580.694,1500.0,1500.0,nan,nan,nan,nan,nan,nan,nan,nan,nan,nan
707196000,6,1580.8774,1570.4137,1575.9901,1574.4406,1500.0,1500.0,nan,nan,nan,nan,nan,nan,nan,nan,nan,nan
707296000,6,1570.065,1582.6772,1573.1255,1573.9683,1500.0,1500.0,nan,nan,nan,nan,nan,nan,nan,nan,nan,nan
707396000,6,1570.6633,1577.5044,1573.1334,1573.78,1500.0,1500.0,nan,nan,nan,nan,nan,nan,nan,nan,nan,nan
707496000,6,1556.3148,1587.165,1570.5253,1575.8771,1500.0,1500.0,nan,nan,nan,nan,nan,nan,nan,nan,nan,nan
707596000,6,1608.0537,1605.7604,1559.5562,1513.717,1500.0,1500.0,nan,nan,nan,nan,nan,nan,nan,nan,nan,nan
707696000,6,1631.4133,1623.7153,1537.5115,1493.3973,1500.0,1500.0,nan,nan,nan,nan,nan,nan,nan,nan,nan,nan
707796000,6,1630.3365,1633.1666,1534.5723,1483.6278,1500.0,1500.0,nan,nan,nan,nan,nan,nan,nan,nan,nan,nan
707896000,6,1624.4797,1640.1759,1516.1926,1501.7646,1500.0,1500.0,nan,nan,nan,nan,nan,nan,nan,nan,nan,nan
707996000,6,1596.9102,1663.1066,1471.123,1535.1792,1500.0,1500.0,nan,nan,nan,nan,nan,nan,nan,nan,nan,nan
708096000,6,1592.9548,1659.9259,1468.6099,1542.621,1500.0,1500.0,nan,nan,nan,nan,nan,nan,nan,nan,nan,nan
708196000,6,1612.8076,1629.714,1500.4343,1525.5227,1500.0,1500.0,nan,nan,nan,nan,nan,nan,nan,nan,nan,nan
708296000,6,1629.2042,1612.2079,1524.2234,1514.9529,1500.0,1500.0,nan,nan,nan,nan,nan,nan,nan,nan,nan,nan
708396000,6,1617.6748,1609.1816,1534.3274,1529.0973,1500.0,1500.0,nan,nan,nan,nan,nan,nan,nan,nan,nan,nan
708496000,6,1615.2137,1609.3218,1540.2173,1537.1135,1500.0,1500.0,nan,nan,nan,nan,nan,nan,nan,nan,nan,nan
708596000,6,1622.5316,1626.9955,1552.4225,1523.6553,1500.0,1500.0,nan,nan,nan,nan,nan,nan,nan,nan,nan,nan
708696000,6,1620.658,1625.682,1545.8713,1539.752,1500.0,1500.0,nan,nan,nan,nan,nan,nan,nan,nan,nan,nan
708796000,6,1622.2048,1626.2202,1560.5088,1536.2234,1500.0,1500.0,nan,nan,nan,nan,nan,nan,nan,nan,nan,nan
708896000,6,1628.8633,1629.4281,1556.4998,1549.5648,1500.0,1500.0,nan,nan,nan,nan,nan,nan,nan,nan,nan,nan
708996000,6,1629.515,1632.5553,1571.3319,1545.6678,1500.0,1500.0,nan,nan,nan,nan,nan,nan,nan,nan,nan,nan
709096000,6,1633.7946,1621.1232,1567.9949,1555.8293,1500.0,1500.0,nan,nan,nan,nan,nan,nan,nan,nan,nan,nan
709196000,6,1643.2687,1639.3923,1570.98,1539.0514,1500.0,1500.0,nan,nan,nan,nan,nan,nan,nan,nan,nan,nan
709296000,6,1634.8733,1642.5168,1570.3173,1546.0553,1500.0,1500.0,nan,nan,nan,nan,nan,nan,nan,nan,nan,nan
709396000,6,1634.4076,1647.0332,1563.5089,1553.3307,1500.0,1500.0,nan,nan,nan,nan,nan,nan,nan,nan,nan,nan
709496000,6,1640.1155,1636.0801,1569.2611,1549.2444,1500.0,1500.0,nan,nan,nan,nan,nan,nan,nan,nan,nan,nan
709596000,6,1625.5404,1641.7928,1578.8229,1547.8763,1500.0,1500.0,nan,nan,nan,nan,nan,nan,nan,nan,nan,nan
709696000,6,1627.7163,1629.4702,1580.6023,1543.0223,1500.0,1500.0,nan,nan,nan,nan,nan,nan,nan,nan,nan,nan
709796000,6,1620.5027,1646.6901,1562.4973,1543.9615,1500.0,1500.0,nan,nan,nan,nan,nan,nan,nan,nan,nan,nan
709896000,6,1611.8094,1645.9469,1562.3245,1547.6982,1500.0,1500.0,nan,nan,nan,nan,nan,nan,nan,nan,nan,nan
709996000,6,1602.5063,1649.551,1566.1956,1533.5586,1500.0,1500.0,nan,nan,nan,nan,nan,nan,nan,nan,nan,nan
710096000,6,1606.6227,1643.1996,1568.4283,1535.373,1500.0,1500.0,nan,nan,nan,nan,nan,nan,nan,nan,nan,nan
710196000,6,1596.7113,1650.806,1555.6609,1538.923,1500.0,1500.0,nan,nan,nan,nan,nan,nan,nan,nan,nan,nan
710300000,6,1613.6152,1637.0961,1554.0153,1529.8634,1500.0,1500.0,nan,nan,nan,nan,nan,nan,nan,nan,nan,nan
710396000,6,1617.8192,1632.0981,1557.8898,1527.9502,1500.0,1500.0,nan,nan,nan,nan,nan,nan,nan,nan,nan,nan
710496000,6,1610.4078,1632.457,1555.0201,1529.2539,1500.0,1500.0,nan,nan,nan,nan,nan,nan,nan,nan,nan,nan
710600000,6,1609.8871,1630.7418,1543.5623,1550.6587,1500.0,1500.0,nan,nan,nan,nan,nan,nan,nan,nan,nan,nan
710696000,6,1608.0663,1627.8536,1545.0952,1544.3165,1500.0,1500.0,nan,nan,nan,nan,nan,nan,nan,nan,nan,nan
710796000,6,1591.1329,1640.9443,1538.2148,1553.7803,1500.0,1500.0,nan,nan,nan,nan,nan,nan,nan,nan,nan,nan
710896000,6,1599.0803,1625.7644,1543.5327,1548.2709,1500.0,1500.0,nan,nan,nan,nan,nan,nan,nan,nan,nan,nan
710996000,6,1609.3754,1631.6035,1548.6173,1531.923,1500.0,1500.0,nan,nan,nan,nan,nan,nan,nan,nan,nan,nan
711096000,6,1598.9344,1637.9436,1533.5927,1544.5114,1500.0,1500.0,nan,nan,nan,nan,nan,nan,nan,nan,nan,nan
711200000,6,1608.5514,1622.8604,1531.7345,1548.5956,1500.0,1500.0,nan,nan,nan,nan,nan,nan,nan,nan,nan,nan
711296000,6,1575.1962,1598.3257,1566.1079,1572.6499,1500.0,1500.0,nan,nan,nan,nan,nan,nan,nan,nan,nan,nan
711396000,6,1544.7378,1585.4362,1589.7437,1595.6506,1500.0,1500.0,nan,nan,nan,nan,nan,nan,nan,nan,nan,nan
711500000,6,1542.3708,1565.2932,1599.7831,1602.9563,1500.0,1500.0,nan,nan,nan,nan,nan,nan,nan,nan,nan,nan
711600000,6,1545.2212,1558.2096,1599.3754,1610.7847,1500.0,1500.0,nan,nan,nan,nan,nan,nan,nan,nan,nan,nan
711696000,6,1548.1802,1557.3002,1607.831,1594.7076,1500.0,1500.0,nan,nan,nan,nan,nan,nan,nan,nan,nan,nan
711796000,6,1550.7509,1557.2577,1594.9276,1600.1282,1500.0,1500.0,nan,nan,nan,nan,nan,nan,nan,nan,nan,nan
711896000,6,1549.2063,1566.2046,1589.4683,1598.798,1500.0,1500.0,nan,nan,nan,nan,nan,nan,nan,nan,nan,nan
711996000,6,1564.5487,1567.3612,1577.5112,1601.9644,1500.0,1500.0,nan,nan,nan,nan,nan,nan,nan,nan,nan,nan
712096000,6,1552.4502,1584.2196,1575.9086,1595.3232,1500.0,1500.0,nan,nan,nan,nan,nan,nan,nan,nan,nan,nan
712200000,6,1561.5713,1581.9036,1567.7585,1593.734,1500.0,1500.0,nan,nan,nan,nan,nan,nan,nan,nan,nan,nan
712296000,6,1578.7698,1567.2461,1582.5276,1579.8541,1500.0,1500.0,nan,nan,nan,nan,nan,nan,nan,nan,nan,nan
712396000,6,1571.1697,1573.1954,1566.91,1583.7438,1500.0,1500.0,nan,nan,nan,nan,nan,nan,nan,nan,nan,nan
712496000,6,1559.1709,1589.3424,1569.2876,1583.1941,1500.0,1500.0,nan,nan,nan,nan,nan,nan,nan,nan,nan,nan
712596000,6,1564.215,1587.3552,1572.1752,1584.6128,1500.0,1500.0,nan,nan,nan,nan,nan,nan,nan,nan,nan,nan
712696000,6,1568.2502,1578.9637,1576.4226,1573.8369,1500.0,1500.0,nan,nan,nan,nan,nan,nan,nan,nan,nan,nan
712796000,6,1560.5275,1586.6661,1564.8325,1583.6587,1500.0,1500.0,nan,nan,nan,nan,nan,nan,nan,nan,nan,nan
712896000,6,1569.7682,1572.398,1561.4952,1584.1704,1500.0,1500.0,nan,nan,nan,nan,nan,nan,nan,nan,nan,nan
712996000,6,1566.2849,1580.3646,1569.6714,1576.9661,1500.0,1500.0,nan,nan,nan,nan,nan,nan,nan,nan,nan,nan
713100000,6,1574.84,1568.1776,1565.3223,1579.6807,1500.0,1500.0,nan,nan,nan,nan,nan,nan,nan,nan,nan,nan
713196000,6,1564.4456,1580.0139,1568.907,1576.7742,1500.0,1500.0,nan,nan,nan,nan,nan,nan,nan,nan,nan,nan
713296000,6,1559.0813,1589.3583,1572.1152,1573.8722,1500.0,1500.0,nan,nan,nan,nan,nan,nan,nan,nan,nan,nan
713396000,6,1569.545,1574.8958,1568.2327,1579.3833,1500.0,1500.0,nan,nan,nan,nan,nan,nan,nan,nan,nan,nan
713496000,6,1564.1345,1577.8912,1566.4241,1575.7706,1500.0,1500.0,nan,nan,nan,nan,nan,nan,nan,nan,nan,nan
713596000,6,1569.754,1572.8794,1562.7455,1580.4736,1500.0,1500.0,nan,nan,nan,nan,nan,nan,nan,nan,nan,nan
713700000,6,1569.5452,1571.5826,1571.2244,1571.1326,1500.0,1500.0,nan,nan,nan,nan,nan,nan,nan,nan,nan,nan
713796000,6,1559.5564,1586.4446,1556.2009,1585.4143,1500.0,1500.0,nan,nan,nan,nan,nan,nan,nan,nan,nan,nan
713896000,6,1562.3978,1581.748,1563.6223,1576.2246,1500.0,1500.0,nan,nan,nan,nan,nan,nan,nan,nan,nan,nan
