timestamp,ref_timestamp,ref_lat,ref_lon,x,y,z,delta_xy[0],delta_xy[1],delta_z,vx,vy,vz,z_deriv,delta_vxy[0],delta_vxy[1],delta_vz,ax,ay,az,yaw,ref_alt,dist_bottom,dist_bottom_rate,eph,epv,evh,evv,vxy_max,vz_max,hagl_min,hagl_max,xy_valid,z_valid,v_xy_valid,v_z_valid,xy_reset_counter,z_reset_counter,vxy_reset_counter,vz_reset_counter,xy_global,z_global,dist_bottom_valid
2008000,0,0.0,0.0,-1.5723885e-05,1.47696865e-05,0.0022442664,6.178208e-08,1.526812e-06,0.0,-0.0008569847,0.00055514486,-0.012007061,-0.00951345,1.544552e-05,0.00038170296,0.0,-0.12149745,0.048819177,-0.09414832,0.41115564,0.0,0.13923644,0.012007061,0.41866788,1.0004059,6.2298164,0.7500382,inf,inf,inf,inf,1,1,1,1,1,0,1,1,0,0,0
2104000,0,0.0,0.0,-0.00012280699,0.00013560631,0.0053358544,6.178208e-08,1.526812e-06,0.0,-0.0004411405,0.0023555185,-0.02938367,-0.022580286,1.544552e-05,0.00038170296,0.0,-0.051078033,0.08909275,-0.15403515,0.41111848,0.0,0.10571056,0.02938367,0.40703258,0.7099673,3.8232362,0.74959296,inf,inf,inf,inf,1,1,1,1,1,0,1,1,0,0,0
2208000,0,0.0,0.0,-0.00017113457,0.0003439029,0.0024717285,6.178208e-08,1.526812e-06,0.0,0.00033826116,0.0025328975,-0.05011636,-0.042402692,1.544552e-05,0.00038170296,0.0,0.04134746,-0.016364347,-0.14715175,0.41086292,0.0,0.10198867,0.05011636,0.38438833,0.58682275,2.326648,0.7478395,inf,inf,inf,inf,1,1,1,1,1,0,1,1,0,0,0
2304000,0,0.0,0.0,-9.33828e-05,0.0006111687,-0.0058486587,6.178208e-08,1.526812e-06,0.0,0.0013543809,0.0046307417,-0.06797984,-0.062559195,1.544552e-05,0.00038170296,0.0,0.06509287,-0.008274677,-0.16949232,0.41075057,0.0,0.1046122,0.06797984,0.3506663,0.51958996,1.5949763,0.74415,inf,inf,inf,inf,1,1,1,1,1,0,1,1,0,0,0
2408000,0,0.0,0.0,0.00046840965,0.000970333,-0.016010104,6.178208e-08,1.526812e-06,0.0,0.008245533,0.0028489905,-0.083969876,-0.08006724,1.544552e-05,0.00038170296,0.0,-0.028498847,0.028513348,-0.095658,0.4108566,0.0,0.10952097,0.083969876,0.29635507,0.4692521,1.0772852,0.7347024,inf,inf,inf,inf,1,1,1,1,1,0,1,1,0,0,0
2504000,0,0.0,0.0,0.001515041,0.0010971343,-0.023501502,6.178208e-08,1.526812e-06,0.0,0.012639227,0.002160015,-0.09848282,-0.09255095,1.544552e-05,0.00038170296,0.0,0.04558396,0.005476613,-0.22900848,0.41125914,0.0,0.11935999,0.09848282,0.27550828,0.44928586,0.8360112,0.7234793,inf,inf,inf,inf,1,1,1,1,1,0,1,1,0,0,0
2608000,0,0.0,0.0,0.0032622092,0.0011160718,-0.03312697,6.178208e-08,1.526812e-06,0.0,0.019778254,0.002150503,-0.114352986,-0.106609866,1.544552e-05,0.00038170296,0.0,0.031778064,-0.0015908444,-0.14558992,0.41169032,0.0,0.1251737,0.114352986,0.26408547,0.4424114,0.6784769,0.7092602,inf,inf,inf,inf,1,1,1,1,1,0,1,1,0,0,0
2704000,0,0.0,0.0,0.0053957463,0.0011322809,-0.0405471,6.178208e-08,1.526812e-06,0.0,0.026675023,0.0030900482,-0.12610178,-0.114415094,1.544552e-05,0.00038170296,0.0,0.077798665,0.08005068,-0.11252611,0.41180584,0.0,0.1264705,0.12610178,0.2489638,0.43875518,0.5666847,0.6910131,inf,inf,inf,inf,1,1,1,1,1,0,1,1,0,0,0
2808000,0,0.0,0.0,0.007992029,0.0011465071,-0.04970145,6.178208e-08,1.526812e-06,0.0,0.031170899,0.0012152088,-0.1357648,-0.12061536,1.544552e-05,0.00038170296,0.0,0.06592998,-0.05131883,-0.1077922,0.41147035,0.0,0.13218573,0.1357648,0.22730143,0.43180943,0.47012076,0.66340125,inf,inf,inf,inf,1,1,1,1,1,0,1,1,0,0,0
2904000,0,0.0,0.0,0.010548435,0.001054791,-0.05791125,6.178208e-08,1.526812e-06,0.0,0.03669419,0.002589597,-0.14733037,-0.12834802,1.544552e-05,0.00038170296,0.0,0.08088812,0.06273251,-0.2718521,0.41095784,0.0,0.13694388,0.14733037,0.21823731,0.4334455,0.41830382,0.6395548,inf,inf,inf,inf,1,1,1,1,1,0,1,1,0,0,0
3008000,0,0.0,0.0,0.013450971,0.0011811454,-0.06661815,6.178208e-08,1.526812e-06,0.0,0.042157825,0.0035303829,-0.15694359,-0.13331477,1.544552e-05,0.00038170296,0.0,0.14761393,-0.018608078,-0.16444828,0.41057813,0.0,0.13777894,0.15694359,0.2127456,0.43875918,0.382512,0.6145119,inf,inf,inf,inf,1,1,1,1,1,0,1,1,0,0,0
3104000,0,0.0,0.0,0.01638977,0.001297733,-0.07357903,6.178208e-08,1.526812e-06,0.0,0.048788775,0.0037563625,-0.16284032,-0.1337223,1.544552e-05,0.00038170296,0.0,0.036200564,0.014416858,-0.18726382,0.4102973,0.0,0.1473155,0.16284032,0.1977775,0.42989257,0.34843802,0.58083975,inf,inf,inf,inf,1,1,1,1,1,0,1,1,0,0,0
3208000,0,0.0,0.0,0.019740192,0.0015680032,-0.07946303,6.178208e-08,1.526812e-06,0.0,0.054811522,0.0046648243,-0.16523251,-0.12909576,1.544552e-05,0.00038170296,0.0,0.11900982,-0.01517291,-0.12514925,0.41011775,0.0,0.15290311,0.16523251,0.19507773,0.43402597,0.33589202,0.55585635,inf,inf,inf,inf,1,1,1,1,1,0,1,1,0,0,0
3304000,0,0.0,0.0,0.022988638,0.0018347688,-0.08071914,6.178208e-08,1.526812e-06,0.0,0.06029927,0.0054793702,-0.16667561,-0.12068157,1.544552e-05,0.00038170296,0.0,0.1021735,-0.08366833,-0.19496305,0.41019973,0.0,0.16619757,0.16667561,0.1909832,0.43360624,0.32798254,0.5310461,inf,inf,inf,inf,1,1,1,1,1,0,1,1,0,0,0
3408000,0,0.0,0.0,0.026582051,0.0021732138,-0.08105108,6.178208e-08,1.526812e-06,0.0,0.06597584,0.006111438,-0.16679779,-0.11083322,1.544552e-05,0.00038170296,0.0,0.069610395,0.049679764,-0.1798151,0.4101518,0.0,0.16399981,0.16679779,0.18364513,0.42590246,0.32091513,0.50111586,inf,inf,inf,inf,1,1,1,1,1,0,1,1,0,0,0
3504000,0,0.0,0.0,0.02994797,0.0025218287,-0.0805191,6.178208e-08,1.526812e-06,0.0,0.07162187,0.006139821,-0.16537784,-0.10094697,1.544552e-05,0.00038170296,0.0,0.09956053,0.067155436,-0.15599373,0.41004947,0.0,0.16194281,0.16537784,0.18188372,0.42418882,0.32201904,0.47984532,inf,inf,inf,inf,1,1,1,1,1,0,1,1,0,0,0
3608000,0,0.0,0.0,0.03365265,0.0029212756,-0.079221465,6.178208e-08,1.526812e-06,0.0,0.07778298,0.0067981854,-0.16218029,-0.08930929,1.544552e-05,0.00038170296,0.0,0.10804625,-0.061563395,-0.0908086,0.40998855,0.0,0.16409838,0.16218029,0.18276301,0.4247456,0.32730725,0.46098286,inf,inf,inf,inf,1,1,1,1,1,0,1,1,0,0,0
3704000,0,0.0,0.0,0.037067417,0.00319755,-0.07661687,6.178208e-08,1.526812e-06,0.0,0.08447808,0.006578497,-0.16222864,-0.08141598,1.544552e-05,0.00038170296,0.0,0.101627365,0.034872644,-0.10040774,0.41013443,0.0,0.16040368,0.16222864,0.18278152,0.42218238,0.33192262,0.44374153,inf,inf,inf,inf,1,1,1,1,1,0,1,1,0,0,0
3808000,0,0.0,0.0,0.040681884,0.0035053159,-0.07350294,6.178208e-08,1.526812e-06,0.0,0.08740307,0.0075752335,-0.1605393,-0.071970254,1.544552e-05,0.00038170296,0.0,0.1274283,-0.047751337,-0.0008475035,0.41017535,0.0,0.15852171,0.1605393,0.17927113,0.4128661,0.33230504,0.42292753,inf,inf,inf,inf,1,1,1,1,1,0,1,1,0,0,0
3904000,0,0.0,0.0,0.043672122,0.0037210905,-0.071572274,6.178208e-08,1.526812e-06,0.0,0.09021921,0.006561581,-0.16034482,-0.06654325,1.544552e-05,0.00038170296,0.0,0.063695826,0.011890194,-0.117696814,0.4099455,0.0,0.15450293,0.16034482,0.18014036,0.40978533,0.33617035,0.4095609,inf,inf,inf,inf,1,1,1,1,1,0,1,1,0,0,0
4004000,0,0.0,0.0,0.046673905,0.004015517,-0.07259898,6.178208e-08,1.526812e-06,0.0,0.0937034,0.008921077,-0.16197915,-0.065697126,1.544552e-05,0.00038170296,0.0,0.14525108,0.008913148,-0.15361865,0.4098956,0.0,0.14647256,0.16197915,0.18152542,0.40683585,0.33950767,0.39811465,inf,inf,inf,inf,1,1,1,1,1,0,1,1,0,0,0
4108000,0,0.0,0.0,0.049375903,0.0043537943,-0.077062935,6.178208e-08,1.526812e-06,0.0,0.09735698,0.009892675,-0.167178,-0.072019726,1.544552e-05,0.00038170296,0.0,0.048143774,0.027328257,-0.17552254,0.40959468,0.0,0.13832007,0.167178,0.18505749,0.40627524,0.34394795,0.38910428,inf,inf,inf,inf,1,1,1,1,1,0,1,1,0,0,0
4212000,0,0.0,0.0,0.0515309,0.0046408866,-0.081747875,6.178208e-08,1.526812e-06,0.0,0.10079139,0.009987436,-0.17161559,-0.07673346,1.544552e-05,0.00038170296,0.0,0.09400406,-0.042842582,-0.029001383,0.40931728,0.0,0.14560956,0.17161559,0.18337694,0.39877924,0.34006312,0.37671185,inf,inf,inf,inf,1,1,1,1,1,0,1,1,0,0,0
4308000,0,0.0,0.0,0.053147573,0.004862283,-0.08466855,6.178208e-08,1.526812e-06,0.0,0.10171669,0.009068434,-0.17409854,-0.07757368,1.544552e-05,0.00038170296,0.0,0.13724664,-0.044901934,-0.1314748,0.40922526,0.0,0.14392637,0.17409854,0.18451995,0.39593038,0.33907935,0.36981037,inf,inf,inf,inf,1,1,1,1,1,0,1,1,0,0,0
4412000,0,0.0,0.0,0.05454963,0.004918898,-0.0897974,6.178208e-08,1.526812e-06,0.0,0.10455422,0.007610219,-0.17779407,-0.081037186,1.544552e-05,0.00038170296,0.0,0.1805929,-0.026350278,-0.07557216,0.40948823,0.0,0.14488131,0.17779407,0.18757737,0.3955013,0.33914366,0.3650628,inf,inf,inf,inf,1,1,1,1,1,0,1,1,0,0,0
4508000,0,0.0,0.0,0.055484444,0.0047626873,-0.09295221,6.178208e-08,1.526812e-06,0.0,0.104250364,0.005787146,-0.17943722,-0.08045692,1.544552e-05,0.00038170296,0.0,0.068061255,-0.06478393,-0.056549903,0.40955287,0.0,0.14465064,0.17943722,0.18809447,0.3928419,0.3356238,0.36023608,inf,inf,inf,inf,1,1,1,1,1,0,1,1,0,0,0
4612000,0,0.0,0.0,0.055892613,0.004408597,-0.09905091,6.178208e-08,1.526812e-06,0.0,0.1011171,0.0056716576,-0.18295266,-0.08423508,1.544552e-05,0.00038170296,0.0,-0.0103313355,0.08246056,-0.17142574,0.40956637,0.0,0.13920853,0.18295266,0.18436804,0.3855166,0.32622933,0.35333773,inf,inf,inf,inf,1,1,1,1,1,0,1,1,0,0,0
4716000,0,0.0,0.0,0.055790413,0.0040818625,-0.10685592,6.178208e-08,1.526812e-06,0.0,0.101069584,0.0064341547,-0.18903483,-0.091562375,1.544552e-05,0.00038170296,0.0,0.14322646,0.055181645,-0.1934003,0.40967384,0.0,0.13830382,0.18903483,0.18687584,0.38583472,0.32409194,0.35154745,inf,inf,inf,inf,1,1,1,1,1,0,1,1,0,0,0
4812000,0,0.0,0.0,0.05547566,0.003944172,-0.112657644,6.178208e-08,1.526812e-06,0.0,0.10054898,0.007620385,-0.19068077,-0.09219588,1.544552e-05,0.00038170296,0.0,0.14243355,-0.04676674,-0.0632489,0.4097061,0.0,0.1463593,0.19068077,0.18687822,0.38407797,0.31913772,0.34915134,inf,inf,inf,inf,1,1,1,1,1,0,1,1,0,0,0
4916000,0,0.0,0.0,0.05483188,0.0037818758,-0.11745165,6.178208e-08,1.526812e-06,0.0,0.10026372,0.006586047,-0.19395445,-0.09264603,1.544552e-05,0.00038170296,0.0,0.13295761,0.0064354604,-0.15250127,0.40980053,0.0,0.14865723,0.19395445,0.18284617,0.37806955,0.3091848,0.3446634,inf,inf,inf,inf,1,1,1,1,1,0,1,1,0,0,0
5012000,0,0.0,0.0,0.0,0.0,-0.12293807,6.178208e-08,1.526812e-06,0.0,0.0971636,0.008916037,-0.19569953,-0.092945956,1.544552e-05,0.00038170296,0.0,0.09616563,0.15791634,-0.086255364,0.4099418,0.0,0.14563096,0.19569953,0.18276359,0.3769929,0.3044654,0.3432577,inf,inf,inf,inf,0,1,0,1,1,0,1,1,0,0,0
5108000,0,0.0,0.0,0.0,0.0,-0.12920797,6.178208e-08,1.526812e-06,0.0,0.09478171,0.010630295,-0.19935095,-0.09596703,1.544552e-05,0.00038170296,0.0,0.12165997,0.05179628,-0.13053882,0.41020015,0.0,0.14200944,0.19935095,0.18243514,0.376051,0.2995724,0.3420195,inf,inf,inf,inf,0,1,0,1,1,0,1,1,0,0,0
5212000,0,0.0,0.0,0.0,0.0,-0.13647994,6.178208e-08,1.526812e-06,0.0,0.09102194,0.011245196,-0.20282319,-0.09887749,1.544552e-05,0.00038170296,0.0,0.0840417,-0.015671058,-0.19687599,0.41059485,0.0,0.14632511,0.20282319,0.17842482,0.371127,0.2904899,0.33857962,inf,inf,inf,inf,0,1,0,1,1,0,1,1,0,0,0
5308000,0,0.0,0.0,0.0,0.0,-0.1428468,6.178208e-08,1.526812e-06,0.0,0.091224186,0.012298512,-0.2059743,-0.10075569,1.544552e-05,0.00038170296,0.0,0.14280015,0.03917737,-0.14179198,0.41077238,0.0,0.14714381,0.2059743,0.17814748,0.37071198,0.28636456,0.33767554,inf,inf,inf,inf,0,1,0,1,1,0,1,1,0,0,0
5412000,0,0.0,0.0,0.0,0.0,-0.14887477,6.178208e-08,1.526812e-06,0.0,0.09018589,0.012181574,-0.20563407,-0.098125026,1.544552e-05,0.00038170296,0.0,0.09805106,-0.068868905,-0.05166046,0.41085535,0.0,0.15128817,0.20563407,0.1797264,0.37257728,0.28435564,0.33792025,inf,inf,inf,inf,0,1,0,1,1,0,1,1,0,0,0
5508000,0,0.0,0.0,0.0,0.0,-0.15052012,6.178208e-08,1.526812e-06,0.0,0.08846274,0.011442167,-0.20497619,-0.091758445,1.544552e-05,0.00038170296,0.0,0.11631342,-0.06646572,-0.12557487,0.41085824,0.0,0.15630022,0.20497619,0.17956507,0.37256983,0.28101224,0.3370641,inf,inf,inf,inf,0,1,0,1,1,0,1,1,0,0,0
5612000,0,0.0,0.0,0.0,0.0,-0.15197593,6.178208e-08,1.526812e-06,0.0,0.088103734,0.011966677,-0.20264395,-0.08399178,1.544552e-05,0.00038170296,0.0,0.091693565,-0.042710356,-0.1768479,0.4110755,0.0,0.15635428,0.20264395,0.17545035,0.3683197,0.27330247,0.3334719,inf,inf,inf,inf,0,1,0,1,1,0,1,1,0,0,0
5708000,0,0.0,0.0,0.0,0.0,-0.15235186,6.178208e-08,1.526812e-06,0.0,0.0874235,0.012450331,-0.19993722,-0.07617446,1.544552e-05,0.00038170296,0.0,0.06978289,0.08024699,-0.12393295,0.4111326,0.0,0.15629208,0.19993722,0.1752435,0.3684718,0.27052265,0.3323193,inf,inf,inf,inf,0,1,0,1,1,0,1,1,0,0,0
5812000,0,0.0,0.0,0.0,0.0,-0.15333739,6.178208e-08,1.526812e-06,0.0,0.08516788,0.013143787,-0.19743444,-0.06975847,1.544552e-05,0.00038170296,0.0,0.051295325,0.00085344067,-0.12402515,0.4113366,0.0,0.1530574,0.19743444,0.17691787,0.37085846,0.2698462,0.33213806,inf,inf,inf,inf,0,1,0,1,1,0,1,1,0,0,0
5908000,0,0.0,0.0,0.0,0.0,-0.15402523,6.178208e-08,1.526812e-06,0.0,0.083950944,0.012535981,-0.19354329,-0.06274567,1.544552e-05,0.00038170296,0.0,0.06539598,0.0034636904,0.0027585772,0.41126353,0.0,0.14793247,0.19354329,0.17665891,0.3710642,0.26742744,0.3305723,inf,inf,inf,inf,0,1,0,1,1,0,1,1,0,0,0
6012000,0,0.0,0.0,0.0,0.0,-0.15335084,6.178208e-08,1.526812e-06,0.0,0.08115576,0.012259049,-0.18890221,-0.05415931,1.544552e-05,0.00038170296,0.0,0.02296589,0.06422099,-0.11390633,0.41114205,0.0,0.15596035,0.18890221,0.17300536,0.36720437,0.26154074,0.3262999,inf,inf,inf,inf,0,1,0,1,1,0,1,1,0,0,0
6108000,0,0.0,0.0,0.0,0.0,-0.15078257,6.178208e-08,1.526812e-06,0.0,0.07656607,0.011672589,-0.18358731,-0.044132248,1.544552e-05,0.00038170296,0.0,0.0835768,0.006421876,-0.07278844,0.41128445,0.0,0.15003367,0.18358731,0.17295744,0.36751065,0.25971332,0.32438225,inf,inf,inf,inf,0,1,0,1,1,0,1,1,0,0,0
6212000,0,0.0,0.0,0.0,0.0,-0.15029016,6.178208e-08,1.526812e-06,0.0,0.074321225,0.010896122,-0.1780862,-0.037023462,1.544552e-05,0.00038170296,0.0,0.12697555,0.08075847,-0.043058764,0.41130513,0.0,0.14269409,0.1780862,0.17454112,0.3698089,0.25960466,0.32319614,inf,inf,inf,inf,0,1,0,1,1,0,1,1,0,0,0
6308000,0,0.0,0.0,0.0,0.0,-0.14918202,6.178208e-08,1.526812e-06,0.0,0.071446,0.011652431,-0.1730881,-0.030464657,1.544552e-05,0.00038170296,0.0,0.047358826,0.005706082,-0.012359581,0.41130453,0.0,0.14780644,0.1730881,0.1695121,0.3639122,0.25288785,0.31729507,inf,inf,inf,inf,0,1,0,1,1,0,1,1,0,0,0
6412000,0,0.0,0.0,0.0,0.0,-0.14764692,6.178208e-08,1.526812e-06,0.0,0.06902953,0.012305871,-0.16938539,-0.025344197,1.544552e-05,0.00038170296,0.0,0.06059231,0.0778765,-0.15838723,0.4113997,0.0,0.14293472,0.16938539,0.17123117,0.36616945,0.25309736,0.31571823,inf,inf,inf,inf,0,1,0,1,1,0,1,1,0,0,0
6508000,0,0.0,0.0,0.0,0.0,-0.14484784,6.178208e-08,1.526812e-06,0.0,0.06505614,0.014485471,-0.16246103,-0.016142208,1.544552e-05,0.00038170296,0.0,0.13713296,0.061556663,0.053633932,0.41154286,0.0,0.14752154,0.16246103,0.171169,0.36621386,0.2515963,0.31289485,inf,inf,inf,inf,0,1,0,1,1,0,1,1,0,0,0
6612000,0,0.0,0.0,0.0,0.0,-0.13821025,6.178208e-08,1.526812e-06,0.0,0.06362837,0.014959375,-0.15125266,-0.00022928626,1.544552e-05,0.00038170296,0.0,0.07305384,0.0048410143,-0.06809737,0.411607,0.0,0.14625677,0.15125266,0.16811357,0.3623316,0.2470759,0.30747148,inf,inf,inf,inf,0,1,0,1,1,0,1,1,0,0,0
6708000,0,0.0,0.0,0.0,0.0,-0.13201393,6.178208e-08,1.526812e-06,0.0,0.05946745,0.018472927,-0.14564025,0.008405749,1.544552e-05,0.00038170296,0.0,0.10297735,-0.004605106,-0.08026603,0.411777,0.0,0.14256273,0.14564025,0.16819924,0.36231774,0.24567248,0.3043822,inf,inf,inf,inf,0,1,0,1,1,0,1,1,0,0,0
6812000,0,0.0,0.0,0.0,0.0,-0.12560782,6.178208e-08,1.526812e-06,0.0,0.05825884,0.021331815,-0.13674982,0.019153113,1.544552e-05,0.00038170296,0.0,0.025719693,0.016235366,-0.024343839,0.41174102,0.0,0.13760746,0.13674982,0.1699119,0.36421245,0.24582967,0.30201548,inf,inf,inf,inf,0,1,0,1,1,0,1,1,0,0,0
6908000,0,0.0,0.0,0.0,0.0,-0.11896723,6.178208e-08,1.526812e-06,0.0,0.054112166,0.023875766,-0.12900282,0.028402071,1.544552e-05,0.00038170296,0.0,0.010188377,0.050448112,-0.0070389356,0.4115724,0.0,0.13692756,0.12900282,0.17013834,0.36412558,0.24469715,0.2987164,inf,inf,inf,inf,0,1,0,1,1,0,1,1,0,0,0
7012000,0,0.0,0.0,0.0,0.0,-0.11031125,6.178208e-08,1.526812e-06,0.0,0.053004004,0.026249351,-0.12166649,0.037956983,1.544552e-05,0.00038170296,0.0,0.06482348,-0.046769146,-0.0024167818,0.41147286,0.0,0.13682605,0.12166649,0.16701303,0.3598732,0.23985599,0.2926941,inf,inf,inf,inf,0,1,0,1,1,0,1,1,0,0,0
7108000,0,0.0,0.0,0.0,0.0,-0.10364611,6.178208e-08,1.526812e-06,0.0,0.050873995,0.028333783,-0.11550376,0.043925665,1.544552e-05,0.00038170296,0.0,0.06846542,0.06929606,-0.048165206,0.41147208,0.0,0.12668818,0.11550376,0.16716607,0.3595861,0.23849535,0.2891662,inf,inf,inf,inf,0,1,0,1,1,0,1,1,0,0,0
7212000,0,0.0,0.0,0.0,0.0,-0.09608763,6.178208e-08,1.526812e-06,0.0,0.048782136,0.029009191,-0.10633532,0.0525048,1.544552e-05,0.00038170296,0.0,-0.010041839,0.048061438,-0.0120550385,0.41161728,0.0,0.12473203,0.10633532,0.1689553,0.36117354,0.23856959,0.2863706,inf,inf,inf,inf,0,1,0,1,1,0,1,1,0,0,0
7308000,0,0.0,0.0,0.0,0.0,-0.09049393,6.178208e-08,1.526812e-06,0.0,0.04730338,0.028081901,-0.09863483,0.05782072,1.544552e-05,0.00038170296,0.0,0.07356307,0.087245524,0.043698583,0.411564,0.0,0.11983056,0.09863483,0.16901201,0.36067235,0.23689863,0.28264838,inf,inf,inf,inf,0,1,0,1,1,0,1,1,0,0,0
7412000,0,0.0,0.0,0.0,0.0,-0.08254839,6.178208e-08,1.526812e-06,0.0,0.045187414,0.028541924,-0.092948355,0.06244874,1.544552e-05,0.00038170296,0.0,0.14582849,-0.037427314,-0.03364216,0.41121623,0.0,0.11900177,0.092948355,0.16603225,0.35629478,0.23205908,0.2765279,inf,inf,inf,inf,0,1,0,1,1,0,1,1,0,0,0
7508000,0,0.0,0.0,0.0,0.0,-0.07729731,6.178208e-08,1.526812e-06,0.0,0.042174026,0.027751109,-0.0864131,0.065600716,1.544552e-05,0.00038170296,0.0,-0.038098834,-0.015232522,0.014822929,0.41143522,0.0,0.111270905,0.0864131,0.16615096,0.35573962,0.23037308,0.27280498,inf,inf,inf,inf,0,1,0,1,1,0,1,1,0,0,0
7612000,0,0.0,0.0,0.0,0.0,-0.07226281,6.178208e-08,1.526812e-06,0.0,0.03844914,0.028302604,-0.0825417,0.06520383,1.544552e-05,0.00038170296,0.0,0.11364987,0.012525124,-0.059043054,0.41153952,0.0,0.109359846,0.0825417,0.16768482,0.35686094,0.22989587,0.26969633,inf,inf,inf,inf,0,1,0,1,1,0,1,1,0,0,0
7708000,0,0.0,0.0,0.0,0.0,-0.067042105,6.178208e-08,1.526812e-06,0.0,0.037602328,0.027559984,-0.07762396,0.06693559,1.544552e-05,0.00038170296,0.0,0.0354762,-0.012334647,0.00942964,0.41166335,0.0,0.10666049,0.07762396,0.16325991,0.3506657,0.22369398,0.26300368,inf,inf,inf,inf,0,1,0,1,1,0,1,1,0,0,0
7812000,0,0.0,0.0,0.0,0.0,-0.0617207,6.178208e-08,1.526812e-06,0.0,0.033384707,0.024351792,-0.07256704,0.068281755,1.544552e-05,0.00038170296,0.0,0.05032896,0.034577552,-0.042622905,0.4117219,0.0,0.1084795,0.07256704,0.16479719,0.35169268,0.22313897,0.25992253,inf,inf,inf,inf,0,1,0,1,1,0,1,1,0,0,0
7908000,0,0.0,0.0,0.0,0.0,-0.057649586,6.178208e-08,1.526812e-06,0.0,0.029582903,0.024479311,-0.07114399,0.06561059,1.544552e-05,0.00038170296,0.0,-0.033565097,0.023957908,-0.06207544,0.41160643,0.0,0.10657077,0.07114399,0.16470627,0.35082746,0.2210449,0.25613648,inf,inf,inf,inf,0,1,0,1,1,0,1,1,0,0,0
8012000,0,0.0,0.0,0.0,0.0,-0.05340274,6.178208e-08,1.526812e-06,0.0,0.02491399,0.0238399,-0.06822319,0.06429351,1.544552e-05,0.00038170296,0.0,0.0014780379,-0.014782766,0.025279818,0.41162628,0.0,0.1,0.06822319,0.16187659,0.3464511,0.2162541,0.2503351,inf,inf,inf,inf,0,1,0,1,1,0,1,1,0,0,0
8115999,0,0.0,0.0,0.0,0.0,-0.05102326,6.178208e-08,1.526812e-06,0.0,0.024699304,0.021907024,-0.06359365,0.06307893,1.544552e-05,0.00038170296,0.0,0.07872281,-0.08356609,-0.07935642,0.41167593,0.0,0.1,0.06359365,0.1632791,0.34725133,0.2154867,0.2472609,inf,inf,inf,inf,0,1,0,1,1,0,1,1,0,0,0
8211999,0,0.0,0.0,0.0,0.0,-0.04865561,6.178208e-08,1.526812e-06,0.0,0.021397576,0.02029758,-0.060403444,0.061405975,1.544552e-05,0.00038170296,0.0,0.003017279,0.04013746,-0.040303748,0.41155025,0.0,0.1,0.060403444,0.16318603,0.34630623,0.2133495,0.24360421,inf,inf,inf,inf,0,1,0,1,1,0,1,1,0,0,0
8316000,0,0.0,0.0,0.0,0.0,-0.04741409,6.178208e-08,1.526812e-06,0.0,0.019212333,0.020014508,-0.057290927,0.05828245,1.544552e-05,0.00038170296,0.0,-0.020034377,0.08447822,0.025981104,0.41174313,0.0,0.1,0.057290927,0.16033566,0.34192818,0.20849219,0.23804045,inf,inf,inf,inf,0,1,0,1,1,0,1,1,0,0,0
8412000,0,0.0,0.0,0.0,0.0,-0.04745031,6.178208e-08,1.526812e-06,0.0,0.01713333,0.020626102,-0.05631601,0.05294262,1.544552e-05,0.00038170296,0.0,0.012524076,-0.020241408,-0.029686837,0.4119241,0.0,0.1,0.05631601,0.16041082,0.34108552,0.20656987,0.23459604,inf,inf,inf,inf,0,1,0,1,1,0,1,1,0,0,0
8516000,0,0.0,0.0,0.0,0.0,-0.046250984,6.178208e-08,1.526812e-06,0.0,0.015338596,0.01991069,-0.052953072,0.0514213,1.544552e-05,0.00038170296,0.0,0.04615058,0.029704444,-0.0078398725,0.4119945,0.0,0.1,0.052953072,0.1577232,0.33687535,0.20195451,0.22930977,inf,inf,inf,inf,0,1,0,1,1,0,1,1,0,0,0
8612000,0,0.0,0.0,0.0,0.0,-0.043352887,6.178208e-08,1.526812e-06,0.0,0.015101373,0.020998402,-0.05015128,0.051724296,1.544552e-05,0.00038170296,0.0,0.0008322822,0.073302805,0.01176726,0.4120556,0.0,0.1,0.05015128,0.15784095,0.33607012,0.200136,0.22603108,inf,inf,inf,inf,0,1,0,1,1,0,1,1,0,0,0
8716000,0,0.0,0.0,0.0,0.0,-0.039474368,6.178208e-08,1.526812e-06,0.0,0.013003939,0.020398654,-0.0468743,0.053007144,1.544552e-05,0.00038170296,0.0,0.13437568,0.011943782,0.07272511,0.4120703,0.0,0.1,0.0468743,0.15915905,0.33668256,0.19915739,0.22324328,inf,inf,inf,inf,0,1,0,1,1,0,1,1,0,0,0
8812000,0,0.0,0.0,0.0,0.0,-0.035536226,6.178208e-08,1.526812e-06,0.0,0.01280505,0.020396048,-0.041642085,0.056457892,1.544552e-05,0.00038170296,0.0,0.01333843,0.010733892,-0.017475335,0.4121664,0.0,0.1,0.041642085,0.15906957,0.33571702,0.19709402,0.21998659,inf,inf,inf,inf,0,1,0,1,1,0,1,1,0,0,0
8916000,0,0.0,0.0,0.0,0.0,-0.03240566,6.178208e-08,1.526812e-06,0.0,0.011602104,0.020514851,-0.0391655,0.055710256,1.544552e-05,0.00038170296,0.0,0.04090037,0.09289342,0.0043855975,0.41218954,0.0,0.1,0.0391655,0.15640607,0.33161467,0.19262129,0.21510373,inf,inf,inf,inf,0,1,0,1,1,0,1,1,0,0,0
9012000,0,0.0,0.0,0.0,0.0,-0.030612234,6.178208e-08,1.526812e-06,0.0,0.010259322,0.020288365,-0.03936706,0.051704846,1.544552e-05,0.00038170296,0.0,0.09664153,0.01363235,0.015178694,0.4119561,0.0,0.1,0.03936706,0.15626,0.33062822,0.19053859,0.21197909,inf,inf,inf,inf,0,1,0,1,1,0,1,1,0,0,0
9116000,0,0.0,0.0,0.0,0.0,-0.030086245,6.178208e-08,1.526812e-06,0.0,0.008700322,0.020151855,-0.038778156,0.047237422,1.544552e-05,0.00038170296,0.0,-0.023732658,-0.00254529,0.051095147,0.41195935,0.0,0.1,0.038778156,0.15741828,0.33107248,0.1895325,0.20936409,inf,inf,inf,inf,0,1,0,1,1,0,1,1,0,0,0
9212000,0,0.0,0.0,0.0,0.0,-0.030021662,6.178208e-08,1.526812e-06,0.0,0.006769768,0.020518728,-0.03822274,0.043198027,1.544552e-05,0.00038170296,0.0,-0.00503342,-0.035185568,-0.005596317,0.41196796,0.0,0.1,0.03822274,0.15729816,0.33007815,0.18755476,0.20636497,inf,inf,inf,inf,0,1,0,1,1,0,1,1,0,0,0
9316000,0,0.0,0.0,0.0,0.0,-0.031341128,6.178208e-08,1.526812e-06,0.0,0.0079319645,0.020643903,-0.03658778,0.03899114,1.544552e-05,0.00038170296,0.0,0.072750695,-0.044204947,-0.109707,0.4118743,0.0,0.1,0.03658778,0.1545125,0.32598743,0.18317194,0.20182052,inf,inf,inf,inf,0,1,0,1,1,0,1,1,0,0,0
9412000,0,0.0,0.0,0.0,0.0,-0.031073496,6.178208e-08,1.526812e-06,0.0,0.0067134807,0.02253232,-0.034646902,0.03765477,1.544552e-05,0.00038170296,0.0,-0.022343999,0.08697988,-0.0562584,0.41183245,0.0,0.1,0.034646902,0.1543805,0.32499865,0.18126364,0.19896716,inf,inf,inf,inf,0,1,0,1,1,0,1,1,0,0,0
9516000,0,0.0,0.0,0.0,0.0,-0.03037452,6.178208e-08,1.526812e-06,0.0,0.0062701018,0.023505794,-0.032910857,0.036459114,1.544552e-05,0.00038170296,0.0,0.014209042,0.027616106,0.008314847,0.4117004,0.0,0.1,0.032910857,0.1554234,0.3253216,0.18022166,0.19655311,inf,inf,inf,inf,0,1,0,1,1,0,1,1,0,0,0
9612000,0,0.0,0.0,0.0,0.0,-0.029746423,6.178208e-08,1.526812e-06,0.0,0.006348904,0.02247157,-0.030889178,0.035739094,1.544552e-05,0.00038170296,0.0,-0.07888229,-0.045248576,-0.012735835,0.41158345,0.0,0.1,0.030889178,0.15514952,0.3242333,0.1782493,0.1937641,inf,inf,inf,inf,0,1,0,1,1,0,1,1,0,0,0
9716000,0,0.0,0.0,0.0,0.0,-0.028972417,6.178208e-08,1.526812e-06,0.0,0.0035031012,0.020970875,-0.029348688,0.034696274,1.544552e-05,0.00038170296,0.0,0.014135351,-0.018598314,-0.009736977,0.4115398,0.0,0.1,0.029348688,0.1525464,0.32034692,0.1742537,0.1896583,inf,inf,inf,inf,0,1,0,1,1,0,1,1,0,0,0
9812000,0,0.0,0.0,0.0,0.0,-0.026986105,6.178208e-08,1.526812e-06,0.0,0.0012589098,0.021802431,-0.025745274,0.037206978,1.544552e-05,0.00038170296,0.0,0.00722651,0.058230672,0.039716247,0.41161767,0.0,0.1,0.025745274,0.15232974,0.31931365,0.17245436,0.18703389,inf,inf,inf,inf,0,1,0,1,1,0,1,1,0,0,0
9916000,0,0.0,0.0,0.0,0.0,-0.02471639,6.178208e-08,1.526812e-06,0.0,0.0010166108,0.020311205,-0.023554115,0.038014926,1.544552e-05,0.00038170296,0.0,-0.06807208,0.031454604,-0.038038004,0.4113573,0.0,0.1,0.023554115,0.14972498,0.31549343,0.16860175,0.18311356,inf,inf,inf,inf,0,1,0,1,1,0,1,1,0,0,0
10012000,0,0.0,0.0,0.0,0.0,-0.024191968,6.178208e-08,1.526812e-06,0.0,-0.0005039018,0.019033736,-0.024354225,0.034411788,1.544552e-05,0.00038170296,0.0,-0.007379334,0.002323002,-0.019812023,0.41115487,0.0,0.1,0.024354225,0.14957216,0.3145179,0.16691795,0.18064915,inf,inf,inf,inf,0,1,0,1,1,0,1,1,0,0,0
10116000,0,0.0,0.0,0.0,0.0,-0.02099323,6.178208e-08,1.526812e-06,0.0,0.00042599707,0.017816551,-0.02327799,0.035387956,1.544552e-05,0.00038170296,0.0,0.021633895,0.028341338,0.0087926155,0.41078854,0.0,0.1,0.02327799,0.15046091,0.3147127,0.16600497,0.17854963,inf,inf,inf,inf,0,1,0,1,1,0,1,1,0,0,0
10212000,0,0.0,0.0,0.0,0.0,-0.01743055,6.178208e-08,1.526812e-06,0.0,-0.0011639192,0.016899316,-0.019553164,0.039411172,1.544552e-05,0.00038170296,0.0,-0.03704967,0.017973943,0.05690101,0.4106233,0.0,0.1,0.019553164,0.15020914,0.31366903,0.16434287,0.17615637,inf,inf,inf,inf,0,1,0,1,1,0,1,1,0,0,0
10316000,0,0.0,0.0,0.0,0.0,-0.012843898,6.178208e-08,1.526812e-06,0.0,-0.003354429,0.016750328,-0.015253208,0.04414175,1.544552e-05,0.00038170296,0.0,-0.06287536,0.01471825,0.029547138,0.41058135,0.0,0.1,0.015253208,0.14780147,0.31006524,0.16096768,0.17263271,inf,inf,inf,inf,0,1,0,1,1,0,1,1,0,0,0
10412000,0,0.0,0.0,0.0,0.0,-0.0086023025,6.178208e-08,1.526812e-06,0.0,-0.003407583,0.015974237,-0.01283907,0.0466502,1.544552e-05,0.00038170296,0.0,0.017875338,-0.0203382,-0.023756174,0.41034803,0.0,0.1,0.01283907,0.14756474,0.3090544,0.1593616,0.17037149,inf,inf,inf,inf,0,1,0,1,1,0,1,1,0,0,0
10516000,0,0.0,0.0,0.0,0.0,-0.0040227,6.178208e-08,1.526812e-06,0.0,-0.00096194935,0.0138853,-0.009817703,0.04943751,1.544552e-05,0.00038170296,0.0,0.07090736,-0.016641846,-0.0071395184,0.40984127,0.0,0.1,0.009817703,0.14842865,0.3092111,0.15858422,0.16847712,inf,inf,inf,inf,0,1,0,1,1,0,1,1,0,0,0
10612000,0,0.0,0.0,0.0,0.0,-0.00038424402,6.178208e-08,1.526812e-06,0.0,0.0008256263,0.012357841,-0.0072022416,0.050914615,1.544552e-05,0.00038170296,0.0,0.072449066,0.053325113,-0.018425284,0.4096601,0.0,0.1,0.0072022416,0.1482437,0.30822757,0.15714365,0.16633087,inf,inf,inf,inf,0,1,0,1,1,0,1,1,0,0,0
10716000,0,0.0,0.0,0.0,0.0,0.0027940606,6.178208e-08,1.526812e-06,0.0,-0.0005060936,0.010139292,-0.00450266,0.05147211,1.544552e-05,0.00038170296,0.0,-0.004050933,-0.020961473,-0.034473833,0.40922618,0.0,0.1,0.00450266,0.1458462,0.30473164,0.15394925,0.1631118,inf,inf,inf,inf,0,1,0,1,1,0,1,1,0,0,0
10812000,0,0.0,0.0,0.0,0.0,0.005317432,6.178208e-08,1.526812e-06,0.0,-0.0019493296,0.00725615,-0.0019201715,0.05173257,1.544552e-05,0.00038170296,0.0,-0.06704166,-0.09045049,0.03233086,0.40874952,0.0,0.1,0.0019201715,0.14568403,0.30378586,0.15260945,0.16108775,inf,inf,inf,inf,0,1,0,1,1,0,1,1,0,0,0
10916000,0,0.0,0.0,0.0,0.0,0.007433256,6.178208e-08,1.526812e-06,0.0,-0.00044523602,0.006304556,-0.00081313995,0.049775116,1.544552e-05,0.00038170296,0.0,0.070843115,0.00089742383,-0.013585201,0.4084229,0.0,0.1,0.00081313995,0.14652325,0.30391693,0.15195125,0.15938187,inf,inf,inf,inf,0,1,0,1,1,0,1,1,0,0,0
11012000,0,0.0,0.0,0.0,0.0,0.008639042,6.178208e-08,1.526812e-06,0.0,-0.0020872944,0.0034921903,0.001416675,0.0486214,1.544552e-05,0.00038170296,0.0,0.105637625,0.0010720104,0.0062761824,0.40805283,0.0,0.1,-0.001416675,0.14628038,0.3029252,0.1506091,0.1574221,inf,inf,inf,inf,0,1,0,1,1,0,1,1,0,0,0
11116000,0,0.0,0.0,0.0,0.0,0.0088097155,6.178208e-08,1.526812e-06,0.0,-0.0015999469,-0.00031063074,0.0015143303,0.044271342,1.544552e-05,0.00038170296,0.0,0.0068860822,-0.06837692,-0.013559124,0.40800425,0.0,0.1,-0.0015143303,0.14407974,0.2996436,0.147821,0.1545353,inf,inf,inf,inf,0,1,0,1,1,0,1,1,0,0,0
11212000,0,0.0,0.0,0.0,0.0,0.009537219,6.178208e-08,1.526812e-06,0.0,-0.00071808835,-0.001993359,0.004499951,0.044092637,1.544552e-05,0.00038170296,0.0,0.008986098,-0.08095196,-0.016734002,0.40790492,0.0,0.1,-0.004499951,0.14390099,0.29871514,0.14662252,0.15269941,inf,inf,inf,inf,0,1,0,1,1,0,1,1,0,0,0
11316000,11296000,47.3977508,8.5456074,0.0,0.0,0.009859135,6.178208e-08,1.526812e-06,0.0,9.377535e-05,-0.004409522,0.006018881,0.04183833,1.544552e-05,0.00038170296,0.0,-0.035998,-0.012608332,0.0020060686,0.3989773,488.10303,0.1,-0.006018881,0.14171341,0.29550916,0.14225218,0.14995006,inf,inf,inf,inf,0,1,0,1,1,0,1,1,1,1,0
11412000,11296000,47.3977508,8.5456074,-0.0070440574,-0.0032956982,0.008115425,-0.0030393538,-0.0038452114,0.0,-0.017111413,-0.007001491,-0.028224701,0.03055632,-0.015520882,0.00064720225,-0.0347694,-0.048487328,0.033867244,0.0174297,0.399033,488.10303,0.1,0.028224701,1.0001569,0.288245,0.31666777,0.23728423,inf,inf,inf,inf,1,1,1,1,2,0,2,2,1,1,0
11516000,11296000,47.3977508,8.5456074,-0.008931377,-0.004647445,0.0041460427,-0.0030393538,-0.0038452114,0.0,-0.018751124,-0.008521673,-0.028006746,0.017604439,-0.015520882,0.00064720225,-0.0347694,-0.049254186,-0.048640035,-0.020205973,0.40004465,488.10303,0.1,0.028006746,1.0012844,0.2791802,0.3188857,0.23743023,inf,inf,inf,inf,1,1,1,1,2,0,2,2,1,1,0
11612000,11296000,47.3977508,8.5456074,-0.01037349,-0.005673431,-0.00016292545,-0.0030393538,-0.0038452114,0.0,-0.017307242,-0.0090439385,-0.027944928,0.008496803,-0.015520882,0.00064720225,-0.0347694,-0.00042558528,-0.06085727,0.003957189,0.40148386,488.10303,0.1,0.027944928,0.8183824,0.27221942,0.29371607,0.22633225,inf,inf,inf,inf,1,1,1,1,2,0,2,2,1,1,0
11716000,11296000,47.3977508,8.5456074,-0.011502718,-0.006540406,-0.0035264574,-0.0030393538,-0.0038452114,0.0,-0.018553678,-0.007892286,-0.029618923,0.00032427427,-0.015520882,0.00064720225,-0.0347694,0.03677589,0.017414538,0.024860723,0.4034011,488.10303,0.1,0.029618923,0.8209989,0.2659605,0.29919773,0.2259439,inf,inf,inf,inf,1,1,1,1,2,0,2,2,1,1,0
11812000,11296000,47.3977508,8.5456074,-0.012883642,-0.007118997,-0.0050128484,-0.0030393538,-0.0038452114,0.0,-0.016483111,-0.009416316,-0.025710376,0.0011077952,-0.015520882,0.00064720225,-0.0347694,0.014959484,0.029247623,0.04830211,0.40455174,488.10303,0.1,0.025710376,0.71200395,0.26229444,0.2809594,0.21580216,inf,inf,inf,inf,1,1,1,1,2,0,2,2,1,1,0
11916000,11296000,47.3977508,8.5456074,-0.014186119,-0.007653143,-0.005719832,-0.0030393538,-0.0038452114,0.0,-0.015696311,-0.012069359,-0.024524521,0.0003690905,-0.015520882,0.00064720225,-0.0347694,0.013356329,-0.1190125,0.042332333,0.40537083,488.10303,0.1,0.024524521,0.7159649,0.26184124,0.2893903,0.2149893,inf,inf,inf,inf,1,1,1,1,2,0,2,2,1,1,0
12012000,11296000,47.3977508,8.5456074,-0.014589162,-0.008354337,-0.004549059,-0.0030393538,-0.0038452114,0.0,-0.014353813,-0.013223327,-0.021797622,0.003425176,-0.015520882,0.00064720225,-0.0347694,-0.02723024,-0.009225222,-0.063483596,0.40555546,488.10303,0.100244485,0.021797622,0.641398,0.2598694,0.2752713,0.20563945,inf,inf,inf,inf,1,1,1,1,2,0,2,2,1,1,0
12116000,11296000,47.3977508,8.5456074,-0.014590698,-0.009208191,-0.0032813444,-0.0030393538,-0.0038452114,0.0,-0.011395529,-0.015203118,-0.019729087,0.0057300376,-0.015520882,0.00064720225,-0.0347694,-0.026524821,-0.05375982,0.060446557,0.40530953,488.10303,0.1,0.019729087,0.64667404,0.25927344,0.2861478,0.20384744,inf,inf,inf,inf,1,1,1,1,2,0,2,2,1,1,0
12212000,11296000,47.3977508,8.5456074,-0.014120924,-0.009839883,-0.0024016234,-0.0030393538,-0.0038452114,0.0,-0.010453189,-0.013843433,-0.01701398,0.008385197,-0.015520882,0.00064720225,-0.0347694,-0.008001224,0.0027251807,0.05201995,0.40516815,488.10303,0.1,0.01701398,0.5912827,0.2581482,0.27423936,0.19514346,inf,inf,inf,inf,1,1,1,1,2,0,2,2,1,1,0
12316000,11296000,47.3977508,8.5456074,-0.013430174,-0.010110001,-2.192313e-05,-0.0030393538,-0.0038452114,0.0,-0.007849391,-0.01054062,-0.014012691,0.0124202855,-0.015520882,0.00064720225,-0.0347694,0.101050906,0.010419323,0.010869465,0.4049167,488.10303,0.1,0.014012691,0.5978913,0.2608982,0.28697243,0.19329624,inf,inf,inf,inf,1,1,1,1,2,0,2,2,1,1,0
12412000,11296000,47.3977508,8.5456074,-0.012393465,-0.009861265,0.0021779416,-0.0030393538,-0.0038452114,0.0,-0.00563441,-0.0073107155,-0.010826529,0.016302625,-0.015520882,0.00064720225,-0.0347694,0.062498435,0.025188353,0.08284579,0.40452743,488.10303,0.1,0.010826529,0.55432826,0.2600373,0.27588463,0.18521026,inf,inf,inf,inf,1,1,1,1,2,0,2,2,1,1,0
12516000,11296000,47.3977508,8.5456074,-0.011062667,-0.009258338,0.0050337696,-0.0030393538,-0.0038452114,0.0,-0.0061920127,-0.0039791707,-0.008004782,0.019912858,-0.015520882,0.00064720225,-0.0347694,-0.06462785,0.015962642,-0.044692304,0.40413544,488.10303,0.1,0.008004782,0.56229264,0.26109228,0.28987348,0.1823727,inf,inf,inf,inf,1,1,1,1,2,0,2,2,1,1,0
12612000,11296000,47.3977508,8.5456074,-0.009893496,-0.00858303,0.0075105634,-0.0030393538,-0.0038452114,0.0,-0.0033712427,-0.00496677,-0.0046515386,0.023510495,-0.015520882,0.00064720225,-0.0347694,-0.0040096343,0.03351864,0.02220366,0.40422615,488.10303,0.1,0.0046515386,0.52648383,0.26028505,0.27868697,0.17490649,inf,inf,inf,inf,1,1,1,1,2,0,2,2,1,1,0
12716000,11296000,47.3977508,8.5456074,-0.008702029,-0.007888773,0.010290162,-0.0030393538,-0.0038452114,0.0,-0.00292053,-0.004044846,-0.0025309927,0.02573217,-0.015520882,0.00064720225,-0.0347694,0.038943063,-0.045028936,0.028413719,0.40441293,488.10303,0.1,0.0025309927,0.5358052,0.26134917,0.2934123,0.17169595,inf,inf,inf,inf,1,1,1,1,2,0,2,2,1,1,0
12812000,11296000,47.3977508,8.5456074,-0.007801298,-0.007313451,0.011823979,-0.0030393538,-0.0038452114,0.0,-0.0026376485,-0.0049074027,-0.00188523,0.025356447,-0.015520882,0.00064720225,-0.0347694,0.01995632,-0.023416227,0.062807456,0.40453234,488.10303,0.1,0.00188523,0.50525916,0.2604611,0.28156272,0.1648522,inf,inf,inf,inf,1,1,1,1,2,0,2,2,1,1,0
12916000,11296000,47.3977508,8.5456074,-0.0067566815,-0.006810674,0.012487279,-0.0030393538,-0.0038452114,0.0,0.0003980921,-0.003940347,0.00059784687,0.025745306,-0.015520882,0.00064720225,-0.0347694,0.013662879,0.1524704,0.0028554348,0.40478018,488.10303,0.1,-0.00059784687,0.515901,0.26361752,0.29660094,0.16220433,inf,inf,inf,inf,1,1,1,1,2,0,2,2,1,1,0
13012000,11296000,47.3977508,8.5456074,-0.0057465597,-0.006564536,0.01323753,-0.0030393538,-0.0038452114,0.0,0.0007461222,-0.002701316,0.0017184108,0.025220964,-0.015520882,0.00064720225,-0.0347694,-0.012884789,0.027342515,0.037152316,0.40500754,488.10303,0.1,-0.0017184108,0.4889893,0.2625266,0.28381193,0.15593441,inf,inf,inf,inf,1,1,1,1,2,0,2,2,1,1,0
13116000,11296000,47.3977508,8.5456074,-0.0047821524,-0.006295172,0.01440327,-0.0030393538,-0.0038452114,0.0,0.0015723694,-0.0025811184,0.0032735413,0.025559137,-0.015520882,0.00064720225,-0.0347694,-0.052882414,-0.06873897,0.024143605,0.4050103,488.10303,0.1,-0.0032735413,0.50087345,0.26313555,0.29880634,0.15251319,inf,inf,inf,inf,1,1,1,1,2,0,2,2,1,1,0
13220000,11296000,47.3977508,8.5456074,-0.003873439,-0.0056220065,0.016768768,-0.0030393538,-0.0038452114,0.0,0.0036237324,-0.0005605697,0.0032263384,0.025468573,-0.015520882,0.00064720225,-0.0347694,0.019195953,-0.000104984785,-0.02345722,0.40491098,488.10303,0.1,-0.0032263384,0.47741976,0.26279223,0.28620654,0.146861,inf,inf,inf,inf,1,1,1,1,2,0,2,2,1,1,0
13316000,11296000,47.3977508,8.5456074,-0.0029381234,-0.004732275,0.01883541,-0.0030393538,-0.0038452114,0.0,0.0057390286,0.000380836,0.0044332263,0.026416682,-0.015520882,0.00064720225,-0.0347694,0.019343395,-0.030136375,-0.064011656,0.4048263,488.10303,0.1,-0.0044332263,0.4895018,0.26441747,0.29982635,0.14420454,inf,inf,inf,inf,1,1,1,1,2,0,2,2,1,1,0
13412000,11296000,47.3977508,8.5456074,-0.001974789,-0.0036613478,0.020166334,-0.0030393538,-0.0038452114,0.0,0.007753402,0.000707638,0.005662893,0.02667543,-0.015520882,0.00064720225,-0.0347694,-0.0008785864,0.08261711,-0.021953134,0.40484965,488.10303,0.1,-0.005662893,0.46687514,0.2630281,0.28526574,0.13908102,inf,inf,inf,inf,1,1,1,1,2,0,2,2,1,1,0
13516000,11296000,47.3977508,8.5456074,-0.0007820342,-0.0025322973,0.02122664,-0.0030393538,-0.0038452114,0.0,0.0088340165,0.0005557849,0.005696537,0.025267344,-0.015520882,0.00064720225,-0.0347694,-0.064322576,-0.02004727,-0.05630031,0.40467015,488.10303,0.1,-0.005696537,0.48088172,0.2628928,0.29961076,0.13582484,inf,inf,inf,inf,1,1,1,1,2,0,2,2,1,1,0
13612000,11296000,47.3977508,8.5456074,-3.0403431e-05,-0.00181857,0.022163589,-0.0030393538,-0.0038452114,0.0,0.0075920643,-0.00047319586,0.0053638807,0.023766868,-0.015520882,0.00064720225,-0.0347694,0.00096435536,-0.029552676,0.035538334,0.4045867,488.10303,0.1,-0.0053638807,0.4594804,0.26140508,0.28439525,0.13124976,inf,inf,inf,inf,1,1,1,1,2,0,2,2,1,1,0
13716000,11296000,47.3977508,8.5456074,0.00078283745,-0.0013720071,0.023227412,-0.0030393538,-0.0038452114,0.0,0.00932352,-0.0017546138,0.0072108093,0.024419377,-0.015520882,0.00064720225,-0.0347694,-0.051624022,0.063397594,0.052842308,0.40458545,488.10303,0.1,-0.0072108093,0.4743327,0.26321656,0.29823378,0.12892029,inf,inf,inf,inf,1,1,1,1,2,0,2,2,1,1,0
13812000,11296000,47.3977508,8.5456074,0.0016992411,-0.0015146976,0.025016276,-0.0030393538,-0.0038452114,0.0,0.009367174,-0.0019059409,0.011101799,0.027857376,-0.015520882,0.00064720225,-0.0347694,0.0064795017,0.048328094,-0.054641623,0.4048782,488.10303,0.1,-0.011101799,0.45378873,0.2615917,0.28260854,0.124826565,inf,inf,inf,inf,1,1,1,1,2,0,2,2,1,1,0
13916000,11296000,47.3977508,8.5456074,0.002968158,-0.001961888,0.02667779,-0.0030393538,-0.0038452114,0.0,0.012826808,-0.0038650997,0.0114063015,0.027214708,-0.015520882,0.00064720225,-0.0347694,-0.013267533,-0.11038391,-0.056734305,0.40514857,488.10303,0.1,-0.0114063015,0.46933913,0.26086417,0.29585433,0.122028425,inf,inf,inf,inf,1,1,1,1,2,0,2,2,1,1,0
14012000,11296000,47.3977508,8.5456074,0.0045930683,-0.0032273703,0.027514331,-0.0030393538,-0.0038452114,0.0,0.01444193,-0.0056361016,0.010763142,0.025221722,-0.015520882,0.00064720225,-0.0347694,-0.09254418,-0.008645045,0.009667127,0.4052607,488.10303,0.1,-0.010763142,0.44940343,0.25921702,0.28003082,0.11843804,inf,inf,inf,inf,1,1,1,1,2,0,2,2,1,1,0
14116000,11296000,47.3977508,8.5456074,0.006655016,-0.004816535,0.028064093,-0.0030393538,-0.0038452114,0.0,0.016673343,-0.006313503,0.010991096,0.023676872,-0.015520882,0.00064720225,-0.0347694,0.08117113,-0.03727244,0.0022882593,0.40519753,488.10303,0.1,-0.010991096,0.4655121,0.2582264,0.29272175,0.11591322,inf,inf,inf,inf,1,1,1,1,2,0,2,2,1,1,0
14212000,11296000,47.3977508,8.5456074,0.007961888,-0.005869257,0.029143928,-0.0030393538,-0.0038452114,0.0,0.016875345,-0.007334383,0.010979705,0.022807097,-0.015520882,0.00064720225,-0.0347694,0.059349168,0.104960814,-0.11362973,0.4052268,488.10303,0.1,-0.010979705,0.44601664,0.25658226,0.2768813,0.11279744,inf,inf,inf,inf,1,1,1,1,2,0,2,2,1,1,0
14316000,11296000,47.3977508,8.5456074,0.009245508,-0.0067329034,0.030877367,-0.0030393538,-0.0038452114,0.0,0.01886632,-0.006109376,0.013033414,0.024483912,-0.015520882,0.00064720225,-0.0347694,0.023224274,0.07742457,0.0047124918,0.40507123,488.10303,0.1,-0.013033414,0.46255794,0.25754187,0.28899816,0.11120027,inf,inf,inf,inf,1,1,1,1,2,0,2,2,1,1,0
14412000,11296000,47.3977508,8.5456074,0.010071281,-0.007515821,0.03220631,-0.0030393538,-0.0038452114,0.0,0.02136062,-0.0072923135,0.0113945715,0.022186505,-0.015520882,0.00064720225,-0.0347694,0.078836404,-0.042925317,-0.00850018,0.40500727,488.10303,0.1,-0.0113945715,0.44339296,0.25584677,0.2732935,0.10848849,inf,inf,inf,inf,1,1,1,1,2,0,2,2,1,1,0
14516000,11296000,47.3977508,8.5456074,0.011109767,-0.0084301,0.033850677,-0.0030393538,-0.0038452114,0.0,0.019515581,-0.0067457785,0.011720546,0.022261064,-0.015520882,0.00064720225,-0.0347694,-0.0017857818,-0.04901421,-0.0008447095,0.40496323,488.10303,0.1,-0.011720546,0.46025532,0.25454327,0.2848398,0.10659314,inf,inf,inf,inf,1,1,1,1,2,0,2,2,1,1,0
14612000,11296000,47.3977508,8.5456074,0.011423618,-0.008839116,0.035051122,-0.0030393538,-0.0038452114,0.0,0.019222928,-0.00742705,0.010503046,0.02044996,-0.015520882,0.00064720225,-0.0347694,0.0396862,-0.01562968,0.03068242,0.4048504,488.10303,0.1,-0.010503046,0.44134915,0.25288218,0.26941648,0.10429343,inf,inf,inf,inf,1,1,1,1,2,0,2,2,1,1,0
14716000,11296000,47.3977508,8.5456074,0.011783252,-0.009121939,0.035535496,-0.0030393538,-0.0038452114,0.0,0.018497879,-0.0064421715,0.010846257,0.019545007,-0.015520882,0.00064720225,-0.0347694,0.044307742,0.03702552,0.049827617,0.40458155,488.10303,0.1,-0.010846257,0.45843768,0.25349942,0.28043568,0.10326068,inf,inf,inf,inf,1,1,1,1,2,0,2,2,1,1,0
14812000,11296000,47.3977508,8.5456074,0.012304377,-0.0089622075,0.035301197,-0.0030393538,-0.0038452114,0.0,0.017570574,-0.005634423,0.011403269,0.018312292,-0.015520882,0.00064720225,-0.0347694,0.053612977,-0.0514043,0.0023115424,0.4044627,488.10303,0.1,-0.011403269,0.43974525,0.2518607,0.26533875,0.10132404,inf,inf,inf,inf,1,1,1,1,2,0,2,2,1,1,0
14916000,11296000,47.3977508,8.5456074,0.013268711,-0.008834176,0.03479183,-0.0030393538,-0.0038452114,0.0,0.019078897,-0.0066651884,0.012951712,0.01770186,-0.015520882,0.00064720225,-0.0347694,-0.028222186,-0.07088682,-0.047388483,0.4046014,488.10303,0.1,-0.012951712,0.45697877,0.25036943,0.2758753,0.10005057,inf,inf,inf,inf,1,1,1,1,2,0,2,2,1,1,0
15012000,11296000,47.3977508,8.5456074,0.014678118,-0.008386942,0.03396051,-0.0030393538,-0.0038452114,0.0,0.019854946,-0.0074540814,0.01338063,0.01597855,-0.015520882,0.00064720225,-0.0347694,0.024264196,0.073035605,-0.024452804,0.4045304,488.10303,0.1,-0.01338063,0.4384726,0.24879663,0.26114324,0.098465286,inf,inf,inf,inf,1,1,1,1,2,0,2,2,1,1,0
15116000,11296000,47.3977508,8.5456074,0.016773526,-0.007830131,0.032619707,-0.0030393538,-0.0038452114,0.0,0.02211729,-0.0054607047,0.012887354,0.012971829,-0.015520882,0.00064720225,-0.0347694,0.032889653,-0.0107324,-0.053890977,0.40459558,488.10303,0.1,-0.012887354,0.4557827,0.24922135,0.27123246,0.097983934,inf,inf,inf,inf,1,1,1,1,2,0,2,2,1,1,0
15212000,11296000,47.3977508,8.5456074,0.017894011,-0.0074992725,0.031250518,-0.0030393538,-0.0038452114,0.0,0.022854652,-0.0038467979,0.013570118,0.011482278,-0.015520882,0.00064720225,-0.0347694,0.0335052,-0.03006809,0.033315267,0.40475166,488.10303,0.1,-0.013570118,0.43744633,0.24766973,0.25695634,0.0966907,inf,inf,inf,inf,1,1,1,1,2,0,2,2,1,1,0
15316000,11296000,47.3977508,8.5456074,0.019198762,-0.0071874196,0.029930064,-0.0030393538,-0.0038452114,0.0,0.025656339,-0.0034260526,0.013239888,0.009188023,-0.015520882,0.00064720225,-0.0347694,-0.005658075,-0.050074242,0.06566196,0.40492487,488.10303,0.1,-0.013239888,0.45477903,0.24617082,0.26663366,0.096012205,inf,inf,inf,inf,1,1,1,1,2,0,2,2,1,1,0
15412000,11296000,47.3977508,8.5456074,0.01996975,-0.0070228167,0.029505687,-0.0030393538,-0.0038452114,0.0,0.021591568,-0.006822914,0.015857842,0.010875668,-0.015520882,0.00064720225,-0.0347694,-0.05749243,-0.05404041,0.008694827,0.4049766,488.10303,0.1,-0.015857842,0.4366032,0.24471606,0.25281337,0.09500909,inf,inf,inf,inf,1,1,1,1,2,0,2,2,1,1,0
15516000,11296000,47.3977508,8.5456074,0.020599443,-0.0070161787,0.02978485,-0.0030393538,-0.0038452114,0.0,0.020690897,-0.006067447,0.014854274,0.009590939,-0.015520882,0.00064720225,-0.0347694,-0.04545471,-0.040397365,-0.018656252,0.40505776,488.10303,0.1,-0.014854274,0.45391423,0.2432395,0.26211983,0.09459236,inf,inf,inf,inf,1,1,1,1,2,0,2,2,1,1,0
15612000,11296000,47.3977508,8.5456074,0.021633409,-0.0071263355,0.030272597,-0.0030393538,-0.0038452114,0.0,0.023561366,-0.0058157695,0.012581888,0.007400274,-0.015520882,0.00064720225,-0.0347694,0.06596703,0.004846413,-0.0065853815,0.40505162,488.10303,0.1,-0.012581888,0.4710986,0.24301158,0.27082777,0.09456768,inf,inf,inf,inf,1,1,1,1,2,0,2,2,1,1,0
15716000,11296000,47.3977508,8.5456074,0.022456443,-0.0075184996,0.031487986,-0.0030393538,-0.0038452114,0.0,0.02350964,-0.007029271,0.013627247,0.009276335,-0.015520882,0.00064720225,-0.0347694,-0.007035414,-0.021798499,0.07128715,0.40539315,488.10303,0.1,-0.013627247,0.45105276,0.24223314,0.25583756,0.09404038,inf,inf,inf,inf,1,1,1,1,2,0,2,2,1,1,0
15812000,11296000,47.3977508,8.5456074,0.023206923,-0.007992013,0.033746444,-0.0030393538,-0.0038452114,0.0,0.022579258,-0.006687418,0.016617887,0.013776209,-0.015520882,0.00064720225,-0.0347694,-0.055534907,-0.026533196,0.017717479,0.40543824,488.10303,0.1,-0.016617887,0.4679121,0.242018,0.26419958,0.09420608,inf,inf,inf,inf,1,1,1,1,2,0,2,2,1,1,0
15916000,11296000,47.3977508,8.5456074,0.022683432,-0.008424161,0.036919452,-0.0030393538,-0.0038452114,0.0,0.022712998,-0.0057703336,0.017586295,0.016724288,-0.015520882,0.00064720225,-0.0347694,0.0054851403,-0.026298743,0.13694538,0.40553257,488.10303,0.1,-0.017586295,0.44856232,0.23957922,0.25020576,0.093497075,inf,inf,inf,inf,1,1,1,1,2,0,2,2,1,1,0
16011999,11296000,47.3977508,8.5456074,0.022208672,-0.008796911,0.039438043,-0.0030393538,-0.0038452114,0.0,0.02213588,-0.0051751863,0.018542873,0.018804306,-0.015520882,0.00064720225,-0.0347694,0.022854635,0.06359788,0.05135572,0.40557078,488.10303,0.1,-0.018542873,0.46512613,0.23941663,0.2582313,0.09383896,inf,inf,inf,inf,1,1,1,1,2,0,2,2,1,1,0
16124000,11296000,47.3977508,8.5456074,0.021237524,-0.0074944585,0.04051814,-0.0030393538,-0.0038452114,0.0,0.022620672,-0.006113232,0.01697121,0.016614506,-0.015520882,0.00064720225,-0.0347694,-0.011639583,-0.03348498,-0.0032020179,0.4057074,488.10303,0.1,-0.01697121,0.4476949,0.23766977,0.24577558,0.09348614,inf,inf,inf,inf,1,1,1,1,2,0,2,2,1,1,0
16220000,11296000,47.3977508,8.5456074,0.020763012,-0.0063770665,0.041283254,-0.0030393538,-0.0038452114,0.0,0.022014685,-0.0076572495,0.020899856,0.019748403,-0.015520882,0.00064720225,-0.0347694,-0.01505645,-0.0053503914,0.04062531,0.40579385,488.10303,0.1,-0.020899856,0.4640732,0.23758282,0.25355595,0.093986854,inf,inf,inf,inf,1,1,1,1,2,0,2,2,1,1,0
16324000,11296000,47.3977508,8.5456074,0.019695954,-0.0059345537,0.043181114,-0.0030393538,-0.0038452114,0.0,0.02080309,-0.0063725333,0.0243165,0.023136586,-0.015520882,0.00064720225,-0.0347694,0.012870906,-0.04343743,0.10539125,0.40583792,488.10303,0.1,-0.0243165,0.44573912,0.23709577,0.24118055,0.09399853,inf,inf,inf,inf,1,1,1,1,2,0,2,2,1,1,0
16420000,11296000,47.3977508,8.5456074,0.019112105,-0.00577399,0.045510337,-0.0030393538,-0.0038452114,0.0,0.01990586,-0.006260062,0.025407352,0.024499822,-0.015520882,0.00064720225,-0.0347694,0.10792483,-0.017332392,0.018932855,0.40570664,488.10303,0.1,-0.025407352,0.461866,0.23545343,0.24871944,0.0942782,inf,inf,inf,inf,1,1,1,1,2,0,2,2,1,1,0
16523999,11296000,47.3977508,8.5456074,0.018090885,-0.005561292,0.047732122,-0.0030393538,-0.0038452114,0.0,0.018536042,-0.0055933916,0.026881704,0.02578991,-0.015520882,0.00064720225,-0.0347694,0.007001658,0.03241083,0.005987107,0.4055095,488.10303,0.1,-0.026881704,0.44383648,0.23507553,0.23688832,0.094402455,inf,inf,inf,inf,1,1,1,1,2,0,2,2,1,1,0
16619999,11296000,47.3977508,8.5456074,0.017491356,-0.005515816,0.050762683,-0.0030393538,-0.0038452114,0.0,0.018459754,-0.0066152574,0.029888459,0.02943651,-0.015520882,0.00064720225,-0.0347694,0.014831004,0.028171359,-0.0025682985,0.40549588,488.10303,0.1,-0.029888459,0.45971593,0.23519154,0.24424008,0.095147796,inf,inf,inf,inf,1,1,1,1,2,0,2,2,1,1,0
16724000,11296000,47.3977508,8.5456074,0.016659852,-0.005276435,0.053644568,-0.0030393538,-0.0038452114,0.0,0.017883684,-0.006231015,0.030337758,0.029891329,-0.015520882,0.00064720225,-0.0347694,-0.035857923,-0.07438437,0.020789912,0.405675,488.10303,0.1,-0.030337758,0.44213018,0.23330556,0.2330627,0.09501253,inf,inf,inf,inf,1,1,1,1,2,0,2,2,1,1,0
16820000,11296000,47.3977508,8.5456074,0.01619103,-0.0052321833,0.055586733,-0.0030393538,-0.0038452114,0.0,0.018464409,-0.0069713215,0.031434484,0.030230997,-0.015520882,0.00064720225,-0.0347694,0.09068174,0.030890834,0.045902092,0.40565515,488.10303,0.1,-0.031434484,0.45778352,0.23349836,0.24025379,0.095832705,inf,inf,inf,inf,1,1,1,1,2,0,2,2,1,1,0
16924000,11296000,47.3977508,8.5456074,0.01624061,-0.0062886383,0.056681827,-0.0030393538,-0.0038452114,0.0,0.018049663,-0.007492774,0.031227978,0.02824259,-0.015520882,0.00064720225,-0.0347694,0.06995062,-0.0066153877,0.033068467,0.40574166,488.10303,0.1,-0.031227978,0.44059008,0.23331912,0.229648,0.09609593,inf,inf,inf,inf,1,1,1,1,2,0,2,2,1,1,0
17020000,11296000,47.3977508,8.5456074,0.016858412,-0.00777947,0.05730956,-0.0030393538,-0.0038452114,0.0,0.01945332,-0.011373327,0.032008976,0.02720352,-0.015520882,0.00064720225,-0.0347694,-0.07559845,-0.0106970975,0.014507211,0.40567604,488.10303,0.1,-0.032008976,0.45603675,0.23362094,0.23671421,0.0969841,inf,inf,inf,inf,1,1,1,1,2,0,2,2,1,1,0
17124000,11296000,47.3977508,8.5456074,0.016919777,-0.008955656,0.057680257,-0.0030393538,-0.0038452114,0.0,0.017343579,-0.011537495,0.032141153,0.025223855,-0.015520882,0.00064720225,-0.0347694,-0.052669577,-0.026925407,0.06482191,0.40562358,488.10303,0.1,-0.032141153,0.4391913,0.23194794,0.22661577,0.09693957,inf,inf,inf,inf,1,1,1,1,2,0,2,2,1,1,0
17220000,11296000,47.3977508,8.5456074,0.01703404,-0.009818214,0.0582143,-0.0030393538,-0.0038452114,0.0,0.017946161,-0.009749955,0.031069923,0.022653988,-0.015520882,0.00064720225,-0.0347694,-0.007354858,-0.06291766,-0.061191615,0.40559378,488.10303,0.1,-0.031069923,0.454449,0.23235527,0.23357873,0.097874016,inf,inf,inf,inf,1,1,1,1,2,0,2,2,1,1,0
17324000,11296000,47.3977508,8.5456074,0.01666377,-0.010144651,0.057599653,-0.0030393538,-0.0038452114,0.0,0.015765099,-0.0107307825,0.027973423,0.017029377,-0.015520882,0.00064720225,-0.0347694,-0.11496752,0.044863787,-0.08587725,0.40535218,488.10303,0.1,-0.027973423,0.43791464,0.23235363,0.22393304,0.098181546,inf,inf,inf,inf,1,1,1,1,2,0,2,2,1,1,0
17420000,11296000,47.3977508,8.5456074,0.016429553,-0.010459382,0.055740226,-0.0030393538,-0.0038452114,0.0,0.015573007,-0.010959737,0.02625517,0.012333329,-0.015520882,0.00064720225,-0.0347694,0.017019905,0.075348735,0.028976237,0.40517038,488.10303,0.1,-0.02625517,0.45299986,0.2312899,0.23081973,0.09880245,inf,inf,inf,inf,1,1,1,1,2,0,2,2,1,1,0
17524000,11296000,47.3977508,8.5456074,0.015355112,-0.010397524,0.053468395,-0.0030393538,-0.0038452114,0.0,0.01361844,-0.009700756,0.025109882,0.008186249,-0.015520882,0.00064720225,-0.0347694,0.017947575,-0.003359222,0.013687647,0.4051001,488.10303,0.1,-0.025109882,0.43674457,0.23138441,0.22159308,0.09911146,inf,inf,inf,inf,1,1,1,1,2,0,2,2,1,1,0
17620000,11296000,47.3977508,8.5456074,0.014490979,-0.010438172,0.05210983,-0.0030393538,-0.0038452114,0.0,0.014305563,-0.009229571,0.023331251,0.0048356084,-0.015520882,0.00064720225,-0.0347694,0.0844017,0.017537167,0.0032735986,0.40534034,488.10303,0.1,-0.023331251,0.45167398,0.2319767,0.22843239,0.10008488,inf,inf,inf,inf,1,1,1,1,2,0,2,2,1,1,0
17724000,11296000,47.3977508,8.5456074,0.01394466,-0.010268058,0.051198576,-0.0030393538,-0.0038452114,0.0,0.013976033,-0.011027913,0.024229126,0.004715546,-0.015520882,0.00064720225,-0.0347694,0.09167111,-0.024758082,-0.00071432436,0.4054676,488.10303,0.1,-0.024229126,0.43566954,0.23059204,0.21954836,0.10003044,inf,inf,inf,inf,1,1,1,1,2,0,2,2,1,1,0
17820000,11296000,47.3977508,8.5456074,0.0139303105,-0.01037981,0.050607983,-0.0030393538,-0.0038452114,0.0,0.015394203,-0.012057184,0.025220312,0.0050574774,-0.015520882,0.00064720225,-0.0347694,0.09282598,-0.040373035,0.078813165,0.40558225,488.10303,0.1,-0.025220312,0.4504576,0.23127978,0.22633867,0.1010072,inf,inf,inf,inf,1,1,1,1,2,0,2,2,1,1,0
17924000,11296000,47.3977508,8.5456074,0.0139060505,-0.010332679,0.050894402,-0.0030393538,-0.0038452114,0.0,0.018102279,-0.012026531,0.027544305,0.007413586,-0.015520882,0.00064720225,-0.0347694,0.051087756,0.0026629495,-0.03487989,0.40561152,488.10303,0.1,-0.027544305,0.4346795,0.2315074,0.21776111,0.10126318,inf,inf,inf,inf,1,1,1,1,2,0,2,2,1,1,0
18020000,11296000,47.3977508,8.5456074,0.014335778,-0.010608851,0.05205278,-0.0030393538,-0.0038452114,0.0,0.020320822,-0.015142724,0.028135898,0.008823356,-0.015520882,0.00064720225,-0.0347694,-0.001377164,0.0873651,-0.012326053,0.40574202,488.10303,0.1,-0.028135898,0.44934005,0.23229107,0.22452037,0.102237694,inf,inf,inf,inf,1,1,1,1,2,0,2,2,1,1,0
18124000,11296000,47.3977508,8.5456074,0.014648325,-0.0108624995,0.05306115,-0.0030393538,-0.0038452114,0.0,0.02153978,-0.015075134,0.0276445,0.008871921,-0.015520882,0.00064720225,-0.0347694,-0.07556259,-0.032094132,0.03773346,0.40560883,488.10303,0.1,-0.0276445,0.43376678,0.23102944,0.21623914,0.10210285,inf,inf,inf,inf,1,1,1,1,2,0,2,2,1,1,0
18220000,11296000,47.3977508,8.5456074,0.015066463,-0.011196172,0.054413453,-0.0030393538,-0.0038452114,0.0,0.019818254,-0.015739806,0.02897636,0.010952919,-0.015520882,0.00064720225,-0.0347694,0.010764895,-0.0056261993,-0.010973773,0.40556672,488.10303,0.1,-0.02897636,0.44831383,0.23186965,0.22299455,0.10305047,inf,inf,inf,inf,1,1,1,1,2,0,2,2,1,1,0
18324000,11296000,47.3977508,8.5456074,0.015649403,-0.011496306,0.055870663,-0.0030393538,-0.0038452114,0.0,0.02073257,-0.017363617,0.03059242,0.013160875,-0.015520882,0.00064720225,-0.0347694,0.12893884,-0.10939693,0.066200264,0.40565354,488.10303,0.1,-0.03059242,0.43292463,0.23222564,0.21496393,0.10322993,inf,inf,inf,inf,1,1,1,1,2,0,2,2,1,1,0
18420000,11296000,47.3977508,8.5456074,0.016727494,-0.0121081015,0.05723813,-0.0030393538,-0.0038452114,0.0,0.022423776,-0.018143151,0.030536866,0.013467016,-0.015520882,0.00064720225,-0.0347694,0.05202353,0.058738604,0.041078772,0.40563497,488.10303,0.1,-0.030536866,0.44737226,0.23315464,0.22171605,0.104163095,inf,inf,inf,inf,1,1,1,1,2,0,2,2,1,1,0
18524000,11296000,47.3977508,8.5456074,0.017407307,-0.013388161,0.058477115,-0.0030393538,-0.0038452114,0.0,0.022579828,-0.019902866,0.030963592,0.013935258,-0.015520882,0.00064720225,-0.0347694,0.06143111,0.04019796,-0.060006972,0.4056175,488.10303,0.1,-0.030963592,0.43214977,0.23195902,0.21389784,0.10391264,inf,inf,inf,inf,1,1,1,1,2,0,2,2,1,1,0
18620000,11296000,47.3977508,8.5456074,0.018237771,-0.014983274,0.059438974,-0.0030393538,-0.0038452114,0.0,0.022881128,-0.022542713,0.03172348,0.014554011,-0.015520882,0.00064720225,-0.0347694,-0.027504515,-0.009643466,-0.056295652,0.40552634,488.10303,0.1,-0.03172348,0.44651088,0.23294903,0.2206647,0.10481711,inf,inf,inf,inf,1,1,1,1,2,0,2,2,1,1,0
18724000,11296000,47.3977508,8.5456074,0.018916316,-0.015885249,0.060173295,-0.0030393538,-0.0038452114,0.0,0.018886922,-0.024854885,0.03318031,0.015452594,-0.015520882,0.00064720225,-0.0347694,-0.035900388,0.019255778,0.036212612,0.40539563,488.10303,0.1,-0.03318031,0.43143857,0.2333602,0.21306287,0.10488583,inf,inf,inf,inf,1,1,1,1,2,0,2,2,1,1,0
18820000,11296000,47.3977508,8.5456074,0.019576117,-0.0167495,0.060643684,-0.0030393538,-0.0038452114,0.0,0.018331304,-0.024852626,0.032970767,0.014584797,-0.015520882,0.00064720225,-0.0347694,0.032126278,0.011485317,0.043981705,0.40547502,488.10303,0.1,-0.032970767,0.44572616,0.2328032,0.21982425,0.1053685,inf,inf,inf,inf,1,1,1,1,2,0,2,2,1,1,0
18924000,11296000,47.3977508,8.5456074,0.018920053,-0.017003646,0.06010349,-0.0030393538,-0.0038452114,0.0,0.017802956,-0.024762081,0.031624906,0.0116688395,-0.015520882,0.00064720225,-0.0347694,0.047055174,-0.0634836,-0.0040736045,0.40552917,488.10303,0.1,-0.031624906,0.43078792,0.23324311,0.21238399,0.105386585,inf,inf,inf,inf,1,1,1,1,2,0,2,2,1,1,0
19020000,11296000,47.3977508,8.5456074,0.018275224,-0.01739977,0.05936298,-0.0030393538,-0.0038452114,0.0,0.015627671,-0.023924625,0.031480838,0.010023905,-0.015520882,0.00064720225,-0.0347694,-0.0031448288,-0.0077910223,0.0022416932,0.40533027,488.10303,0.1,-0.031480838,0.44501394,0.23431085,0.21918708,0.10621732,inf,inf,inf,inf,1,1,1,1,2,0,2,2,1,1,0
19124000,11296000,47.3977508,8.5456074,0.017501768,-0.017058484,0.05950605,-0.0030393538,-0.0038452114,0.0,0.018555818,-0.024714546,0.030906826,0.009016445,-0.015520882,0.00064720225,-0.0347694,0.11331465,0.012315707,0.0016456469,0.40523088,488.10303,0.1,-0.030906826,0.43019563,0.2331539,0.2118779,0.105782725,inf,inf,inf,inf,1,1,1,1,2,0,2,2,1,1,0
19220000,11296000,47.3977508,8.5456074,0.017414365,-0.017126499,0.059848096,-0.0030393538,-0.0038452114,0.0,0.018930787,-0.025620472,0.028444607,0.0064963996,-0.015520882,0.00064720225,-0.0347694,0.03200746,0.014658303,-0.013578682,0.40527382,488.10303,0.1,-0.028444607,0.44437167,0.23425129,0.21869422,0.10657594,inf,inf,inf,inf,1,1,1,1,2,0,2,2,1,1,0
19324000,11296000,47.3977508,8.5456074,0.01699943,-0.015823558,0.06061977,-0.0030393538,-0.0038452114,0.0,0.01848369,-0.025102729,0.027851928,0.006418718,-0.015520882,0.00064720225,-0.0347694,0.03143052,-0.030614223,0.06139185,0.40526605,488.10303,0.1,-0.027851928,0.42965955,0.23468854,0.21151629,0.10648092,inf,inf,inf,inf,1,1,1,1,2,0,2,2,1,1,0
19420000,11296000,47.3977508,8.5456074,0.016976705,-0.014774278,0.06127688,-0.0030393538,-0.0038452114,0.0,0.017207561,-0.023387961,0.028059365,0.007010098,-0.015520882,0.00064720225,-0.0347694,0.024795981,0.02516173,-0.007889233,0.4052809,488.10303,0.1,-0.028059365,0.44379684,0.23582092,0.21837285,0.10724368,inf,inf,inf,inf,1,1,1,1,2,0,2,2,1,1,0
19524000,11296000,47.3977508,8.5456074,0.016831951,-0.013691558,0.06292899,-0.0030393538,-0.0038452114,0.0,0.016976438,-0.022724599,0.03045788,0.010484345,-0.015520882,0.00064720225,-0.0347694,-0.034579378,-0.035378154,0.038849186,0.405213,488.10303,0.1,-0.03045788,0.42917836,0.23463112,0.2112909,0.1066891,inf,inf,inf,inf,1,1,1,1,2,0,2,2,1,1,0
19620000,11296000,47.3977508,8.5456074,0.017143423,-0.013190973,0.06460046,-0.0030393538,-0.0038452114,0.0,0.018478336,-0.02201067,0.029571323,0.010544776,-0.015520882,0.00064720225,-0.0347694,-0.014969496,-0.024083702,-0.006954185,0.4052063,488.10303,0.1,-0.029571323,0.44328663,0.23574854,0.2181337,0.10740249,inf,inf,inf,inf,1,1,1,1,2,0,2,2,1,1,0
19724000,11296000,47.3977508,8.5456074,0.017677274,-0.012608863,0.06497816,-0.0030393538,-0.0038452114,0.0,0.018629227,-0.02211674,0.028080026,0.008633766,-0.015520882,0.00064720225,-0.0347694,0.047185484,-0.031735286,0.0028666107,0.40528244,488.10303,0.1,-0.028080026,0.4287498,0.23618892,0.21111433,0.10721974,inf,inf,inf,inf,1,1,1,1,2,0,2,2,1,1,0
19820000,11296000,47.3977508,8.5456074,0.018659193,-0.012476379,0.06474021,-0.0030393538,-0.0038452114,0.0,0.01941533,-0.022549918,0.029662913,0.0093374755,-0.015520882,0.00064720225,-0.0347694,0.0035923293,-0.043500286,0.1197122,0.40512893,488.10303,0.1,-0.029662913,0.44283742,0.23733392,0.21800831,0.107908405,inf,inf,inf,inf,1,1,1,1,2,0,2,2,1,1,0
19924000,11296000,47.3977508,8.5456074,0.019075835,-0.012214523,0.06461517,-0.0030393538,-0.0038452114,0.0,0.019848619,-0.021724613,0.027608313,0.0065611512,-0.015520882,0.00064720225,-0.0347694,0.062917106,-0.032807283,-0.012842006,0.40518194,488.10303,0.1,-0.027608313,0.4283714,0.23607798,0.21105412,0.10724602,inf,inf,inf,inf,1,1,1,1,2,0,2,2,1,1,0
20020000,11296000,47.3977508,8.5456074,0.01955873,-0.01223613,0.06454953,-0.0030393538,-0.0038452114,0.0,0.019322824,-0.0212114,0.026734529,0.0052490607,-0.015520882,0.00064720225,-0.0347694,-0.014037286,-0.07146527,0.045458782,0.4051229,488.10303,0.1,-0.026734529,0.44244677,0.2372205,0.21794815,0.107901305,inf,inf,inf,inf,1,1,1,1,2,0,2,2,1,1,0
20124000,11296000,47.3977508,8.5456074,0.01972623,-0.012191728,0.06418618,-0.0030393538,-0.0038452114,0.0,0.017880268,-0.023081174,0.028935425,0.0067225755,-0.015520882,0.00064720225,-0.0347694,-0.003938694,-0.006020229,-0.00019278376,0.40514767,488.10303,0.1,-0.028935425,0.42804104,0.23760699,0.21102837,0.10763077,inf,inf,inf,inf,1,1,1,1,2,0,2,2,1,1,0
