timestamp,x,y,z,yaw,yawspeed,vx,vy,vz,acc_x,acc_y,acc_z,jerk_x,jerk_y,jerk_z,thrust[0],thrust[1],thrust[2]
92972000,0.039693456,-0.041578565,-0.32426286,0.42332876,nan,-0.0021895885,0.004556604,-1.4250163,0.04493438,0.058988817,-1.6021911,0.0,-10.0,10.0,nan,nan,nan
93164000,0.03930891,-0.041027777,-0.61522484,0.42332876,nan,-0.0020498997,0.002036982,-1.5483941,0.012121156,0.057216946,0.3153778,0.0,-3.5760593,10.0,nan,nan,nan
93376000,0.03856261,-0.039888784,-0.93537414,0.42332876,nan,-0.003480215,0.0058432953,-1.5012199,0.09212116,-0.02622645,0.14830226,2.0000002,0.0,10.0,nan,nan,nan
93572000,0.03813419,-0.038884573,-1.2293364,0.42332876,nan,-0.00092148595,0.004227728,-1.4993176,-0.029042486,-0.024784928,0.043930754,0.0,0.0,0.0,nan,nan,nan
93764000,0.037530508,-0.037962846,-1.5173606,0.42332876,nan,-0.0010872184,0.0035568704,-1.4980211,-0.007233992,-0.019827943,0.040915687,0.0,0.0,0.0,nan,nan,nan
93976000,0.03689939,-0.037125617,-1.8351834,0.42332876,nan,-0.0045433794,0.0016733464,-1.499821,0.05021282,0.02017206,-0.063267455,2.0000002,2.0000002,-2.0000002,nan,nan,nan
94172000,0.03662934,-0.036480654,-2.1291447,0.42332876,nan,-0.0031289032,0.005394906,-1.5023797,-0.007829748,0.022510115,-0.04519293,0.0,-10.0,0.0,nan,nan,nan
94364000,0.036243983,-0.035936918,-2.4170904,0.42332876,nan,-0.0024804815,0.00389071,-1.4995931,-0.011411039,0.05920647,0.059076514,0.0,0.0,0.0,nan,nan,nan
94576000,0.03576959,-0.035194013,-2.735028,0.42332876,nan,-0.0024315482,0.0015924567,-1.4998972,0.02287117,0.09709212,0.0,0.0,10.0,0.0,nan,nan,nan
94772000,0.03552553,-0.03450065,-3.0290086,0.42332876,nan,-0.0009432924,0.0041315886,-1.4998972,0.034296937,-0.002326332,0.0,0.0,0.0,0.0,nan,nan,nan
94964000,0.03532178,-0.034050602,-3.3169897,0.42332876,nan,0.0009733731,0.0028076055,-1.4998972,-0.005249962,-0.036688857,0.0,0.0,0.0,0.0,nan,nan,nan
95176000,0.03500586,-0.03364818,-3.6349688,0.42332876,nan,-0.0010972396,0.0017495682,-1.4998972,-0.016159978,-0.036688857,0.0,0.0,-2.0000002,0.0,nan,nan,nan
95372000,0.03485165,-0.03328499,-3.9289494,0.42332876,nan,-0.0016747646,0.0013038183,-1.4998972,-0.046673913,-0.026547756,0.0,0.0,0.0,0.0,nan,nan,nan
95564000,0.03459129,-0.033050116,-4.216929,0.42332876,nan,-0.0016893115,0.0006347965,-1.4998972,0.026660874,0.010209437,0.0,0.0,0.0,0.0,nan,nan,nan
95776000,0.034475736,-0.032785766,-4.534906,0.42332876,nan,2.1597894e-05,0.0018282991,-1.4998972,-0.0026712976,0.038507234,0.0,-2.0000002,0.0,0.0,nan,nan,nan
95972000,0.03439954,-0.03252788,-4.8213453,0.42332876,nan,0.001053097,0.0012975545,-1.4998972,-0.0349379,0.0055760895,0.0,0.0,0.0,0.0,nan,nan,nan
96164000,0.03429449,-0.032326356,-5.1021624,0.42332876,nan,0.0014506862,0.0019125869,-1.4906311,-0.012933884,-0.023626447,0.34434783,0.0,0.0,-10.0,nan,nan,nan
96376000,0.034176264,-0.03215814,-5.403058,0.42332876,nan,-0.00085261837,0.00037463714,-1.4041984,-0.03076931,0.024879076,0.45651025,0.0,2.0000002,2.0000002,nan,nan,nan
96572000,0.033971388,-0.03201141,-5.6699066,0.42332876,nan,-0.0013424781,0.000839524,-1.3186425,0.044307645,0.023922611,0.41651025,-2.769228,0.0,-10.0,nan,nan,nan
96764000,0.03403009,-0.03185463,-5.9034324,0.42332876,nan,-0.0019922608,0.0009783356,-1.2402877,0.009211615,0.021458458,0.3765108,0.0,0.0,-10.0,nan,nan,nan
96976000,0.033989694,-0.031763725,-6.1474385,0.42332876,nan,-0.0026899222,0.001118599,-1.1674504,0.027321722,0.015905041,0.376534,2.0000002,0.0,2.0000002,nan,nan,nan
97172000,0.033721454,-0.031618245,-6.364876,0.42332876,nan,-0.00023302407,0.00043386765,-1.1000699,0.070888534,-0.018689219,0.29274884,-4.4305334,1.1680763,-10.0,nan,nan,nan
97364000,0.033696987,-0.031531144,-6.563095,0.42332876,nan,0.0004623428,0.00020114762,-1.0420607,0.010847241,0.011801058,0.29633176,0.0,-0.72157365,-10.0,nan,nan,nan
97576000,0.033642292,-0.031501833,-6.7689753,0.42332876,nan,0.00029944465,-0.0008663485,-0.9774999,-0.026052203,0.045696802,0.3363758,0.0,2.0000002,2.0000002,nan,nan,nan
97772000,0.033617124,-0.031409945,-6.94803,0.42332876,nan,5.581892e-05,0.0010021724,-0.9238305,-0.0418604,0.02304261,0.2564563,2.616275,0.0,-10.0,nan,nan,nan
97964000,0.033644106,-0.031386767,-7.1141396,0.42332876,nan,-0.00021215115,4.381808e-05,-0.87257195,-0.06361326,0.019223005,0.25931826,3.9081326,-1.1809809,-10.0,nan,nan,nan
98176000,0.0334658,-0.031329546,-7.28985,0.42332876,nan,-0.0007247608,0.00048399722,-0.8214513,-0.075717635,0.016963296,0.25938863,-2.0000002,0.0,2.0000002,nan,nan,nan
98372000,0.033434868,-0.03126743,-7.443132,0.42332876,nan,0.0017816201,0.00070820504,-0.7754187,-0.046199374,0.013752796,0.2215401,0.0,0.0,-10.0,nan,nan,nan
98564000,0.033308942,-0.031225298,-7.5850997,0.42332876,nan,0.0015092326,0.0004103857,-0.7299293,-0.0029372089,0.015016982,0.2214999,0.0,0.0,-10.0,nan,nan,nan
98776000,0.03329067,-0.031148832,-7.7326393,0.42332876,nan,0.0024214261,0.0015740481,-0.6866138,-0.012840219,-0.017157447,0.22155192,-2.0000002,-2.0000002,2.0000002,nan,nan,nan
98972000,0.03315855,-0.031142846,-7.8618755,0.42332876,nan,0.0001524463,0.00038627352,-0.6475128,-0.07978634,0.014714535,0.18264061,4.9554563,0.0,-10.0,nan,nan,nan
99164000,0.03307911,-0.031105924,-7.981029,0.42332876,nan,-0.00081788877,0.00061093556,-0.6093119,-0.042855725,-0.021319175,0.18083574,0.0,1.3324486,-10.0,nan,nan,nan
99376000,0.033059403,-0.03107047,-8.105318,0.42332876,nan,-0.002112404,-0.00037043242,-0.5729553,0.002050154,-0.013458955,0.19728872,2.0000002,0.0,2.0000002,nan,nan,nan
99572000,0.03299288,-0.031065866,-8.213278,0.42332876,nan,-0.00071978103,-0.00029586646,-0.5396604,0.029369177,-0.017756272,0.12800698,-1.8355737,0.0,-8.000437,nan,nan,nan
99764000,0.033030137,-0.031056784,-8.312738,0.42332876,nan,-0.00034324056,-0.00028126215,-0.5092384,0.045184344,0.02094208,0.12232596,-2.8240216,-1.30888,-7.6453724,nan,nan,nan
99976000,0.03297511,-0.031060787,-8.41622,0.42332876,nan,0.0003907448,0.00021738617,-0.47845402,0.030144304,0.06035392,0.16426417,0.0,2.0000002,2.0000002,nan,nan,nan
100172000,0.032971777,-0.031089723,-8.50595,0.42332876,nan,0.0003189196,0.00073627563,-0.45103836,-0.0076589584,0.050912667,0.1315057,0.0,0.0,-8.157402,nan,nan,nan
100364000,0.032957118,-0.03103067,-8.588155,0.42332876,nan,-0.0001459966,0.00029231916,-0.4262443,-0.0093626715,-0.017737761,0.10295939,0.0,1.0992411,-6.38058,nan,nan,nan
100576000,0.03292031,-0.031051805,-8.674362,0.42332876,nan,0.000582085,-0.00038148658,-0.39978275,0.008104216,0.023253312,0.1274134,-2.0000002,2.0000002,0.0,nan,nan,nan
100772000,0.032949477,-0.031096594,-8.749431,0.42332876,nan,0.0003208435,0.0010036468,-0.37699655,-0.02407437,0.049272206,0.11762962,1.4899668,0.0,-10.0,nan,nan,nan
100964000,0.032953348,-0.03119216,-8.818496,0.42332876,nan,0.00061578234,0.0003062596,-0.35643104,0.0021831654,0.07523632,0.11198438,0.0,-4.70227,-6.9990244,nan,nan,nan
101176000,0.032987464,-0.031098753,-8.889987,0.42332876,nan,6.071839e-05,0.0014771534,-0.33435616,0.0069578923,0.00710259,0.13050577,0.0,-2.0000002,2.0000002,nan,nan,nan
101372000,0.033009514,-0.031064097,-8.952266,0.42332876,nan,0.00075017416,0.0001621297,-0.31558216,-0.023045853,-0.014543027,0.09385551,0.0,0.0,0.0,nan,nan,nan
101564000,0.033079755,-0.031052733,-9.009641,0.42332876,nan,-0.00057633896,-0.00015414538,-0.29803094,-0.0787615,-0.014483988,0.09385551,0.0,0.0,0.0,nan,nan,nan
101776000,0.03295358,-0.031094346,-9.070277,0.42332876,nan,-0.00037846243,-0.00022706467,-0.2801064,-0.0016057529,0.02559461,0.11509016,0.0,2.0000002,2.0000002,nan,nan,nan
101972000,0.0329289,-0.031064343,-9.122098,0.42332876,nan,0.0006640908,-0.00032270688,-0.2643795,0.044393253,-0.05306481,0.075096086,0.0,0.0,0.0,nan,nan,nan
102164000,0.032930195,-0.031031858,-9.170212,0.42332876,nan,0.00033894455,-0.0007900779,-0.24989262,-0.0017288662,-0.0072358437,0.075094685,0.0,0.0,0.0,nan,nan,nan
102376000,0.03298303,-0.030964678,-9.220326,0.44209656,nan,0.0025766694,0.0037750918,-0.23297955,0.22611193,0.2266083,0.26495904,10.0,10.0,10.0,nan,nan,nan
102572000,0.04804907,-0.015694376,-9.260534,0.5960346,nan,0.21714091,0.21543628,-0.20871629,2.0838451,1.8577504,0.07498447,10.0,0.0,0.0,nan,nan,nan
102764000,0.12824692,0.052856985,-9.296767,0.60570914,nan,0.7086657,0.5532833,-0.19719505,2.9842522,1.895447,0.0752057,0.0,0.0,0.0,nan,nan,nan
102976000,0.31086713,0.18797216,-9.332384,0.60553336,nan,1.2618147,0.9046157,-0.18654281,2.9842522,1.895447,0.056088854,0.0,0.0,-2.0000002,nan,nan,nan
103172000,0.5463003,0.35373855,-9.3611,0.6053964,nan,1.7312886,1.2028018,-0.17855968,2.9842522,1.895447,0.051300142,0.0,0.0,-3.0284166,nan,nan,nan
103364000,0.82552767,0.5458982,-9.386124,0.605414,nan,2.1596134,1.4748523,-0.17055823,2.9842522,1.895447,0.029791873,0.0,0.0,0.0,nan,nan,nan
103576000,1.1854693,0.7900872,-9.411301,0.605452,nan,2.6100273,1.7609326,-0.16301723,2.9842522,1.895447,0.056529842,0.0,0.0,0.0,nan,nan,nan
103772000,1.563829,1.0442903,-9.432807,0.60562694,nan,3.011724,2.0160704,-0.15637906,2.9842522,1.895447,0.055338934,0.0,0.0,0.0,nan,nan,nan
103964000,1.9765242,1.3197483,-9.452583,0.6059211,nan,3.3961232,2.2617655,-0.15059374,2.9842522,1.9223278,0.047576837,0.0,0.0,-2.7366743,nan,nan,nan
104176000,2.4841673,1.657496,-9.473332,0.60632527,nan,3.8049486,2.536809,-0.14408165,2.5065084,1.9749519,0.041386127,-10.0,0.0,-2.0000002,nan,nan,nan
104372000,2.9986372,2.0050766,-9.491789,0.6068324,nan,4.063462,2.7839735,-0.138776,1.5742092,1.6554046,0.04753784,0.0,-10.0,-2.734645,nan,nan,nan
104580000,3.5830383,2.409437,-9.510892,0.6073124,nan,4.220642,2.9370883,-0.13277349,0.46442968,0.41046232,0.050725933,-10.0,-10.0,5.9604645e-05,nan,nan,nan
104768000,4.133437,2.7921402,-9.527875,0.6076024,nan,4.1962285,2.9112291,-0.12776305,-0.8390312,-0.61216694,0.013191931,-10.0,-10.0,0.0,nan,nan,nan
104960000,4.7087116,3.1901288,-9.545292,0.6077549,nan,4.0904274,2.8181417,-0.12236538,-0.25050884,-0.2837568,0.035726696,10.0,10.0,0.0,nan,nan,nan
105176000,5.380075,3.6526372,-9.564862,0.6078805,nan,4.1230006,2.8457568,-0.11641783,-0.017720671,0.008496374,0.023150502,-10.0,0.0,0.0,nan,nan,nan
105368000,5.9922156,4.074945,-9.581847,0.6079828,nan,4.116532,2.841149,-0.11172166,0.026674457,0.055477336,0.052380264,0.0,0.0,-3.089128,nan,nan,nan
105580000,6.67877,4.548732,-9.600003,0.60807496,nan,4.115485,2.8396018,-0.10676427,0.0057064667,-0.07957881,0.022576889,0.0,-2.0000002,2.0000002,nan,nan,nan
105776000,7.3236475,4.993453,-9.616262,0.6080926,nan,4.115544,2.8366604,-0.10089765,0.009924896,0.013459362,0.0272317,0.0,0.0,0.0,nan,nan,nan
105968000,7.963087,5.4345474,-9.631633,0.6080797,nan,4.115728,2.8384035,-0.09631646,-0.046498835,-0.064281404,0.04731168,2.7630172,0.0,0.0,nan,nan,nan
106180000,8.674751,5.9254594,-9.647909,0.60806775,nan,4.115412,2.839163,-0.09155997,0.021134134,-0.06862724,0.03964355,2.0000002,-2.0000002,0.0,nan,nan,nan
106376000,9.337618,6.3825984,-9.662334,0.6080185,nan,4.1151586,2.840967,-0.08784708,0.02032122,-0.0038065016,0.027396109,0.0,0.0,-1.6329715,nan,nan,nan
106568000,9.991852,6.833803,-9.675905,0.6079533,nan,4.1157775,2.8396568,-0.08318047,-0.011410233,0.023392078,0.014711127,0.0,0.0,0.0,nan,nan,nan
106780000,10.718203,7.3348107,-9.690197,0.60785115,nan,4.1161103,2.8387923,-0.07903469,0.015387286,-0.0065891417,-0.0034584366,0.0,0.0,0.0,nan,nan,nan
106976000,11.392302,7.799746,-9.702846,0.6077771,nan,4.115112,2.8387165,-0.07509891,-0.015244413,-0.007718221,0.046074297,0.0,0.0,0.0,nan,nan,nan
107168000,12.056123,8.257592,-9.714684,0.6077143,nan,4.114301,2.838158,-0.07164117,-0.02392507,-0.0383009,0.005951084,0.0,0.0,0.0,nan,nan,nan
107360000,12.722397,8.717126,-9.726008,0.6076633,nan,4.1145782,2.8387365,-0.06820877,-0.036856066,-0.0065321987,0.0059180185,0.0,0.3910634,0.0,nan,nan,nan
107576000,13.474566,9.235906,-9.738154,0.60756797,nan,4.1144123,2.8385649,-0.06444161,-0.03990154,-0.007730074,0.0324521,0.0,0.0,0.0,nan,nan,nan
107768000,14.145553,9.698703,-9.748436,0.6074941,nan,4.1151633,2.838635,-0.061346803,-0.050403964,-0.038600903,0.0317246,0.0,2.3140361,0.0,nan,nan,nan
107980000,14.889418,10.211689,-9.759245,0.60748076,nan,4.115757,2.8374932,-0.05801108,-0.007898908,-0.006876331,-0.002557069,0.0,2.0000002,-2.0000002,nan,nan,nan
108176000,15.579422,10.687539,-9.768781,0.60746104,nan,4.1160235,2.8383892,-0.056582242,0.024881013,0.016672444,0.026488181,-1.493998,-1.0011089,0.0,nan,nan,nan
108368000,16.258171,11.155586,-9.777618,0.60745853,nan,4.11599,2.8392296,-0.05334857,0.02209622,0.04265739,0.02087576,-1.3276197,0.0,-1.2542902,nan,nan,nan
108580000,17.006859,11.671938,-9.786909,0.60747135,nan,4.116851,2.8387387,-0.04909003,0.014966659,0.0056020287,-0.007786989,-2.0000002,0.0,-2.0000002,nan,nan,nan
108776000,17.692667,12.144869,-9.795034,0.60758245,nan,4.11701,2.8390434,-0.047168717,-0.027273536,-0.025427025,0.051007383,0.0,0.0,0.0,nan,nan,nan
108968000,18.360518,12.605413,-9.80254,0.60775363,nan,4.115988,2.8381903,-0.04508529,0.0105513595,-0.019421034,0.035145,-0.63150984,0.0,0.0,nan,nan,nan
109180000,19.096155,13.112658,-9.810389,0.60801166,nan,4.116509,2.8384888,-0.042513464,0.010800766,0.009189865,0.0059519,0.0,0.0,-1.9385916,nan,nan,nan
109376000,19.776476,13.581811,-9.817256,0.6082159,nan,4.1161337,2.8387423,-0.04111216,-0.021741297,-0.017280282,-0.028903041,0.0,1.0347548,0.0,nan,nan,nan
109568000,20.44625,14.043698,-9.823728,0.6084514,nan,4.116361,2.8382032,-0.03975338,0.036418043,-0.014797089,0.0044771545,-2.183034,0.0,0.0,nan,nan,nan
109780000,21.19042,14.556813,-9.830539,0.6088519,nan,4.1160727,2.838865,-0.036167573,-0.062454708,0.013350703,-0.01668346,-2.0000002,0.0,-2.0000002,nan,nan,nan
109976000,21.881344,15.033289,-9.8366,0.609239,nan,4.1158075,2.8387108,-0.03485183,-0.038713872,-0.018955238,-0.032137416,0.0,1.1387492,1.9306779,nan,nan,nan
110168000,22.561531,15.502335,-9.842229,0.6096346,nan,4.115567,2.837785,-0.033356093,0.021111134,-0.017981583,-0.0032239482,0.0,0.0,0.0,nan,nan,nan
110380000,23.317152,16.023335,-9.848165,0.6100444,nan,4.116724,2.83821,-0.031597856,-0.010453042,0.014534241,0.0033752262,-2.0000002,0.0,0.0,nan,nan,nan
110576000,24.018866,16.507177,-9.85336,0.61051065,nan,4.115721,2.8387308,-0.028521372,-0.04123481,0.052425817,-0.0032310374,0.0,0.0,0.0,nan,nan,nan
110768000,24.70363,16.980116,-9.858339,0.6111109,nan,4.006253,2.7770753,-0.026342895,-1.1267534,-0.6497442,0.026654907,0.0,0.0,-10.0,nan,nan,nan
110980000,25.434345,17.486422,-9.86361,0.6117865,nan,3.7718375,2.6126344,-0.026155397,-1.3074347,-0.8950269,0.03652984,-2.0000002,0.0,-2.0000002,nan,nan,nan
111176000,26.083637,17.935394,-9.868168,0.6122841,nan,3.5599074,2.4540112,-0.023671113,-1.0966898,-0.8950269,-0.001094725,10.0,0.0,0.0,nan,nan,nan
111368000,26.69658,18.355806,-9.87264,0.61267406,nan,3.367171,2.295564,-0.023688441,-1.0271534,-0.8950269,-0.07266521,10.0,0.0,4.450613,nan,nan,nan
111580000,27.345007,18.795813,-9.87738,0.613227,nan,3.1770587,2.1675053,-0.024150107,-0.9536641,-0.33409575,0.022680946,-2.0000002,0.0,2.0000002,nan,nan,nan
111776000,27.935669,19.203537,-9.881478,0.6139265,nan,2.9905632,2.0771756,-0.023392564,-1.0065237,-0.6891355,-0.019550525,10.0,0.0,0.0,nan,nan,nan
111968000,28.486423,19.58522,-9.885385,0.61447287,nan,2.8102598,1.9389997,-0.020803705,-0.8659737,-0.7291355,-0.017571777,10.0,0.0,0.0,nan,nan,nan
112180000,29.061056,19.978786,-9.889618,0.61486804,nan,2.6308265,1.7904596,-0.018649433,-0.83306485,-0.60913545,0.086567804,0.0,0.0,2.0000002,nan,nan,nan
112376000,29.562935,20.323046,-9.893194,0.6152705,nan,2.4931452,1.7252289,-0.019067375,-0.75306493,-0.40913543,0.049003396,0.0,-10.0,-3.0627122,nan,nan,nan
112568000,30.026339,20.644758,-9.896467,0.6156692,nan,2.3351965,1.6173949,-0.018767975,-0.7130649,-0.6491355,0.023202717,10.0,0.0,0.0,nan,nan,nan
112780000,30.505331,20.973505,-9.900035,0.61594766,nan,2.186027,1.4958583,-0.015077945,-0.5130649,-0.28913543,0.06435981,10.0,0.0,0.0,nan,nan,nan
112976000,30.923214,21.261583,-9.90287,0.6162906,nan,2.0716262,1.4369477,-0.0135350255,-0.713065,-0.4491354,-0.027609747,0.0,0.0,0.0,nan,nan,nan
113168000,31.307716,21.528097,-9.905628,0.61666197,nan,1.9397577,1.3346337,-0.014941417,-0.59306496,-0.5691354,-0.0074161887,10.0,0.0,0.0,nan,nan,nan
113380000,31.706297,21.80205,-9.908528,0.61691314,nan,1.8291477,1.2666171,-0.013220051,-0.47306496,-0.24913543,0.069482915,-2.0000002,-2.0000002,2.0000002,nan,nan,nan
113576000,32.05406,22.042784,-9.910993,0.61699957,nan,1.7150671,1.1768266,-0.010844647,-0.593065,-0.5691354,0.03166907,10.0,0.0,0.0,nan,nan,nan
113768000,32.37467,22.262434,-9.913419,0.6162207,nan,1.6247987,1.1281923,-0.010895866,-0.55306506,-0.24913546,0.06506821,0.0,-10.0,0.0,nan,nan,nan
113960000,32.676754,22.471142,-9.915546,0.61611694,nan,1.5225302,1.0440391,-0.009262984,-0.51306504,-0.40913546,0.00484363,0.0,10.0,0.0,nan,nan,nan
114176000,32.995605,22.6912,-9.917873,0.61636746,nan,1.434028,0.9908658,-0.010433036,-0.39306504,-0.32913548,0.009164763,10.0,0.0,-0.57279766,nan,nan,nan
114368000,33.26333,22.87538,-9.919805,0.6170085,nan,1.3547195,0.92767155,-0.009685387,-0.39306504,-0.32913548,0.040000003,10.0,0.0,0.0,nan,nan,nan
114580000,33.54025,23.065882,-9.921804,0.6180731,nan,1.2574698,0.8745348,-0.0090293875,-0.39306507,-0.24913548,0.054400004,0.0,-2.0000002,2.0000002,nan,nan,nan
114776000,33.780155,23.231405,-9.923572,0.6197652,nan,1.188509,0.81522405,-0.006590987,-0.43306506,-0.20913547,0.04352,0.0,10.0,0.0,nan,nan,nan
114968000,34.00167,23.384817,-9.925187,0.6210981,nan,1.1189605,0.77971005,-0.007634878,-0.35306504,-0.2891355,0.08705281,10.0,0.0,0.0,nan,nan,nan
115180000,34.23154,23.54341,-9.926788,0.62274355,nan,1.0536308,0.7243332,-0.007329357,-0.31306505,-0.12913546,0.0493138,-2.0000002,0.0,0.0,nan,nan,nan
115376000,34.43163,23.682037,-9.928325,0.62393814,nan,0.98603004,0.6819026,-0.006250137,-0.31306505,-0.2891355,0.023560826,0.0,10.0,0.0,nan,nan,nan
115568000,34.616035,23.809204,-9.929667,0.6246744,nan,0.9292015,0.6487086,-0.008041469,-0.35306507,-0.16913547,-0.012121078,0.0,0.0,0.0,nan,nan,nan
115760000,34.789467,23.929825,-9.93103,0.62523043,nan,0.88309485,0.61234677,-0.0069108987,-0.23556165,-0.16904673,0.047554012,0.0,0.0,-2.9721258,nan,nan,nan
115976000,34.974266,24.057299,-9.932388,0.62581545,nan,0.82781386,0.5676728,-0.003912241,-0.27556166,-0.16904673,0.04323456,0.0,10.0,0.0,nan,nan,nan
116168000,35.127674,24.163378,-9.9334955,0.6263439,nan,0.7749861,0.5352958,-0.005002784,-0.23556165,-0.12904672,0.08687012,0.0,10.0,0.0,nan,nan,nan
116380000,35.287533,24.274107,-9.934588,0.6273394,nan,0.7333182,0.5066095,-0.0048110364,-0.2521276,-0.16367193,0.089196876,-2.0000002,0.0,2.0000002,nan,nan,nan
116576000,35.42682,24.37026,-9.935636,0.6292883,nan,0.68782115,0.4745298,-0.0035772296,-0.21212758,-0.16367193,-0.022913985,10.0,0.0,0.0,nan,nan,nan
116768000,35.554985,24.458815,-9.936622,0.64880556,nan,0.6425326,0.4528648,-0.005382559,-0.57212764,0.15632808,-0.059411958,-10.0,10.0,0.0,nan,nan,nan
116980000,35.662464,24.560598,-9.937696,0.81530994,nan,0.29652148,0.5125663,-0.0064185937,-2.6921277,0.31632808,0.008470438,-10.0,0.0,2.0000002,nan,nan,nan
117176000,35.664314,24.66714,-9.938553,0.96924794,nan,-0.28161553,0.57456636,-0.0040278006,-2.9721277,0.31632808,0.0,0.0,0.0,0.0,nan,nan,nan
117368000,35.618706,24.728867,-9.938973,1.1200447,nan,-0.5920086,0.607602,-0.0040278006,-2.9721277,0.31632808,0.0,0.0,0.0,0.0,nan,nan,nan
117560000,35.548206,24.788633,-9.93936,1.2708416,nan,-0.87723124,0.63795865,-0.0040278006,-2.9721277,0.31632808,0.0,0.0,0.0,0.0,nan,nan,nan
117776000,35.442486,24.855768,-9.939767,1.4404881,nan,-1.1823478,0.6674696,-0.003663069,-2.9721277,0.090858616,0.009054686,0.0,0.0,0.0,nan,nan,nan
117968000,35.324566,24.915756,-9.940106,1.591285,nan,-1.4487511,0.6687736,-0.0035898509,-2.9721277,-0.058660943,0.011870507,0.0,0.0,0.0,nan,nan,nan
118180000,35.16565,24.981749,-9.940472,1.7577899,nan,-1.7445709,0.6545169,-0.0034990767,-2.9721277,-0.22784312,0.005726237,0.0,-2.0000002,0.0,nan,nan,nan
118376000,34.989254,25.042025,-9.940804,1.9117284,nan,-1.9969089,0.6258845,-0.003347744,-2.2416463,-0.3814836,-0.006399081,10.0,0.0,0.35413882,nan,nan,nan
118568000,34.791084,25.099438,-9.941129,2.0625253,nan,-2.1646094,0.5801369,-0.0032057841,-1.2926618,-0.6195233,-0.006923303,10.0,0.0,0.0,nan,nan,nan
118760000,34.57292,25.153635,-9.941462,2.2133222,nan,-2.243462,0.51903963,-0.0032569142,-0.306464,-0.6195233,0.0077254875,10.0,0.0,0.0,nan,nan,nan
118976000,34.31344,25.20963,-9.941836,2.3829687,nan,-2.211816,0.44723606,-0.0032968104,0.85254914,-0.6195233,-0.0061640427,10.0,0.0,0.0,nan,nan,nan
119168000,34.083805,25.254465,-9.942177,2.5337656,nan,-2.067469,0.40404207,-0.0032588842,1.6291604,-0.060338728,0.01589982,-10.0,0.0,-0.8957985,nan,nan,nan
119380000,33.841866,25.303608,-9.942543,2.7002704,nan,-1.90313,0.39773172,-0.0029008288,1.0525888,-0.13125955,-0.016172776,2.0000002,-2.0000002,-2.0000002,nan,nan,nan
119576000,33.625786,25.348694,-9.942889,2.854209,nan,-1.8067793,0.37021118,-0.0029862556,0.6002955,-0.34584743,-0.002521665,0.0,0.0,0.0,nan,nan,nan
119768000,33.41908,25.389553,-9.943224,3.0050058,nan,-1.7368155,0.32984054,-0.0027212906,0.527271,-0.34584743,0.0063618748,-10.0,0.0,0.0,nan,nan,nan
119980000,33.197273,25.430809,-9.943576,-3.1116748,nan,-1.66718,0.3109568,-0.002724485,0.5273494,-0.10031831,0.018467017,0.0,-2.0000002,2.0000002,nan,nan,nan
120176000,32.998955,25.467,-9.9438925,-3.093688,nan,-1.6081433,0.2839534,-0.0027078935,0.45337546,-0.24856019,-0.0061990432,-10.0,0.0,0.0,nan,nan,nan
120368000,32.811592,25.499168,-9.944198,-3.0824566,nan,-1.5501348,0.26367715,-0.0024150836,0.45373413,-0.050881274,-0.017738016,-10.0,0.0,1.0114323,nan,nan,nan
120580000,32.602264,25.534546,-9.94454,-3.0690255,nan,-1.487396,0.24519928,-0.0022819454,0.39607757,-0.19833404,0.0,2.0000002,0.0,-0.7697739,nan,nan,nan
120776000,32.3941,25.567532,-9.944867,-3.0551262,nan,-1.4285492,0.21844023,-0.0022819454,0.46738428,-0.101655014,0.0,-10.0,10.0,0.0,nan,nan,nan
120968000,32.17783,25.600597,-9.945225,-3.0411568,nan,-1.3623434,0.20650211,-0.0022819454,0.4031281,-0.101655014,0.0,0.0,0.0,0.0,nan,nan,nan
121160000,31.97212,25.630907,-9.945573,-3.0267258,nan,-1.3023033,0.18498637,-0.0024880697,0.31578982,-0.14165501,-0.01681574,-10.0,0.0,0.0,nan,nan,nan
121376000,31.748344,25.661442,-9.9459305,-3.0103393,nan,-1.2291297,0.16247202,-0.0019057973,0.46185648,-0.09463532,0.0,-10.0,0.0,0.0,nan,nan,nan
121568000,31.554096,25.686668,-9.946241,-2.9956124,nan,-1.167315,0.14957839,-0.0019057973,0.40466097,-0.07121953,0.0,-10.0,0.0,0.0,nan,nan,nan
121780000,31.337812,25.713865,-9.946607,-2.9797218,nan,-1.103954,0.1350596,-0.0019057973,0.30356055,-0.10293281,0.0,2.0000002,0.0,0.0,nan,nan,nan
121976000,31.161129,25.734648,-9.94692,-2.9647238,nan,-1.0470973,0.11819088,-0.0029374924,0.3474505,-0.07972751,0.019432247,0.0,10.0,0.0,nan,nan,nan
122168000,30.98749,25.753973,-9.947225,-2.9510682,nan,-0.99400645,0.1087485,-0.0042689815,0.26458827,-0.07972751,-0.0048121437,-10.0,0.0,0.0,nan,nan,nan
122380000,30.803402,25.773287,-9.947433,-2.9374917,nan,-0.9429469,0.09587877,-0.0028112307,0.14953817,-0.016237665,-0.04237433,2.0000002,0.0,2.0000002,nan,nan,nan
122576000,30.63716,25.789932,-9.947752,-2.9254396,nan,-0.8945397,0.08492396,-0.0013146475,0.23184985,-0.08481716,0.034562126,-10.0,0.0,0.0,nan,nan,nan
122768000,30.481417,25.804523,-9.948024,-2.9144409,nan,-0.8458042,0.07887548,-0.0022671188,0.23981574,-0.06091833,-0.009598002,0.0,0.0,0.0,nan,nan,nan
122960000,30.333883,25.817728,-9.948278,-2.903696,nan,-0.8029819,0.068751484,-0.0021600632,0.21275054,-0.046926025,0.13441493,0.0,0.0,-7.6615605,nan,nan,nan
123176000,30.176847,25.830746,-9.948331,-2.8923554,nan,-0.7500284,0.061556138,-0.00091367343,0.054389894,-0.0069260225,-0.07851267,0.0,0.0,4.4867897,nan,nan,nan
123368000,30.044926,25.841234,-9.948487,-2.8832185,nan,-0.7147439,0.05245233,-0.0012291172,0.19814259,-0.035922345,-0.073079556,0.0,0.0,4.187059,nan,nan,nan
123580000,29.906347,25.851562,-9.948641,-2.873938,nan,-0.6703387,0.049060613,-0.0016316512,0.24261054,-0.031275462,-0.028843287,2.0000002,0.0,2.0000002,nan,nan,nan
123776000,29.78687,25.860071,-9.948835,-2.8655033,nan,-0.63253653,0.043786976,-0.000904821,0.16909455,-0.02718004,-0.034708083,0.0,0.0,2.0000002,nan,nan,nan
123968000,29.682991,25.867054,-9.949026,-2.862922,nan,-0.6050069,0.03921211,-0.0008665155,0.18288897,-0.02718004,0.05914025,0.0,0.0,0.0,nan,nan,nan
124160000,29.58733,25.873077,-9.949179,-2.8579974,nan,-0.5744399,0.03478801,-0.0005760674,0.22090995,-0.02718004,0.0060157552,-10.0,0.0,0.0,nan,nan,nan
124376000,29.483229,25.879269,-9.949352,-2.91693,nan,-0.5605119,0.03338788,-0.0008941554,-0.5019718,0.012819963,0.0,-10.0,0.0,0.0,nan,nan,nan
124568000,29.385235,25.884546,-9.9494915,-3.0677269,nan,-0.7554149,0.035355996,-0.0008941554,-2.0371642,0.012819963,0.0,-10.0,0.0,0.0,nan,nan,nan
124780000,29.241291,25.890074,-9.949629,-3.1258345,nan,-1.1610844,0.03730678,-0.0008941554,-2.9825225,0.012819963,0.0,-2.0000002,0.0,0.0,nan,nan,nan
124976000,29.046339,25.8955,-9.949761,-3.1261864,nan,-1.5846117,0.03912726,-0.0008941554,-2.9825225,0.012819963,0.0,0.0,0.0,0.0,nan,nan,nan
125168000,28.796679,25.901075,-9.949891,-3.1265032,nan,-2.000057,0.040913004,-0.0008941554,-2.9825225,0.012819963,0.0,0.0,0.0,0.0,nan,nan,nan
125380000,28.455616,25.907307,-9.950033,-3.126871,nan,-2.4565568,0.039659355,-0.0008941554,-2.9825225,-0.016133841,0.0,0.0,0.0,0.0,nan,nan,nan
125576000,28.082832,25.912695,-9.950132,-3.1271284,nan,-2.8737333,0.037402652,-0.0007671342,-2.9825225,-0.016133841,-0.019855173,0.0,0.0,1.1552603,nan,nan,nan
125768000,27.666529,25.91761,-9.95022,-3.1273274,nan,-3.2774413,0.035218805,-0.0007596433,-2.9825225,-0.016133841,-0.02628882,0.0,0.0,0.0,nan,nan,nan
125960000,27.199211,25.922197,-9.950318,-3.1275127,nan,-3.6782029,0.0330509,-0.00045571936,-2.9825225,-0.016133841,0.00663324,0.0,0.0,0.0,nan,nan,nan
126176000,26.610338,25.926826,-9.950407,-3.127653,nan,-4.128173,0.02752598,-0.00049278856,-2.9825225,-0.04414677,0.0063113,0.0,0.0,0.0,nan,nan,nan
126368000,26.02854,25.930128,-9.950485,-3.1277173,nan,-4.529012,0.02159227,-0.0004927577,-2.9549325,-0.04414677,-0.0071788565,10.0,0.0,0.41638297,nan,nan,nan
126580000,25.321861,25.9327,-9.950573,-3.1276786,nan,-4.883244,0.011915567,-0.00038550355,-1.6281179,-0.072389066,0.0050831866,10.0,0.0,0.0,nan,nan,nan
126776000,24.62521,25.933527,-9.950665,-3.1275804,nan,-5.0142713,-0.0009983107,-0.0005307656,-0.2531802,-0.101033695,0.032586638,10.0,0.0,-1.8990397,nan,nan,nan
126968000,23.92002,25.932796,-9.950727,-3.1274533,nan,-4.9979258,-0.002999484,-0.0008664209,-0.047366865,0.060275145,-0.0036817472,0.0,0.0,0.0,nan,nan,nan
127180000,23.120153,25.932121,-9.950803,-3.1273317,nan,-4.999328,-0.006848912,-0.0006765161,-0.008399224,0.022384856,0.009473441,-2.0000002,2.0000002,2.0000002,nan,nan,nan
127376000,22.365528,25.931326,-9.950873,-3.1271532,nan,-4.9994116,-0.007052472,-0.0008358089,0.01625042,0.002308093,0.001625808,0.0,0.0,0.0,nan,nan,nan
127568000,21.615818,25.93071,-9.950946,-3.1270094,nan,-4.9997883,-0.004153042,-0.00061741396,0.023643497,-0.06406845,-0.0024655364,0.0,3.790481,0.0,nan,nan,nan
127780000,20.777756,25.929914,-9.951013,-3.126754,nan,-5.0005846,-0.0026332026,-0.0008833704,-0.00562866,-0.024152111,0.007407753,0.0,-2.0000002,2.0000002,nan,nan,nan
127976000,19.996191,25.929306,-9.95108,-3.126448,nan,-5.000485,-0.0032031357,-0.00055867987,-0.011224153,-0.023116767,0.007472061,0.0,0.0,-0.4437455,nan,nan,nan
128168000,19.225544,25.92871,-9.951127,-3.1261787,nan,-5.000004,-0.004135695,-0.0008274215,0.012467413,-0.015842736,-0.054093994,-0.7412692,0.0,0.0,nan,nan,nan
128384000,18.353354,25.92804,-9.951153,-3.1258647,nan,-5.00039,-0.0035437038,-0.0008659369,-0.016165733,0.047444265,-0.05145356,0.0,1.6666667,0.0,nan,nan,nan
128576000,17.572498,25.927618,-9.951394,-3.1256166,nan,-5.002913,-0.0076342924,-0.0012887334,-0.016157977,0.015174732,-0.051685065,0.0,0.0,0.0,nan,nan,nan
128767999,16.789642,25.927032,-9.951485,-3.12542,nan,-4.9994617,-0.002825814,-0.000703215,-0.05225385,-0.05318106,-0.06480076,3.1159062,3.171196,0.0,nan,nan,nan
128980000,15.9209795,25.926235,-9.951606,-3.1250808,nan,-4.999804,-0.0038281404,-0.0004200393,0.009379698,-0.08825351,0.026516246,0.0,-2.0000002,2.0000002,nan,nan,nan
129176000,15.114474,25.925545,-9.951674,-3.1248586,nan,-4.999985,-0.005822039,-0.0016866846,0.013260929,-0.027951933,-0.035070647,0.0,0.0,0.0,nan,nan,nan
129368000,14.3210125,25.924715,-9.952011,-3.1246533,nan,-4.998921,0.00046663164,-0.00013264625,-0.019883573,-0.022966698,-0.051857524,0.0,0.0,3.0990531,nan,nan,nan
129584000,13.425794,25.924187,-9.952048,-3.124381,nan,-4.999505,-0.0018397763,0.00066388934,0.010700986,0.024922762,0.011041354,0.0,0.0,0.0,nan,nan,nan
129776000,12.627587,25.92367,-9.952071,-3.124021,nan,-4.99998,-0.0019527995,0.00027408625,0.042577844,0.065217905,-0.024753306,-2.5471811,0.0,1.4808441,nan,nan,nan
129968000,11.830761,25.923521,-9.952042,-3.1237485,nan,-4.909956,-0.0009815344,0.0022270326,1.3128524,-0.0015889632,-0.13179466,0.0,0.0,5.491444,nan,nan,nan
130183999,10.966983,25.923319,-9.952145,-3.1230795,nan,-4.646946,-0.0012689865,0.0006838492,1.580594,-0.0015929472,-0.040791288,0.0,0.0,2.4444203,nan,nan,nan
130396000,10.156977,25.923065,-9.952161,-3.122587,nan,-4.389323,-0.0015546317,0.0024982446,1.4457824,-0.0015929472,-0.017426237,0.0,0.0,-2.0000002,nan,nan,nan
130592000,9.442289,25.922783,-9.952113,-3.121991,nan,-4.1595407,-0.001821039,0.0010827694,1.377612,-0.0015929472,-0.008215945,0.0,0.0,0.0,nan,nan,nan
130784000,8.772546,25.92246,-9.95226,-3.1213331,nan,-3.9543471,-0.0020844098,-0.00066452456,1.2403781,-0.0015991033,-0.069771454,0.0,0.0,0.0,nan,nan,nan
130996000,8.069795,25.922052,-9.952284,-3.1203337,nan,-3.7312965,-0.0023771855,0.00035053014,1.2056972,-0.001600131,-0.08179918,1.9993999,0.0,-1.9993999,nan,nan,nan
131192000,7.4529757,25.921625,-9.952259,-3.119243,nan,-3.5340927,-0.0026489915,-0.00013977474,1.1036162,-0.001600131,-0.055807374,-10.0,0.0,3.3728697,nan,nan,nan
131384000,6.877567,25.92116,-9.952304,-3.1182082,nan,-3.353281,-0.0029164362,0.0001847326,1.0701116,-0.001600131,0.0086523015,-10.0,0.0,0.0,nan,nan,nan
131596000,6.2649508,25.920582,-9.952116,-3.1169255,nan,-3.1669211,-0.0032166867,0.0015064784,0.86053264,-0.0015916517,-0.026320886,2.0000002,0.0,-2.0000002,nan,nan,nan
131791999,5.719382,25.919992,-9.952144,-3.1158261,nan,-3.0144649,-0.0034975584,-0.0006396866,0.87098986,-0.0015916517,-0.057337828,-10.0,0.0,0.0,nan,nan,nan
132004000,5.1466646,25.919275,-9.952238,-3.1146257,nan,-2.8386397,-0.0038089962,-0.0013773807,0.9261699,-0.0015916517,0.013961263,2.0000002,0.0,2.0000002,nan,nan,nan
132200000,4.628814,25.918533,-9.952394,-3.1134975,nan,-2.6639075,-0.0041083805,-0.0024561682,0.9459517,-0.0015882204,0.16939586,-10.0,0.0,-7.058161,nan,nan,nan
132391999,4.1520457,25.917822,-9.952519,-3.112313,nan,-2.5191686,-0.001978278,-0.00056309265,0.7204395,0.038417455,0.06970583,-10.0,0.0,-4.228807,nan,nan,nan
132604000,3.6554756,25.91777,-9.952484,-3.110859,nan,-2.362838,-0.00011279942,-4.7997222e-05,0.76049155,-0.0015725419,0.08089656,2.0000002,0.0,2.0000002,nan,nan,nan
132800000,3.2157655,25.91772,-9.952425,-3.1093943,nan,-2.2239983,-0.00041434146,0.001734097,0.8004917,-0.0015725419,0.029687371,0.0,0.0,0.0,nan,nan,nan
132992000,2.8038726,25.917612,-9.952571,-3.1080823,nan,-2.0969408,-0.00071405567,0.0027961726,0.6804965,-0.0015713498,0.19858034,-10.0,0.0,-10.0,nan,nan,nan
133207999,2.3715782,25.917421,-9.952388,-3.106433,nan,-1.9601172,-0.0010485679,0.00025243996,0.58763963,-0.0015677735,0.070777774,-10.0,0.0,-4.423058,nan,nan,nan
133400000,2.0057604,25.917189,-9.952464,-3.1050527,nan,-1.8507293,-0.0013495818,-0.00034472,0.5476396,-0.0015677735,0.06452264,-10.0,0.0,-4.032665,nan,nan,nan
133592000,1.6608435,25.916904,-9.952429,-3.1037462,nan,-1.7432624,-0.0016505936,0.0013236257,0.5076396,-0.0015677735,-0.015477367,-10.0,0.0,0.0,nan,nan,nan
133808000,1.2968637,25.916513,-9.952453,-3.102163,nan,-1.6288115,-0.0019885295,0.003413564,0.30764678,-0.0015594289,-0.04437831,-10.0,0.0,0.0,nan,nan,nan
133999999,0.9916014,25.916103,-9.9525,-3.1005583,nan,-1.5444633,-0.0022879387,0.0016789838,0.4676568,-0.0015594289,0.01918874,-10.0,0.0,0.0,nan,nan,nan
134212000,0.6753535,25.916084,-9.952392,-3.0984945,nan,-1.4425232,0.0012197002,0.0012084476,0.2676368,-0.001569435,-0.04863665,-10.0,0.0,-2.0000002,nan,nan,nan
134408000,0.39975804,25.916292,-9.952473,-3.0965464,nan,-1.3620665,0.0009120911,6.467551e-05,0.34763682,-0.001569435,-0.04410197,0.0,0.0,2.7563732,nan,nan,nan
134600000,0.14578316,25.91644,-9.952488,-3.0947566,nan,-1.2846004,0.00061075937,-0.0002064563,0.42763677,-0.001569435,-0.012176164,0.0,0.0,0.0,nan,nan,nan
134812000,-0.11772291,25.916533,-9.952501,-3.092729,nan,-1.2022617,0.0002780389,-0.00011042713,0.26763675,-0.001569435,0.0,-10.0,0.0,0.0,nan,nan,nan
135008000,-0.34666497,25.916555,-9.952517,-3.090853,nan,-1.1333251,-2.9570365e-05,-0.00011042713,0.3476367,-0.001569435,0.0,0.0,0.0,0.0,nan,nan,nan
135200000,-0.5579933,25.916523,-9.952532,-3.0891163,nan,-1.0679389,-0.00033090194,-0.00011042713,0.38763666,-0.001569435,0.0,0.0,0.0,0.0,nan,nan,nan
135412000,-0.7775192,25.916422,-9.952549,-3.0870972,nan,-1.0019755,-0.00061905035,-0.00011042713,0.39208746,-0.001255548,0.0,2.0000002,0.0,0.0,nan,nan,nan
135608000,-0.9676589,25.916275,-9.952564,-3.0851638,nan,-0.94224644,-0.00086513796,-0.00011042713,0.23208748,-0.001255548,0.0,-10.0,0.0,0.0,nan,nan,nan
135800000,-1.1439341,25.916088,-9.9525795,-3.0836847,nan,-0.89384556,-0.0011062033,-0.00011042713,0.23208748,-0.001255548,0.0,-10.0,0.0,0.0,nan,nan,nan
136012000,-1.327734,25.915823,-9.952597,-3.0824707,nan,-0.83856297,-0.0013723797,-0.00011042713,0.31208748,-0.001255548,0.0,2.0000002,0.0,0.0,nan,nan,nan
136208000,-1.4865605,25.91565,-9.952612,-3.0810177,nan,-0.7832339,0.00030153283,-0.00011042713,0.27208748,-0.0012555495,0.0,0.0,0.0,0.0,nan,nan,nan
136400000,-1.6333318,25.915682,-9.952627,-3.0790777,nan,-0.74251306,6.046733e-05,-0.00011042713,0.27208748,-0.0012555495,0.0,0.0,0.0,0.0,nan,nan,nan
136612000,-1.7856388,25.915672,-9.952644,-3.1191547,nan,-0.7152798,-0.00016804268,-0.00011042713,-0.38233,-0.00080355164,0.0,-10.0,0.0,0.0,nan,nan,nan
136808000,-1.9457268,25.915625,-9.952632,-3.131397,nan,-0.98229647,-0.0003255387,-0.0006704271,-2.34233,-0.00080355164,0.008000001,-10.0,0.0,0.0,nan,nan,nan
137000000,-2.18515,25.915545,-9.952638,-3.1315978,nan,-1.5283438,-0.00047982045,0.0002006129,-2.9823298,-0.00080355164,0.0,0.0,0.0,0.0,nan,nan,nan
137212000,-2.5761778,25.915426,-9.952641,-3.1316996,nan,-2.1605973,-0.00065017346,0.00042461292,-2.9823298,-0.00080355164,0.032,0.0,0.0,0.0,nan,nan,nan
137408000,-3.0440717,25.915289,-9.952607,-3.1317601,nan,-2.731118,-0.0008038932,-0.0005890433,-2.9823298,-0.00080355164,0.008188339,0.0,0.0,0.0,nan,nan,nan
137600000,-3.562527,25.91513,-9.952573,-3.1317904,nan,-3.1625876,-0.0009442244,-0.00041924976,-1.6454653,-0.00080355164,-0.059569474,10.0,0.0,0.0,nan,nan,nan
137812000,-4.159709,25.914942,-9.952518,-3.1316996,nan,-3.296201,-0.0010915401,-0.00029890996,0.18784261,-0.00080355164,-0.054103166,10.0,0.0,0.0,nan,nan,nan
138008000,-4.6978054,25.91475,-9.952572,-3.1314204,nan,-3.1265657,-0.0012252221,-0.0011671665,1.8514838,-0.00080355164,-0.023071703,10.0,0.0,0.0,nan,nan,nan
138200000,-5.185791,25.914541,-9.952491,-3.131007,nan,-2.8101647,-0.0013575666,-0.0005389935,1.6453297,-0.00080355164,-0.054717645,-10.0,0.0,0.0,nan,nan,nan
138412000,-5.688147,25.91427,-9.952573,-3.1303303,nan,-2.5803847,-0.0015078563,-0.0013844422,1.0519412,-0.00080355164,0.011811659,2.0000002,0.0,2.0000002,nan,nan,nan
138608000,-6.132209,25.913988,-9.952477,-3.1295378,nan,-2.433515,-0.0016503655,-0.0013914006,0.7678589,-0.00080355164,-0.020668752,-10.0,0.0,0.0,nan,nan,nan
138800000,-6.550901,25.913689,-9.952557,-3.1287758,nan,-2.2957866,-0.0017926838,-0.0014815021,0.69654804,-0.00080355164,0.012184121,-10.0,0.0,0.0,nan,nan,nan
139012000,-6.993246,25.91333,-9.952483,-3.1277905,nan,-2.1575527,-0.00074387883,-0.0015695475,0.69891065,0.036903694,0.016591594,0.0,0.0,2.0000002,nan,nan,nan
139208000,-7.382395,25.913618,-9.952346,-3.1268225,nan,-2.0423098,0.002152006,-0.0022094618,0.51030135,-0.0009862594,-0.018556423,0.0,0.0,10.0,nan,nan,nan
139400000,-7.7565074,25.914003,-9.95227,-3.1256578,nan,-1.9306322,0.001966266,-0.0010961118,0.5862594,-0.0009862594,-0.06158421,0.0,0.0,10.0,nan,nan,nan
139612000,-8.151686,25.914402,-9.952427,-3.124506,nan,-1.8062091,0.0017575814,-0.0018245778,0.62625957,-0.0009862594,0.037386138,0.0,0.0,2.0000002,nan,nan,nan
139808000,-8.495341,25.914728,-9.952481,-3.1235657,nan,-1.700662,0.0015642742,0.00063004985,0.42625964,-0.0009862594,0.009527128,0.0,0.0,0.0,nan,nan,nan
140000000,-8.812601,25.91501,-9.952428,-3.1227224,nan,-1.60578,0.0013749121,-0.0009348203,0.46625966,-0.0009862594,-0.014002115,0.0,0.0,0.0,nan,nan,nan
140212000,-9.141875,25.915283,-9.952521,-3.1214836,nan,-1.5023729,0.0011658248,-0.0024880285,0.34625977,-0.0009862594,0.036798317,-10.0,0.0,2.0000002,nan,nan,nan
140408000,-9.428131,25.91549,-9.952532,-3.1203759,nan,-1.4180259,0.0009725177,-0.0006812545,0.42625976,-0.0009862594,0.122520715,0.0,0.0,-7.657545,nan,nan,nan
140600000,-9.692324,25.91566,-9.952422,-3.1190333,nan,-1.3365841,0.0007831561,0.0010813149,0.46625972,-0.0009862594,0.018016566,0.0,0.0,0.0,nan,nan,nan
140812000,-9.9665,25.915802,-9.952299,-3.1176465,nan,-1.2527772,0.0005740693,-0.00047413068,0.30625972,-0.0009862594,-0.084535524,2.0000002,0.0,-2.0000002,nan,nan,nan
141008000,-10.204749,25.915895,-9.952396,-3.116246,nan,-1.1797105,0.00038076262,0.00078165525,0.34625968,-0.0009862594,-0.047702737,0.0,0.0,2.981421,nan,nan,nan
141200000,-10.424661,25.915953,-9.952336,-3.1152723,nan,-1.1136287,0.0001914009,-0.0017547313,0.38625965,-0.0009862594,-0.016129766,0.0,0.0,0.0,nan,nan,nan
141412000,-10.652874,25.915968,-9.952366,-3.1138928,nan,-1.0414217,-1.768611e-05,0.00012046099,0.18625963,-0.0009862594,0.059901565,-10.0,0.0,2.0000002,nan,nan,nan
141608000,-10.851567,25.915949,-9.952326,-3.1127458,nan,-0.9826747,-0.00021099298,-0.0008081597,0.2662596,-0.0009862594,0.0,0.0,0.0,0.0,nan,nan,nan
141800000,-11.034762,25.915886,-9.952306,-3.1115553,nan,-0.9265928,-0.00040035465,1.1040334e-05,0.3462596,-0.0009862594,-0.032,0.0,0.0,2.0000002,nan,nan,nan
142012000,-11.224444,25.91578,-9.95231,-3.1105597,nan,-0.87238586,-0.0006094415,-0.00021295971,0.34625962,-0.0009862594,0.0,10.0,0.0,0.0,nan,nan,nan
142208000,-11.389566,25.91564,-9.95231,-3.1092372,nan,-0.8162789,-0.00080274814,-0.00027695968,0.22625963,-0.0009862594,-0.041600004,-10.0,0.0,0.0,nan,nan,nan
142400000,-11.541768,25.915464,-9.952328,-3.1083379,nan,-0.7695571,-0.0009921099,9.8080345e-05,0.18625963,-0.0009862594,0.0,-10.0,0.0,0.0,nan,nan,nan
142612000,-11.7004385,25.91505,-9.952311,-3.0722883,nan,-0.7347901,-0.012721197,9.8080345e-05,-0.09374037,-0.48098624,0.0,-2.0000002,-10.0,0.0,nan,nan,nan
142808000,-11.847782,25.890772,-9.952295,-2.9183497,nan,-0.77212316,-0.29907447,9.8080345e-05,-0.21374038,-2.4409862,0.0,0.0,-10.0,0.0,nan,nan,nan
143000000,-11.999969,25.78136,-9.95228,-2.7675529,nan,-0.8131612,-0.8523037,9.8080345e-05,-0.21374038,-2.9609861,0.0,0.0,0.0,0.0,nan,nan,nan
143212000,-12.1649065,25.554996,-9.95229,-2.601048,nan,-0.8554173,-1.4376885,-0.00025074487,-0.21374038,-2.9609861,-0.031685997,0.0,0.0,0.0,nan,nan,nan
143408000,-12.284067,25.330322,-9.952316,-2.4471095,nan,-0.8846909,-1.8432211,5.8678314e-05,-0.21374038,-2.9609861,0.005334506,0.0,0.0,0.0,nan,nan,nan
143600000,-12.398436,25.07109,-9.952323,-2.2963126,nan,-0.9044247,-2.2209504,-6.083874e-05,-0.05515202,-2.9609861,0.017407037,0.0,0.0,-0.9999955,nan,nan,nan
143812000,-12.520634,24.743687,-9.952328,-2.1298077,nan,-0.90006506,-2.621349,8.091614e-05,0.07332635,-2.9609861,0.006191453,0.0,0.0,-0.8333907,nan,nan,nan
144008000,-12.629413,24.402939,-9.952332,-1.9758692,nan,-0.88716984,-2.9815073,9.023763e-05,0.14779522,-2.9609861,0.0062244404,0.0,0.0,0.0,nan,nan,nan
144200000,-12.732559,24.032072,-9.952335,-1.8250723,nan,-0.8666537,-3.3295114,8.756113e-05,0.22125486,-2.9609861,0.0062360046,0.0,0.0,0.0,nan,nan,nan
144412000,-12.842389,23.577856,-9.952338,-1.6585674,nan,-0.8341053,-3.7115364,1.4748686e-05,0.29434562,-2.9609861,-0.01808737,0.0,0.0,-2.0000002,nan,nan,nan
144608000,-12.93928,23.115301,-9.952342,-1.5889157,nan,-0.79259104,-4.063833,-2.6020465e-05,0.39158577,-2.9609861,-0.015869346,0.0,0.0,0.9024739,nan,nan,nan
144800000,-13.0285635,22.622107,-9.952346,-1.5838426,nan,-0.73870057,-4.408561,-2.5368288e-05,0.5372114,-2.9609861,-0.015822502,0.0,0.0,0.8997607,nan,nan,nan
145012000,-13.12349,21.996902,-9.952353,-1.5784047,nan,-0.65493333,-4.7783833,-0.00018073332,0.72196597,-2.1589599,0.0,2.0000002,10.0,0.78178805,nan,nan,nan
145208000,-13.203134,21.347393,-9.952372,-1.5733013,nan,-0.53763705,-4.991722,-0.00018073332,1.0161811,-1.1747978,0.0,0.0,10.0,0.0,nan,nan,nan
145400000,-13.270885,20.61501,-9.9523945,-1.5687275,nan,-0.40853652,-5.0568976,-0.00018073332,0.4077376,0.25477532,0.0,-10.0,0.0,0.0,nan,nan,nan
145612000,-13.33856,19.790012,-9.952416,-1.5644803,nan,-0.43093517,-4.990727,3.953213e-06,-0.016857535,0.15797395,-0.019755801,10.0,-10.0,-2.0000002,nan,nan,nan
145808000,-13.402304,19.015808,-9.952447,-1.5609317,nan,-0.3888722,-4.999108,-0.001237408,0.23379107,-0.0018040016,0.0054006353,-10.0,0.0,0.0,nan,nan,nan
146000000,-13.460092,18.251047,-9.952434,-1.5575321,nan,-0.36641255,-4.9962473,0.00056569953,0.21178018,-0.024891343,0.0151590835,0.0,0.0,0.0,nan,nan,nan
146212000,-13.521261,17.384247,-9.952463,-1.5538139,nan,-0.33812633,-4.99658,0.0014646042,0.15510876,0.1317584,-0.010577604,0.0,10.0,-2.0000002,nan,nan,nan
146408000,-13.574814,16.570982,-9.952345,-1.5503128,nan,-0.31259692,-4.8450756,0.001866762,0.15510876,1.4763693,-0.044546295,0.0,-10.0,0.0,nan,nan,nan
146600000,-13.623647,15.802408,-9.952307,-1.5468743,nan,-0.28734615,-4.595515,0.0008912609,0.15510876,1.5100932,-0.033655193,0.0,-10.0,1.9110935,nan,nan,nan
146812000,-13.675786,14.950098,-9.952283,-1.5429833,nan,-0.25766864,-4.3178277,0.0009801806,0.15510876,1.3976154,-0.06339512,0.0,0.0,-2.0000002,nan,nan,nan
147008000,-13.720092,14.186813,-9.952231,-1.5391682,nan,-0.22945061,-4.0761895,-0.0005339817,0.15510876,1.2583712,0.01752691,0.0,-10.0,-0.99861217,nan,nan,nan
147200000,-13.757264,13.504278,-9.952239,-1.5355724,nan,-0.20276955,-3.8618107,-6.3794585e-05,0.15510876,1.2054677,-0.04174196,0.0,-10.0,2.382662,nan,nan,nan
147412000,-13.794715,12.755602,-9.952231,-1.5317893,nan,-0.17174852,-3.6277795,0.0017668351,0.15510876,1.1255097,-0.010701366,0.0,0.0,-2.0000002,nan,nan,nan
147608000,-13.823614,12.11101,-9.952314,-1.5281633,nan,-0.14760736,-3.4264014,0.0017871398,0.03510875,1.0576435,0.026075158,0.0,-10.0,0.0,nan,nan,nan
147800000,-13.850035,11.5095215,-9.952403,-1.5247922,nan,-0.14256942,-3.2390726,0.0009665272,0.07510875,0.98350394,0.077745095,0.0,-10.0,-10.0,nan,nan,nan
148012000,-13.8771305,10.878866,-9.952389,-1.5214603,nan,-0.12618053,-3.043645,-0.00030748092,0.11510876,0.93521315,0.08844052,0.0,0.0,2.0000002,nan,nan,nan
148208000,-13.898378,10.33504,-9.952441,-1.518014,nan,-0.105022684,-2.8752449,-2.6577021e-05,0.11510876,0.85713995,0.07153897,0.0,-10.0,-4.126045,nan,nan,nan
148400000,-13.916201,9.827782,-9.952559,-1.5144367,nan,-0.09654911,-2.718602,-0.000831616,-0.004891254,0.82977915,0.06752422,0.0,-10.0,-3.9006279,nan,nan,nan
148612000,-13.935321,9.285042,-9.95259,-1.5106053,nan,-0.0875157,-2.5623329,-0.0006502308,0.07510875,0.84270936,0.07801938,0.0,2.0000002,2.0000002,nan,nan,nan
148808000,-13.950662,8.811065,-9.952615,-1.5065832,nan,-0.07317409,-2.4062505,0.000285998,0.07510875,0.7332691,-0.024054084,0.0,-10.0,1.5033802,nan,nan,nan
149000000,-13.963646,8.365085,-9.952592,-1.5028147,nan,-0.06668694,-2.278609,-0.0006555537,-0.004891254,0.54574937,0.02620539,0.0,0.0,0.0,nan,nan,nan
149212000,-13.977178,7.8994884,-9.952708,-1.4986012,nan,-0.060597923,-2.133625,-0.0011912623,0.03510875,0.66574955,0.07696432,0.0,2.0000002,2.0000002,nan,nan,nan
149408000,-13.988021,7.493587,-9.952652,-1.494332,nan,-0.04835661,-2.0139372,0.0016557891,0.07510875,0.5457496,0.0426057,0.0,-10.0,-10.0,nan,nan,nan
149600000,-13.997079,7.1180525,-9.952521,-1.4900466,nan,-0.04697574,-1.8945129,0.0010045047,0.03510875,0.66574967,-0.02191544,0.0,0.0,0.0,nan,nan,nan
149812000,-14.006248,6.7298827,-9.952538,-1.4855673,nan,-0.039532665,-1.771854,0.00011871233,0.03510875,0.54574984,0.0,0.0,2.0000002,-1.0999718,nan,nan,nan
150008000,-14.013322,6.3926873,-9.952522,-1.480919,nan,-0.03265133,-1.6688075,0.00011871233,0.03510875,0.5057498,0.0,0.0,-10.0,0.0,nan,nan,nan
150200000,-14.019529,6.0821643,-9.952507,-1.4764144,nan,-0.030710459,-1.5684237,0.00011871233,0.03510875,0.46574983,0.0,0.0,-10.0,0.0,nan,nan,nan
150412000,-14.025476,5.760081,-9.95249,-1.4719024,nan,-0.027507408,-1.470165,0.00011871233,-0.004891254,0.46574983,0.0,0.0,2.0000002,0.0,nan,nan,nan
150608000,-14.030329,5.4803286,-9.952475,-1.4673643,nan,-0.0227061,-1.3855978,0.00011871233,-0.004891254,0.46574983,0.0,0.0,0.0,0.0,nan,nan,nan
150800000,-14.034631,5.2221055,-9.952459,-1.4630246,nan,-0.020205224,-1.3054533,0.00011871233,0.03510875,0.38574985,0.0,0.0,-10.0,0.0,nan,nan,nan
151012000,-14.038755,4.9532795,-9.952442,-1.4579414,nan,-0.019482167,-1.2295138,0.00011871233,0.03510875,0.42574984,0.0,2.0000002,2.0000002,0.0,nan,nan,nan
151208000,-14.0420475,4.7199364,-9.952427,-1.4523677,nan,-0.016040858,-1.1607866,0.00011871233,-0.004891254,0.26574987,0.0,0.0,0.0,0.0,nan,nan,nan
151400000,-14.045139,4.5033894,-9.952412,-1.4462409,nan,-0.014499975,-1.0902423,0.00011871233,0.03510875,0.42574984,0.0,0.0,-10.0,0.0,nan,nan,nan
151612000,-14.0479,4.279622,-9.9523945,-1.4391907,nan,-0.013216922,-1.0189505,0.00011871233,-0.004891254,0.3085999,0.0,0.0,0.0,0.0,nan,nan,nan
151808000,-14.050162,4.085735,-9.952379,-1.4321557,nan,-0.011295608,-0.9599847,0.00011871233,-0.004891254,0.2685999,0.0,0.0,-10.0,0.0,nan,nan,nan
152000000,-14.052138,3.9066699,-9.952364,-1.42502,nan,-0.0093527725,-0.90781695,0.00011871233,-0.003913003,0.086879924,0.0,0.2445627,-5.429995,0.0,nan,nan,nan
152212000,-14.054142,3.7199123,-9.952347,-1.4164325,nan,-0.007862329,-0.85099846,0.00011871233,0.036087,0.3268799,0.0,0.0,2.0000002,0.0,nan,nan,nan
152408000,-14.055652,3.5574956,-9.952361,-1.4077175,nan,-0.008069275,-0.80725,-0.00041568777,-0.003913004,0.24687992,0.001600001,0.0,0.0,0.0,nan,nan,nan
152600000,-14.057059,3.4075613,-9.952365,-1.3985173,nan,-0.00594057,-0.7558491,-0.00019232775,-0.003913004,0.08687994,0.0,0.0,0.0,0.0,nan,nan,nan
152812000,-14.058404,3.2513878,-9.952382,-1.3886591,nan,-0.006770124,-0.71327055,-0.00019232772,-0.003913004,0.24687997,0.048000004,0.0,2.0000002,2.0000002,nan,nan,nan
153008000,-14.05764,3.1148307,-9.952394,-1.3243518,nan,0.048782922,-0.7076021,0.00011871228,1.0360869,-0.47312,0.0,10.0,0.0,0.0,nan,nan,nan
153200000,-14.017381,2.9695876,-9.952378,-1.1735549,nan,0.4319516,-0.80572134,0.00011871228,2.916087,-0.51312,0.0,0.0,0.0,0.0,nan,nan,nan
153412000,-13.89346,2.8181748,-9.952361,-1.00705,nan,0.9630482,-0.89698035,0.00011871228,2.9960868,-0.51312,0.0,0.0,0.0,0.0,nan,nan,nan
153608000,-13.736102,2.6923757,-9.952346,-0.853112,nan,1.367615,-0.96626794,0.00011871228,2.9960868,-0.51312,0.0,0.0,0.0,0.0,nan,nan,nan
153800000,-13.538706,2.565839,-9.952357,-0.70231557,nan,1.7473437,-1.026425,-6.5312175e-05,2.9960868,-0.20082211,0.017797763,0.0,10.0,-1.021743,nan,nan,nan
154012000,-13.275755,2.427117,-9.952361,-0.5358112,nan,2.151481,-1.0241274,8.6605185e-05,2.9960868,0.23234425,0.006196865,0.0,10.0,-0.83205676,nan,nan,nan
154208000,-12.993372,2.3051798,-9.952365,-0.3818732,nan,2.4858012,-0.97781104,9.5653115e-05,2.2313638,0.6281748,0.006229602,-10.0,0.0,0.0,nan,nan,nan
154400000,-12.688817,2.1961339,-9.952369,-0.23107675,nan,2.6866527,-0.86964476,9.415828e-05,1.204561,1.0929987,0.0062260646,-10.0,0.0,0.0,nan,nan,nan
154612000,-12.333004,2.092307,-9.952372,-0.073378995,nan,2.7587447,-0.72754186,2.0969142e-05,-0.09555803,1.0929987,-0.018509619,-10.0,0.0,-2.0000002,nan,nan,nan
154808000,-11.999834,2.010289,-9.952375,-0.06205819,nan,2.6724987,-0.6367797,-2.2738495e-05,-1.3168321,0.16862948,-0.01664941,-10.0,-10.0,0.95152,nan,nan,nan
155000000,-11.684846,1.9324481,-9.952379,-0.05221436,nan,2.4572597,-0.6346692,-2.4648623e-05,-1.745094,0.043248076,-0.017243354,10.0,0.0,0.98975134,nan,nan,nan
155212000,-11.357342,1.8453068,-9.952386,-0.041891504,nan,2.2560956,-0.60637695,-0.0001851347,-1.0870407,0.38582167,-0.0059619825,10.0,2.0000002,0.8931753,nan,nan,nan
155408000,-11.068602,1.7698561,-9.952394,-0.031810906,nan,2.138153,-0.53563654,-0.00020625106,-0.7108961,0.57324314,-0.0059132604,10.0,0.0,0.0,nan,nan,nan
155600000,-10.730934,1.6895938,-9.952384,-0.02240827,nan,2.0257454,-0.47189206,-0.00010714849,-0.58677405,0.020538628,0.0,0.0,0.0,0.0,nan,nan,nan
155812000,-10.370863,1.6066588,-9.952401,-0.013210788,nan,1.9135307,-0.42634207,-0.00010714849,-0.5954666,0.31500655,0.0,0.0,0.0,0.0,nan,nan,nan
156008000,-10.0719595,1.5424191,-9.952416,-0.0048213955,nan,1.8214657,-0.37775645,-0.00010714849,-0.57760274,0.231855,0.0,0.0,-10.0,0.0,nan,nan,nan
156200000,-9.779855,1.4828739,-9.952432,0.0030688012,nan,1.7374252,-0.35004458,-0.00010714849,-0.5146751,0.14840235,0.0,10.0,0.0,0.0,nan,nan,nan
156412000,-9.4681635,1.4213301,-9.952449,0.011637151,nan,1.6371535,-0.31271455,-0.00010714849,-0.52166563,0.22840236,0.0,-2.0000002,0.0,0.0,nan,nan,nan
156608000,-9.1995125,1.3719301,-9.952464,0.01974102,nan,1.5552435,-0.27431136,-0.00010714849,-0.4995041,0.19980907,0.0,0.0,-10.0,0.0,nan,nan,nan
156800000,-8.946734,1.3274646,-9.952479,0.027274752,nan,1.4859647,-0.25911784,-0.00010714849,-0.5171063,0.18878269,0.0,0.0,0.0,0.0,nan,nan,nan
157012000,-8.677379,1.2826182,-9.952497,0.035337348,nan,1.4050179,-0.219944,-0.00010714849,-0.44823253,0.19965,0.0,-2.0000002,0.0,0.0,nan,nan,nan
157208000,-8.444885,1.2460991,-9.952512,0.042951237,nan,1.3261913,-0.20494129,-0.00010714849,-0.41359973,0.17385559,0.0,10.0,0.0,0.0,nan,nan,nan
157400000,-8.221211,1.2131026,-9.952527,0.050288785,nan,1.2617903,-0.17892742,-0.00010714849,-0.25556266,0.05533457,0.0,0.0,-10.0,0.0,nan,nan,nan
157612000,-7.98365,1.1796685,-9.952544,0.058484983,nan,1.1893795,-0.16237435,-0.00010714849,-0.29535857,0.1651731,0.0,-2.0000002,0.0,0.0,nan,nan,nan
157808000,-7.7839823,1.1536244,-9.952559,0.066536,nan,1.1290195,-0.14385052,-0.00010714849,-0.37508988,0.07517695,0.0,10.0,0.0,0.0,nan,nan,nan
158000000,-7.5925455,1.1296573,-9.952575,0.07425669,nan,1.0708715,-0.13148753,-0.00010714849,-0.37963408,0.063812,0.0,0.0,0.0,0.0,nan,nan,nan
158212000,-7.3948536,1.1061786,-9.952592,0.08243083,nan,1.0139885,-0.11399931,-0.00010714849,-0.3092491,0.10381201,0.0,-2.0000002,0.0,0.0,nan,nan,nan
158408000,-7.2196627,1.0867505,-9.952607,0.090987444,nan,0.9572483,-0.105550125,-0.00010714849,-0.24810174,0.06392421,0.0,0.0,0.0,0.0,nan,nan,nan
158600000,-7.0564547,1.0692221,-9.952622,0.0990364,nan,0.9054811,-0.09433907,-0.00010714849,-0.3096314,0.06392421,0.0,0.0,0.0,0.0,nan,nan,nan
158812000,-6.8882804,1.0522773,-9.95264,0.10739188,nan,0.8534427,-0.08338505,-0.00010714849,-0.14163753,0.0540466,0.0,10.0,0.0,0.0,nan,nan,nan
159008000,-6.7388673,1.038072,-9.952655,0.11537385,nan,0.8080329,-0.07519133,-0.00010714849,-0.18194818,0.045657024,0.0,0.0,0.0,0.0,nan,nan,nan
159200000,-6.59662,1.025284,-9.952656,0.12348809,nan,0.7692,-0.065975666,-0.0016397219,-0.18918927,0.04615279,-0.02642918,0.0,0.0,0.0,nan,nan,nan
159412000,-6.450024,1.0131444,-9.952704,0.13272578,nan,0.71982604,-0.05898074,-0.0009924654,-0.10322207,0.0061527863,0.025798105,10.0,0.0,2.0000002,nan,nan,nan
159608000,-6.3177867,1.0026006,-9.952746,0.1420687,nan,0.6783233,-0.05173436,0.00062386895,-0.22480713,0.04615279,0.0466195,10.0,0.0,0.0,nan,nan,nan
159800000,-6.197244,0.99365026,-9.952668,0.15181544,nan,0.64363235,-0.048002973,0.0014808666,-0.33564323,0.04615279,-0.014773719,0.0,0.0,0.0,nan,nan,nan
160012000,-6.068891,0.9845564,-9.952568,0.16380465,nan,0.60373425,-0.040863447,-0.00026496116,-0.21013282,0.03262455,-0.0832548,0.0,0.0,-2.0000002,nan,nan,nan
160208000,-5.9581738,0.9772913,-9.952616,0.15127212,nan,0.57018995,-0.037489206,0.0010341271,-0.16771165,0.03262455,-0.046633743,10.0,0.0,2.775406,nan,nan,nan
160400000,-5.8529854,0.97127426,-9.952732,0.010720021,nan,0.69178265,-0.03182511,0.0021863477,1.5684327,0.03262455,-0.002401702,10.0,0.0,0.0,nan,nan,nan
160612000,-5.7050557,0.9663461,-9.952677,0.01094017,nan,1.0953603,-0.026292142,0.0015932948,2.9447112,0.03262455,0.0018166415,2.0000002,0.0,-2.0000002,nan,nan,nan
160808000,-5.49801,0.9626415,-9.952606,0.0110486,nan,1.559369,-0.021202637,-0.00012977544,2.9766607,0.03262455,-0.051832777,0.0,0.0,0.0,nan,nan,nan
161000000,-5.229344,0.95981777,-9.9526205,0.0111024175,nan,2.0077562,-0.016288258,-0.00088623044,2.9766607,0.03262455,-0.022415837,0.0,0.0,0.0,nan,nan,nan
161212000,-4.8643622,0.9576041,-9.952572,0.011161317,nan,2.4907713,-0.01099436,-0.00088153814,2.9766607,0.03262455,-0.01901141,0.0,0.0,2.0000002,nan,nan,nan
161408000,-4.469332,0.9562871,-9.9526,0.011257034,nan,2.9250104,-0.008126506,-3.1322583e-05,2.9766607,0.0028582066,0.0063232146,0.0,0.0,-0.37008008,nan,nan,nan
161600000,-4.0316386,0.95517963,-9.952588,0.011430433,nan,3.3408706,-0.0077271936,-8.084688e-05,2.9766607,0.0028582066,-0.0049307486,0.0,0.0,0.0,nan,nan,nan
161812000,-3.4893274,0.9540378,-9.952581,0.011601241,nan,3.7934113,-0.0072926604,0.00017086191,2.9766607,0.0028582066,-0.011716537,0.0,0.0,-2.0000002,nan,nan,nan
162008000,-2.9302528,0.9530468,-9.952586,0.011810017,nan,4.209313,-0.006893309,-0.00010949912,2.9766607,0.0028582066,0.015240469,0.0,0.0,-0.88645875,nan,nan,nan
162200000,-2.3252296,0.95212865,-9.952584,0.012064672,nan,4.615174,-0.006501467,0.00017536363,2.7774568,0.0028582066,0.03290852,-10.0,0.0,0.0,nan,nan,nan
162412000,-1.5951586,0.9511449,-9.952575,0.012376829,nan,4.9224215,-0.007277664,-8.005483e-05,1.2527192,-0.026064534,0.009825114,-10.0,0.0,2.0000002,nan,nan,nan
162608000,-0.8819754,0.94983613,-9.952569,0.01280293,nan,5.0120697,-0.011008685,-1.3040837e-05,-0.035652224,-0.026064534,-0.007198548,-10.0,0.0,0.0,nan,nan,nan
162800000,-0.16371168,0.9481417,-9.952567,0.013282783,nan,4.9997888,-0.010771802,0.00023267264,0.047631584,0.024650803,0.02184574,-2.7982433,0.0,0.0,nan,nan,nan
163012000,0.6466742,0.9463674,-9.952537,0.01387108,nan,4.999156,-0.010665164,-0.00023317791,0.055182233,0.025088193,-0.036385562,2.0000002,0.0,0.0,nan,nan,nan
163208000,1.4054027,0.94489896,-9.952518,0.014480773,nan,4.9982004,-0.009853568,-0.00045514348,-0.03441018,-0.0110337045,-0.0031560268,0.0,0.0,0.0,nan,nan,nan
163400000,2.1558518,0.9435129,-9.952531,0.014850631,nan,5.001523,-0.008148824,4.761759e-05,-0.044145204,0.0144475475,-0.012112323,0.0,0.0,0.71668404,nan,nan,nan
163612000,2.987832,0.9420594,-9.952531,0.0153519185,nan,5.0020485,-0.00738603,0.00042140108,0.05036297,0.038840987,0.0026914664,-2.0000002,0.0,-2.0000002,nan,nan,nan
163808000,3.756583,0.9408766,-9.952532,0.015901202,nan,5.0001454,-0.007581947,8.376548e-06,0.05662308,0.035982266,0.019934233,-3.3507354,-2.1292918,-1.1796312,nan,nan,nan
164000000,4.509484,0.9398362,-9.952523,0.016471991,nan,5.000395,-0.006574535,0.00013328758,0.036040492,0.04019919,0.0012946296,0.0,0.0,0.0,nan,nan,nan
164212000,5.3418255,0.93876237,-9.95252,0.017107483,nan,5.0005307,-0.0052394597,9.7540615e-06,-0.022667803,0.005517021,0.02690188,-2.0000002,-2.0000002,2.0000002,nan,nan,nan
164408000,6.1135397,0.93783766,-9.952523,0.017689899,nan,4.999679,-0.0050149024,-0.00015625829,-0.015709992,-0.0022524744,-0.001325265,0.0,0.0,0.0,nan,nan,nan
164600000,6.8728275,0.93702763,-9.952518,0.018266803,nan,4.99975,-0.005069236,-0.00014714997,0.014547134,-0.032687247,0.007406085,-0.862729,1.9385424,-0.43922356,nan,nan,nan
164812000,7.7151594,0.93621063,-9.952511,0.01894912,nan,5.0000024,-0.0042564496,-0.00038616266,-0.015946206,0.018517168,0.0012959372,0.0,0.0,2.0000002,nan,nan,nan
165008000,8.497925,0.9355476,-9.952508,0.019616827,nan,4.9997263,-0.004235002,-4.220947e-05,0.013589928,-0.014637724,-0.0012385463,-0.8078734,0.0,0.0,nan,nan,nan
165200000,9.269016,0.9349461,-9.952506,0.020280192,nan,5.00003,-0.0036472185,3.4528268e-05,0.012410797,0.009315502,-0.028128017,-0.7386416,-0.5544219,1.6740686,nan,nan,nan
165412000,10.125084,0.9343657,-9.952508,0.020999318,nan,4.9997396,-0.0031191364,0.000111546055,-0.0135650905,0.0017441143,0.001186572,0.0,-0.4600028,0.0,nan,nan,nan
165608000,10.920942,0.9338892,-9.95251,0.021669881,nan,5.0019555,-0.0028883128,-8.9030786e-05,0.015829623,0.001226333,0.008125815,0.0,0.0,-0.48484161,nan,nan,nan
165800000,11.702838,0.9334515,-9.952508,0.02228824,nan,4.9408574,-0.0026960177,-0.00048756407,-0.9984324,0.001226333,-0.0037742965,0.0,0.0,0.0,nan,nan,nan
166012000,12.559612,0.9329914,-9.952484,0.02299902,nan,4.683651,-0.002477961,0.0010703697,-1.497591,0.001226333,-0.019610163,-2.0000002,0.0,-2.0000002,nan,nan,nan
166208000,13.345182,0.9325823,-9.952466,0.023823986,nan,4.4318714,-0.0022665341,0.00044131756,-1.3441668,0.001226333,-0.00048137456,0.0,0.0,0.0,nan,nan,nan
166400000,14.090838,0.93220866,-9.952459,0.024768576,nan,4.1951966,-0.0020544678,4.0934203e-05,-1.3638047,0.001226333,0.023745883,0.0,0.0,-1.4236078,nan,nan,nan
166612000,14.890501,0.93182844,-9.952464,0.025815053,nan,3.9438646,-0.0018133878,-6.918951e-05,-1.263625,0.001226333,0.0,-2.0000002,0.0,0.0,nan,nan,nan
166808000,15.581296,0.9315216,-9.952472,0.026845176,nan,3.7250307,-0.001592415,-6.918951e-05,-1.2504332,0.001226333,0.0,0.0,0.0,0.0,nan,nan,nan
167000000,16.24624,0.9312499,-9.952479,0.027732084,nan,3.5190082,-0.0013672417,-6.918951e-05,-1.0440035,0.001226333,0.0,0.0,0.0,0.0,nan,nan,nan
167212000,16.930593,0.93100023,-9.952488,0.028790962,nan,3.3036952,-0.0011211393,-6.918951e-05,-1.1114569,0.001226333,0.0,-2.0000002,0.0,0.0,nan,nan,nan
167408000,17.54177,0.93080896,-9.952496,0.029774247,nan,3.1152563,-0.0008875633,-6.918951e-05,-0.91145694,0.001226333,0.0,0.0,0.0,0.0,nan,nan,nan
167600000,18.108232,0.9306643,-9.952503,0.03060751,nan,2.938448,-0.00065795024,-6.918951e-05,-0.951457,0.001226333,0.0,0.0,0.0,0.0,nan,nan,nan
167812000,18.69842,0.9305542,-9.952512,0.03153611,nan,2.7558436,-0.00040362193,-6.918951e-05,-0.7914572,0.001226333,0.0,-2.0000002,0.0,0.0,nan,nan,nan
168008000,19.213797,0.9304992,-9.952519,0.03231478,nan,2.5972025,-0.00016736424,-6.918951e-05,-0.8314573,0.001226333,0.0,0.0,0.0,0.0,nan,nan,nan
168200000,19.697767,0.93048966,-9.952527,0.033123758,nan,2.4452424,6.8091686e-05,-6.918951e-05,-0.83145744,0.001226333,0.0,0.0,0.0,0.0,nan,nan,nan
168412000,20.199587,0.9305315,-9.952536,0.033654053,nan,2.2920935,0.0003280743,-6.918951e-05,-0.63145757,0.001226333,0.0,-2.0000002,0.0,0.0,nan,nan,nan
168608000,20.634977,0.9306193,-9.952543,0.034289315,nan,2.1488886,0.00056843564,-6.918951e-05,-0.5114576,0.001226333,0.0,10.0,0.0,0.0,nan,nan,nan
168800000,21.037714,0.9307511,-9.952551,0.03508847,nan,2.043809,0.0008038917,-6.918951e-05,-0.59145766,0.001226333,0.0,10.0,0.0,0.0,nan,nan,nan
169012000,21.457272,0.9309492,-9.952559,0.036083598,nan,1.9141793,0.0010638741,-6.918951e-05,-0.6314577,0.001226333,0.0,-2.0000002,0.0,0.0,nan,nan,nan
169208000,21.820717,0.9311812,-9.952567,0.03744416,nan,1.7943333,0.0013042345,-6.918951e-05,-0.59145766,0.001226333,0.0,10.0,0.0,0.0,nan,nan,nan
169400000,22.154478,0.93145406,-9.952575,0.03903903,nan,1.6857332,0.0015396896,-6.918951e-05,-0.5114576,0.001226333,0.0,10.0,0.0,0.0,nan,nan,nan
169612000,22.500738,0.93180805,-9.952583,0.04074286,nan,1.5811437,0.0017996713,-6.918951e-05,-0.5114576,0.001226333,0.0,-2.0000002,0.0,0.0,nan,nan,nan
169808000,22.801455,0.93217987,-9.952591,0.04244856,nan,1.4891381,0.0014800319,-6.918951e-05,-0.47145763,-0.03877367,0.0,0.0,0.0,0.0,nan,nan,nan
170000000,23.079454,0.9321091,-9.952599,0.044224743,nan,1.4122187,-0.00060451264,-6.918951e-05,-0.39145762,0.001226332,0.0,0.0,0.0,0.0,nan,nan,nan
170212000,23.368685,0.93200845,-9.952607,0.046284076,nan,1.3169099,-0.0003445303,-6.918951e-05,-0.47145763,0.001226332,0.0,0.0,0.0,0.0,nan,nan,nan
170408000,23.619755,0.9319645,-9.952615,0.04823342,nan,1.2417046,-0.000104169165,-6.918951e-05,-0.2714576,0.001226332,0.0,0.0,0.0,0.0,nan,nan,nan
