timestamp,rollspeed,pitchspeed,yawspeed,q[0],q[1],q[2],q[3],delta_q_reset[0],delta_q_reset[1],delta_q_reset[2],delta_q_reset[3],quat_reset_counter
1984000,-0.008176719,-0.0062664766,-0.001319869,0.97885317,-0.007945471,-0.013105069,0.20398918,0.9789583,0.004473106,-0.004242113,0.20396751,1
2016000,0.0015425183,-0.0061373836,0.0015715057,0.97885066,-0.0079253595,-0.013175793,0.20399767,0.9789583,0.004473106,-0.004242113,0.20396751,1
2048000,-0.0007664476,-0.009749214,0.0039729825,0.97885334,-0.007917217,-0.013248745,0.2039801,0.9789583,0.004473106,-0.004242113,0.20396751,1
2080000,0.0041598524,-0.003932476,-2.0044672e-05,0.97885686,-0.007931669,-0.01337781,0.20395455,0.9789583,0.004473106,-0.004242113,0.20396751,1
2112000,-0.0042022904,-0.01286876,-0.00040873743,0.97885287,-0.007948137,-0.013540766,0.20396185,0.9789583,0.004473106,-0.004242113,0.20396751,1
2144000,0.0012583078,-0.009569303,0.0066775,0.9788568,-0.00795751,-0.0137115875,0.20393181,0.9789583,0.004473106,-0.004242113,0.20396751,1
2180000,0.00293646,-0.0053718383,0.00080946455,0.9788562,-0.007972653,-0.013884445,0.20392199,0.9789583,0.004473106,-0.004242113,0.20396751,1
2208000,-0.0035285254,-0.006742564,-0.004295248,0.9788728,-0.007989787,-0.013948792,0.20383763,0.9789583,0.004473106,-0.004242113,0.20396751,1
2240000,-0.004530044,-0.0042030644,-0.0029796646,0.9788793,-0.008021468,-0.014064428,0.20379709,0.9789583,0.004473106,-0.004242113,0.20396751,1
2272000,-0.0034353982,-0.012333346,0.0008974576,0.9788761,-0.0080064805,-0.014204675,0.20380336,0.9789583,0.004473106,-0.004242113,0.20396751,1
2304000,-0.0018728629,-0.0036426324,-0.0024252713,0.9788799,-0.007983343,-0.014339264,0.20377663,0.9789583,0.004473106,-0.004242113,0.20396751,1
2336000,-0.0045582475,-0.008997343,0.00083325704,0.9788799,-0.007960463,-0.014464225,0.20376815,0.9789583,0.004473106,-0.004242113,0.20396751,1
2368000,-0.0033594419,-0.0045196675,-0.007321925,0.9788778,-0.008026942,-0.01456575,0.20376882,0.9789583,0.004473106,-0.004242113,0.20396751,1
2404000,0.006642652,-0.0013167922,-0.0081674885,0.9788636,-0.008072,-0.014672384,0.20382752,0.9789583,0.004473106,-0.004242113,0.20396751,1
2432000,0.0033377672,-0.009781384,-0.0011017462,0.97885406,-0.0080408985,-0.014750213,0.20386918,0.9789583,0.004473106,-0.004242113,0.20396751,1
2464000,-0.011378133,-0.0043707183,-0.0052647498,0.97883856,-0.008034642,-0.0148317125,0.2039375,0.9789583,0.004473106,-0.004242113,0.20396751,1
2496000,-0.002265059,-0.0078529995,-0.0039819744,0.97881895,-0.008047134,-0.014974247,0.20402083,0.9789583,0.004473106,-0.004242113,0.20396751,1
2528000,0.0031191076,-0.0061259083,-0.000107337,0.97880566,-0.008011015,-0.015107243,0.20407605,0.9789583,0.004473106,-0.004242113,0.20396751,1
2560000,0.0029931113,-0.0060173823,0.0013419462,0.97879374,-0.00796672,-0.015161926,0.20413095,0.9789583,0.004473106,-0.004242113,0.20396751,1
2592000,-0.0009101906,-0.007341478,-0.0005917016,0.97877944,-0.007948824,-0.015274093,0.20419203,0.9789583,0.004473106,-0.004242113,0.20396751,1
2624000,-0.0010072972,-0.0050608586,0.0022593788,0.97876495,-0.007947677,-0.01534142,0.20425679,0.9789583,0.004473106,-0.004242113,0.20396751,1
2656000,-0.0010054472,-0.0062163407,-0.0031081124,0.9787606,-0.007928015,-0.015399815,0.20427367,0.9789583,0.004473106,-0.004242113,0.20396751,1
2688000,0.0047782543,-0.005895328,0.00091935066,0.9787657,-0.007916523,-0.015500148,0.20424195,0.9789583,0.004473106,-0.004242113,0.20396751,1
2720000,-0.0023635381,-0.00198714,0.008529857,0.9787535,-0.007947513,-0.015560137,0.20429474,0.9789583,0.004473106,-0.004242113,0.20396751,1
2752000,0.006595944,-0.003898687,-3.808795e-05,0.9787679,-0.007961485,-0.0155736515,0.20422454,0.9789583,0.004473106,-0.004242113,0.20396751,1
2784000,0.0060159955,-0.0048011965,0.0016564733,0.97878605,-0.007912516,-0.015630906,0.2041346,0.9789583,0.004473106,-0.004242113,0.20396751,1
2816000,-0.004215939,-0.0068297004,-0.002853921,0.9787958,-0.007920529,-0.015749414,0.20407856,0.9789583,0.004473106,-0.004242113,0.20396751,1
2848000,-0.0013848925,-0.002566107,0.0038519904,0.9788119,-0.007920791,-0.015828049,0.20399489,0.9789583,0.004473106,-0.004242113,0.20396751,1
2884000,-0.0043523046,-0.012244496,0.002700002,0.9788298,-0.007951484,-0.01595768,0.2038982,0.9789583,0.004473106,-0.004242113,0.20396751,1
2912000,-0.004596649,-0.0063673994,0.005197161,0.9788371,-0.007986242,-0.01602462,0.20385633,0.9789583,0.004473106,-0.004242113,0.20396751,1
2944000,0.00063370843,-0.0023850554,0.0043700067,0.9788464,-0.008002149,-0.016115315,0.20380408,0.9789583,0.004473106,-0.004242113,0.20396751,1
2976000,-0.0017695349,-0.0025666049,0.002305503,0.97886074,-0.008011899,-0.016198095,0.20372842,0.9789583,0.004473106,-0.004242113,0.20396751,1
3008000,-0.0039994423,-0.0010527705,-0.0076013245,0.9788732,-0.008045488,-0.016288063,0.20365968,0.9789583,0.004473106,-0.004242113,0.20396751,1
3040000,-0.005167286,-0.0041195666,-0.0011415917,0.97888327,-0.008089263,-0.016384535,0.20360222,0.9789583,0.004473106,-0.004242113,0.20396751,1
3072000,0.0062214457,-0.0027449066,-0.005827103,0.9788937,-0.008117695,-0.016451703,0.20354529,0.9789583,0.004473106,-0.004242113,0.20396751,1
3108000,-0.0049505318,-0.0063291355,0.0052182134,0.97889614,-0.008101571,-0.01660542,0.20352185,0.9789583,0.004473106,-0.004242113,0.20396751,1
3140000,0.0019852384,-0.008654167,-0.0048349844,0.9789008,-0.008094287,-0.016677583,0.20349358,0.9789583,0.004473106,-0.004242113,0.20396751,1
3168000,-0.004721441,-0.011229679,-0.006719821,0.978907,-0.008091406,-0.016763065,0.20345686,0.9789583,0.004473106,-0.004242113,0.20396751,1
3200000,-8.455222e-05,-0.0072448663,0.0012984426,0.9789086,-0.008072694,-0.016859397,0.20344159,0.9789583,0.004473106,-0.004242113,0.20396751,1
3232000,-0.0017925657,0.0032083974,0.0041090087,0.9789076,-0.008091155,-0.016921002,0.20344076,0.9789583,0.004473106,-0.004242113,0.20396751,1
3264000,-0.0074200686,-0.008234923,-0.0033815496,0.9789044,-0.008113932,-0.017031603,0.20344637,0.9789583,0.004473106,-0.004242113,0.20396751,1
3296000,-0.00030911132,-0.0076601463,-0.0006331721,0.97890276,-0.008156565,-0.017160922,0.20344165,0.9789583,0.004473106,-0.004242113,0.20396751,1
3328000,0.0048904237,-0.00052479794,-0.0008872984,0.9789006,-0.008170197,-0.017227087,0.2034456,0.9789583,0.004473106,-0.004242113,0.20396751,1
3364000,-0.0031677065,-0.0025283892,0.00035314768,0.97889495,-0.008194576,-0.017298387,0.20346597,0.9789583,0.004473106,-0.004242113,0.20396751,1
3396000,-0.008745451,-0.003159788,-0.0017840829,0.97889847,-0.008224981,-0.01744965,0.2034351,0.9789583,0.004473106,-0.004242113,0.20396751,1
3424000,-0.0035883144,-0.0075945123,-0.0020936953,0.97890246,-0.008218346,-0.017542673,0.20340773,0.9789583,0.004473106,-0.004242113,0.20396751,1
3460000,0.0014950688,-0.013694595,-0.0015974302,0.97889876,-0.00816738,-0.017709399,0.2034135,0.9789583,0.004473106,-0.004242113,0.20396751,1
3492000,-0.001406701,-0.009762389,-0.0024580443,0.97890484,-0.008136003,-0.017831719,0.20337428,0.9789583,0.004473106,-0.004242113,0.20396751,1
3520000,-0.0029683602,-0.0025732971,0.003264149,0.9789003,-0.008136674,-0.017946567,0.2033859,0.9789583,0.004473106,-0.004242113,0.20396751,1
3552000,0.0002827168,-0.005141553,-0.005490015,0.97890514,-0.00815447,-0.018006701,0.20335688,0.9789583,0.004473106,-0.004242113,0.20396751,1
3584000,-0.0007283436,-0.012201214,0.00033984694,0.97890455,-0.008172975,-0.018100455,0.20335083,0.9789583,0.004473106,-0.004242113,0.20396751,1
3616000,-0.0064628934,0.0020340243,-0.0045347232,0.97890764,-0.008215356,-0.018198507,0.2033251,0.9789583,0.004473106,-0.004242113,0.20396751,1
3648000,-0.005710626,-0.0036853217,0.007568353,0.97889787,-0.0082144365,-0.018292489,0.20336425,0.9789583,0.004473106,-0.004242113,0.20396751,1
3680000,-0.00438957,0.00020771175,0.005892328,0.9788869,-0.00821205,-0.018386627,0.20340803,0.9789583,0.004473106,-0.004242113,0.20396751,1
3712000,0.0014839295,-0.0052820286,0.0030449561,0.97888345,-0.008191873,-0.01846692,0.20341851,0.9789583,0.004473106,-0.004242113,0.20396751,1
3744000,-0.003933378,-0.0008813547,-0.0040213806,0.9788763,-0.00813877,-0.018547654,0.20344798,0.9789583,0.004473106,-0.004242113,0.20396751,1
3776000,0.00060698483,-0.0079144,0.0006929346,0.97887534,-0.008137391,-0.018652668,0.20344278,0.9789583,0.004473106,-0.004242113,0.20396751,1
3808000,-0.0018805445,-0.005204571,0.0022000386,0.97887874,-0.008145037,-0.018747447,0.20341764,0.9789583,0.004473106,-0.004242113,0.20396751,1
3840000,-0.000648707,0.003420418,-0.0040528006,0.978881,-0.0081425,-0.018794352,0.20340262,0.9789583,0.004473106,-0.004242113,0.20396751,1
3872000,-0.009872914,-0.0014103753,-0.005387472,0.9788938,-0.008159798,-0.018903624,0.20332994,0.9789583,0.004473106,-0.004242113,0.20396751,1
3904000,-0.0038233385,-0.009343197,0.0017263937,0.9788983,-0.008226512,-0.018961733,0.20329992,0.9789583,0.004473106,-0.004242113,0.20396751,1
3936000,-0.0038837679,-0.0032413811,0.002579702,0.9789008,-0.008254086,-0.01900401,0.20328307,0.9789583,0.004473106,-0.004242113,0.20396751,1
3968000,0.002827629,-0.0054657515,0.0050818836,0.97890234,-0.008236083,-0.019081768,0.2032688,0.9789583,0.004473106,-0.004242113,0.20396751,1
3999999,0.0005851584,-0.0053437375,0.007404369,0.97890115,-0.008265075,-0.019140843,0.20326833,0.9789583,0.004473106,-0.004242113,0.20396751,1
4031999,0.0014818293,-0.006769995,-0.0014877236,0.97890455,-0.008250518,-0.01920219,0.20324673,0.9789583,0.004473106,-0.004242113,0.20396751,1
4063999,-0.005001973,-0.010157423,-0.0017320346,0.97891736,-0.008259028,-0.019265942,0.20317848,0.9789583,0.004473106,-0.004242113,0.20396751,1
4095999,-0.0012878256,-0.005479143,-0.0007764298,0.97892565,-0.008197129,-0.019323522,0.20313577,0.9789583,0.004473106,-0.004242113,0.20396751,1
4127999,0.004553812,-0.006958668,-0.0034382893,0.97893125,-0.008159201,-0.019381413,0.20310451,0.9789583,0.004473106,-0.004242113,0.20396751,1
4159999,0.007953324,-0.0031779187,-0.00014079118,0.9789403,-0.008125156,-0.019457761,0.20305498,0.9789583,0.004473106,-0.004242113,0.20396751,1
4192000,-0.0059682764,-9.42091e-07,-0.003166177,0.9789528,-0.008184866,-0.019484434,0.20298976,0.9789583,0.004473106,-0.004242113,0.20396751,1
4224000,-0.0051156697,-0.009520669,0.0023180025,0.97895145,-0.008206449,-0.019563504,0.20298739,0.9789583,0.004473106,-0.004242113,0.20396751,1
4256000,-0.0030902335,-0.003334299,-0.00071961567,0.9789526,-0.008219209,-0.019612616,0.20297733,0.9789583,0.004473106,-0.004242113,0.20396751,1
4288000,-0.00033843983,-0.0073539205,0.0040074205,0.9789587,-0.008207436,-0.019630522,0.20294632,0.9789583,0.004473106,-0.004242113,0.20396751,1
4320000,-0.002482762,-0.008521881,0.0025437728,0.978959,-0.008185007,-0.019632092,0.20294552,0.9789583,0.004473106,-0.004242113,0.20396751,1
4352000,-0.0067440434,-0.0074584545,0.00023759922,0.9789461,-0.008192374,-0.019687502,0.20300218,0.9789583,0.004473106,-0.004242113,0.20396751,1
4384000,0.00044256402,-0.013527329,0.007621726,0.97893095,-0.008185918,-0.01975146,0.20306948,0.9789583,0.004473106,-0.004242113,0.20396751,1
4416000,-0.0062701353,-0.0035076411,0.0056172623,0.9789299,-0.008202345,-0.019782292,0.20307061,0.9789583,0.004473106,-0.004242113,0.20396751,1
4448000,-0.002822995,-0.005905309,-0.0022017541,0.9789223,-0.008167007,-0.01985751,0.20310156,0.9789583,0.004473106,-0.004242113,0.20396751,1
4480000,0.0021775295,-0.0061715087,-0.012019229,0.978922,-0.008211463,-0.019872582,0.20309985,0.9789583,0.004473106,-0.004242113,0.20396751,1
4512000,-0.008043328,-0.0039199926,0.0039819996,0.9789225,-0.008238342,-0.019867912,0.20309678,0.9789583,0.004473106,-0.004242113,0.20396751,1
4544000,-0.00013691207,0.00071639114,0.0010822492,0.97891,-0.008240808,-0.019851878,0.20315784,0.9789583,0.004473106,-0.004242113,0.20396751,1
4576000,0.0024376886,-0.0045448625,-0.004629338,0.9789161,-0.008217513,-0.01984281,0.20313056,0.9789583,0.004473106,-0.004242113,0.20396751,1
4608000,0.0008955769,-0.009570122,-0.004585464,0.9789201,-0.0081387665,-0.019836888,0.20311509,0.9789583,0.004473106,-0.004242113,0.20396751,1
4640000,0.0061587696,0.002267742,0.0017528624,0.9789236,-0.008090833,-0.019820414,0.20310163,0.9789583,0.004473106,-0.004242113,0.20396751,1
4672000,0.007674488,-0.0046187737,-0.0009541242,0.9789229,-0.008021686,-0.019812208,0.20310839,0.9789583,0.004473106,-0.004242113,0.20396751,1
4704000,-0.002819445,-0.0059721903,-0.0010736422,0.978914,-0.008024965,-0.019825479,0.20315015,0.9789583,0.004473106,-0.004242113,0.20396751,1
4736000,-0.0074694753,-0.000653425,-0.0024655948,0.97891384,-0.007980817,-0.019832252,0.20315203,0.9789583,0.004473106,-0.004242113,0.20396751,1
4768000,0.0008097269,-0.0031140912,0.0043717846,0.9789095,-0.007981418,-0.019795937,0.20317647,0.9789583,0.004473106,-0.004242113,0.20396751,1
4800000,0.0016146848,0.0025444254,-0.0027518505,0.97890276,-0.007992722,-0.019765362,0.20321143,0.9789583,0.004473106,-0.004242113,0.20396751,1
4832000,0.0043955976,-0.005287515,-0.0035001056,0.97890806,-0.007950694,-0.019739287,0.20318997,0.9789583,0.004473106,-0.004242113,0.20396751,1
4864000,-0.005970431,-0.0033197063,-0.005301148,0.9789056,-0.007954675,-0.01968528,0.20320733,0.9789583,0.004473106,-0.004242113,0.20396751,1
4896000,-0.0058179786,-0.0059608677,-0.0023395591,0.97890705,-0.007888546,-0.019680416,0.20320316,0.9789583,0.004473106,-0.004242113,0.20396751,1
4928000,-0.005633154,-0.005226072,0.0007816922,0.9789033,-0.007909356,-0.019647429,0.20322354,0.9789583,0.004473106,-0.004242113,0.20396751,1
4960000,-0.0032847961,-0.0074643875,0.0006388379,0.9789028,-0.007916173,-0.01963617,0.20322683,0.9789583,0.004473106,-0.004242113,0.20396751,1
4996000,-0.0021297054,-0.0038197981,-0.0064403727,0.978889,-0.007911203,-0.019663615,0.20329104,0.9789583,0.004473106,-0.004242113,0.20396751,1
5024000,0.0016700167,-0.0051636593,-0.002726158,0.9788875,-0.007884453,-0.01967549,0.20329773,0.9789583,0.004473106,-0.004242113,0.20396751,1
5056000,0.00065492315,-0.0028613824,0.006227161,0.9788649,-0.007915749,-0.019659292,0.20340747,0.9789583,0.004473106,-0.004242113,0.20396751,1
5088000,-0.002272806,-0.0008000613,-0.0029891985,0.97886497,-0.007854751,-0.019667944,0.20340858,0.9789583,0.004473106,-0.004242113,0.20396751,1
5120000,-0.0008526442,-0.005974395,0.00065373053,0.9788672,-0.007815232,-0.019650351,0.20340064,0.9789583,0.004473106,-0.004242113,0.20396751,1
5152000,-0.0048533054,-0.012428677,0.003270294,0.9788429,-0.007815002,-0.019654235,0.20351726,0.9789583,0.004473106,-0.004242113,0.20396751,1
5184000,-0.002644486,-0.011078747,-0.0017919899,0.97883713,-0.007775425,-0.019651564,0.20354645,0.9789583,0.004473106,-0.004242113,0.20396751,1
5216000,0.0017534654,-0.0043915464,-0.0033330966,0.9788248,-0.007743755,-0.019636024,0.20360863,0.9789583,0.004473106,-0.004242113,0.20396751,1
5248000,-0.0048884093,-0.0037675542,0.0051447353,0.97881746,-0.0077348948,-0.019618511,0.20364611,0.9789583,0.004473106,-0.004242113,0.20396751,1
5280000,0.0012490577,-0.0068071345,-0.003882685,0.9788109,-0.0077676796,-0.019621015,0.20367613,0.9789583,0.004473106,-0.004242113,0.20396751,1
5312000,-0.0076687476,-0.00407389,0.0061168545,0.978804,-0.0077907466,-0.019571686,0.20371287,0.9789583,0.004473106,-0.004242113,0.20396751,1
5344000,0.0042151073,-0.0027525825,0.005476549,0.9788003,-0.0077382824,-0.01951925,0.20373785,0.9789583,0.004473106,-0.004242113,0.20396751,1
5376000,-0.0043355087,-0.007677934,0.0045585344,0.978798,-0.0077287895,-0.019469064,0.20375413,0.9789583,0.004473106,-0.004242113,0.20396751,1
5408000,0.0027755548,-0.0039376607,-0.0054145725,0.97879624,-0.00771611,-0.019468274,0.20376343,0.9789583,0.004473106,-0.004242113,0.20396751,1
5440000,-0.0075324667,-0.00046305172,-0.002428387,0.9788036,-0.007763031,-0.019435443,0.20372917,0.9789583,0.004473106,-0.004242113,0.20396751,1
5472000,-0.0024107571,5.647447e-05,0.0028147046,0.97879994,-0.0077862255,-0.019400282,0.20374906,0.9789583,0.004473106,-0.004242113,0.20396751,1
5504000,-0.0013194606,-0.002767834,-0.005252519,0.9788012,-0.0078032813,-0.019314587,0.20375066,0.9789583,0.004473106,-0.004242113,0.20396751,1
5536000,-0.0011725291,-0.0012091799,-0.0009864075,0.9787987,-0.007816825,-0.019319417,0.20376217,0.9789583,0.004473106,-0.004242113,0.20396751,1
5568000,-0.0034338175,-0.0049427673,-0.0035193595,0.9787943,-0.007819189,-0.019298868,0.20378484,0.9789583,0.004473106,-0.004242113,0.20396751,1
5600000,-0.00069603353,-0.0021332284,-0.002470068,0.9787799,-0.007829755,-0.019294495,0.203854,0.9789583,0.004473106,-0.004242113,0.20396751,1
5632000,0.00061002374,-0.005993086,-0.0041215867,0.97878,-0.0078076264,-0.019286536,0.20385517,0.9789583,0.004473106,-0.004242113,0.20396751,1
5664000,-0.004781002,-0.0035309924,0.0025797486,0.97878104,-0.0077520083,-0.019302664,0.20385069,0.9789583,0.004473106,-0.004242113,0.20396751,1
5696000,0.0009893918,0.002301713,-0.0024597468,0.978776,-0.0077305622,-0.01923482,0.20388219,0.9789583,0.004473106,-0.004242113,0.20396751,1
5728000,0.004803272,-1.0919757e-07,-0.0008833179,0.9787728,-0.00770743,-0.019175872,0.20390391,0.9789583,0.004473106,-0.004242113,0.20396751,1
5760000,-0.008696022,-0.0059501347,8.993214e-05,0.9787674,-0.007776351,-0.019170247,0.20392768,0.9789583,0.004473106,-0.004242113,0.20396751,1
5792000,0.0012525981,-0.00074452185,0.00083037163,0.97876006,-0.0077712736,-0.019119762,0.20396768,0.9789583,0.004473106,-0.004242113,0.20396751,1
5824000,0.0018675638,-0.011597244,0.0047332197,0.9787558,-0.0077488185,-0.019120317,0.20398912,0.9789583,0.004473106,-0.004242113,0.20396751,1
5856000,-0.0006625059,-0.00020656385,0.00052951975,0.97874844,-0.007707674,-0.019056955,0.2040316,0.9789583,0.004473106,-0.004242113,0.20396751,1
5888000,-0.0026987384,-0.00955853,-0.0039783316,0.9787596,-0.007722611,-0.01906745,0.20397718,0.9789583,0.004473106,-0.004242113,0.20396751,1
5920000,0.00019113807,0.007770195,0.0021623182,0.9787656,-0.007697116,-0.018991703,0.20395613,0.9789583,0.004473106,-0.004242113,0.20396751,1
5956000,0.004487219,-0.005742522,-0.00340549,0.978781,-0.007696169,-0.01893459,0.2038875,0.9789583,0.004473106,-0.004242113,0.20396751,1
5984000,-0.0007515089,-0.0028952723,-0.005237663,0.9787809,-0.0076999418,-0.01888956,0.20389174,0.9789583,0.004473106,-0.004242113,0.20396751,1
6016000,-0.000714284,-0.00028910395,0.0023446693,0.9787801,-0.0076587093,-0.018885277,0.203898,0.9789583,0.004473106,-0.004242113,0.20396751,1
6048000,0.0065267696,-0.0034695375,0.0002614858,0.9787841,-0.007601715,-0.018813826,0.2038875,0.9789583,0.004473106,-0.004242113,0.20396751,1
6080000,-0.00015875546,0.0010588248,-0.0019904743,0.9787747,-0.0075381524,-0.018816983,0.20393433,0.9789583,0.004473106,-0.004242113,0.20396751,1
6112000,0.0038179413,-0.0038735145,0.0009375585,0.9787679,-0.0075302604,-0.018794933,0.20396988,0.9789583,0.004473106,-0.004242113,0.20396751,1
6144000,-0.0033747486,0.0035958851,0.0033932708,0.9787683,-0.0075202514,-0.018772893,0.20397012,0.9789583,0.004473106,-0.004242113,0.20396751,1
6176000,-0.00018552516,0.0034279092,6.747289e-05,0.97876316,-0.007500857,-0.018699475,0.20400226,0.9789583,0.004473106,-0.004242113,0.20396751,1
6208000,0.0029259734,-0.001969939,-0.0022520276,0.97876847,-0.0074650575,-0.018704725,0.20397751,0.9789583,0.004473106,-0.004242113,0.20396751,1
6240000,-0.002356827,-0.001878482,-0.0041486146,0.9787761,-0.007435615,-0.018629948,0.20394884,0.9789583,0.004473106,-0.004242113,0.20396751,1
6272000,-0.001997499,-0.00701862,-0.0056790626,0.97876257,-0.0074615544,-0.018543618,0.20402084,0.9789583,0.004473106,-0.004242113,0.20396751,1
6304000,0.0039562657,-0.0046530273,-0.0028082062,0.9787707,-0.0074352,-0.0184984,0.20398702,0.9789583,0.004473106,-0.004242113,0.20396751,1
6336000,-0.0031499448,-0.0006446843,0.00071418635,0.97877455,-0.007391485,-0.01843862,0.20397483,0.9789583,0.004473106,-0.004242113,0.20396751,1
6368000,0.0022721915,0.0013003333,-0.0044302195,0.97877115,-0.0073120766,-0.018348081,0.20400223,0.9789583,0.004473106,-0.004242113,0.20396751,1
6400000,0.0047484147,-0.00087662344,-0.007159277,0.97876817,-0.0072899475,-0.018261995,0.2040251,0.9789583,0.004473106,-0.004242113,0.20396751,1
6432000,-0.00012308534,-0.0007214907,0.0028570483,0.9787539,-0.0072455173,-0.018227652,0.20409806,0.9789583,0.004473106,-0.004242113,0.20396751,1
6464000,0.0046556136,9.413343e-06,0.0019332875,0.97875726,-0.007180598,-0.018170541,0.20408937,0.9789583,0.004473106,-0.004242113,0.20396751,1
6496000,0.00010158087,-0.008156024,-0.005058167,0.9787552,-0.007181336,-0.018116435,0.20410447,0.9789583,0.004473106,-0.004242113,0.20396751,1
6528000,0.006921187,0.0028848597,0.00034973852,0.9787522,-0.007094928,-0.018061502,0.2041266,0.9789583,0.004473106,-0.004242113,0.20396751,1
6560000,0.0003455663,-0.0005462738,0.0067530293,0.9787536,-0.007085068,-0.017988551,0.20412652,0.9789583,0.004473106,-0.004242113,0.20396751,1
6592000,0.005510303,-0.0007395698,-0.000704992,0.9787429,-0.0070484076,-0.017902577,0.20418653,0.9789583,0.004473106,-0.004242113,0.20396751,1
6624000,0.0007878607,0.0022976622,0.0021214623,0.978749,-0.0070348517,-0.017845346,0.20416315,0.9789583,0.004473106,-0.004242113,0.20396751,1
6656000,-0.0032635657,0.0011048948,0.0037697598,0.97875106,-0.0069955587,-0.017769918,0.204161,0.9789583,0.004473106,-0.004242113,0.20396751,1
6688000,-0.004300024,-0.005529532,-0.0032623839,0.9787411,-0.00696091,-0.017721111,0.20421422,0.9789583,0.004473106,-0.004242113,0.20396751,1
6720000,-0.002879443,-0.009997781,0.0024433827,0.9787347,-0.006977734,-0.01771898,0.20424494,0.9789583,0.004473106,-0.004242113,0.20396751,1
6752000,-0.0026538083,-0.0028829926,-0.00443394,0.9787356,-0.006972592,-0.017658347,0.20424531,0.9789583,0.004473106,-0.004242113,0.20396751,1
6784000,-0.0038640914,-0.0058243126,-0.009580927,0.9787421,-0.006973558,-0.01757914,0.20422111,0.9789583,0.004473106,-0.004242113,0.20396751,1
6816000,0.0012031968,-0.007218778,0.0025921052,0.9787417,-0.00692155,-0.0175264,0.20422938,0.9789583,0.004473106,-0.004242113,0.20396751,1
6852000,-0.0078256,-0.002238919,0.0011489284,0.9787436,-0.006941768,-0.0174521,0.2042261,0.9789583,0.004473106,-0.004242113,0.20396751,1
6880000,-0.0070825857,-0.0020184047,0.0005848011,0.9787507,-0.006981893,-0.017399639,0.20419481,0.9789583,0.004473106,-0.004242113,0.20396751,1
6912000,-0.0022360748,0.0033719074,-0.0077207335,0.97876626,-0.006951627,-0.017310472,0.20412897,0.9789583,0.004473106,-0.004242113,0.20396751,1
6944000,0.0008740324,-0.002961859,-0.005307922,0.9787779,-0.0069067585,-0.017219258,0.20408292,0.9789583,0.004473106,-0.004242113,0.20396751,1
6976000,-0.0013816273,0.004744441,0.009537055,0.9787703,-0.0069346214,-0.01715653,0.2041235,0.9789583,0.004473106,-0.004242113,0.20396751,1
7012000,-0.0037047411,-0.0051965234,0.0019516486,0.97877705,-0.006927696,-0.017046982,0.20410007,0.9789583,0.004473106,-0.004242113,0.20396751,1
7044000,0.010882987,-0.0034696176,-0.0036448122,0.97878635,-0.006890231,-0.016981637,0.20406239,0.9789583,0.004473106,-0.004242113,0.20396751,1
7072000,0.0028879768,-0.0025749258,-0.000409997,0.97878784,-0.006809495,-0.016931966,0.20406245,0.9789583,0.004473106,-0.004242113,0.20396751,1
7104000,0.0023644315,0.0048350315,0.007789884,0.9787833,-0.0067807515,-0.016804133,0.20409521,0.9789583,0.004473106,-0.004242113,0.20396751,1
7136000,0.0043215225,-0.008474392,0.0020205139,0.9787765,-0.0067413286,-0.016752081,0.20413335,0.9789583,0.004473106,-0.004242113,0.20396751,1
7168000,-0.00014567818,-0.001453219,0.0026694438,0.97877294,-0.006773874,-0.016717633,0.20415218,0.9789583,0.004473106,-0.004242113,0.20396751,1
7204000,-0.003395951,-0.00406359,0.0036536453,0.97876906,-0.0067920415,-0.016687606,0.20417307,0.9789583,0.004473106,-0.004242113,0.20396751,1
7232000,0.0010149229,0.0046862527,-0.005682994,0.9787665,-0.006802484,-0.01667066,0.20418645,0.9789583,0.004473106,-0.004242113,0.20396751,1
7264000,0.004150439,-0.0063945893,-0.0009996691,0.97877216,-0.0067469086,-0.0166623,0.20416184,0.9789583,0.004473106,-0.004242113,0.20396751,1
7296000,-0.0054566353,-0.0022052722,0.0006302506,0.97877145,-0.006807436,-0.016631765,0.20416532,0.9789583,0.004473106,-0.004242113,0.20396751,1
7328000,-0.00045575586,0.0019843138,-0.005382792,0.9787872,-0.006853433,-0.016530506,0.20409675,0.9789583,0.004473106,-0.004242113,0.20396751,1
7360000,-3.7912745e-05,0.0047536506,0.0054708985,0.97879285,-0.0068262466,-0.016445797,0.20407714,0.9789583,0.004473106,-0.004242113,0.20396751,1
7396000,0.001627,-0.00082245655,0.004287854,0.97880954,-0.006824986,-0.016376322,0.20400283,0.9789583,0.004473106,-0.004242113,0.20396751,1
7424000,-0.005694552,0.0008092993,-0.0014137349,0.97881126,-0.0068700775,-0.016344309,0.203996,0.9789583,0.004473106,-0.004242113,0.20396751,1
7456000,0.00096984906,-0.00056201033,0.0059583215,0.9788102,-0.0068536173,-0.016232325,0.2040101,0.9789583,0.004473106,-0.004242113,0.20396751,1
7488000,-0.0032430463,-0.0012823935,0.00081110053,0.9788076,-0.0069008637,-0.016142303,0.20402844,0.9789583,0.004473106,-0.004242113,0.20396751,1
7520000,0.0007504327,-7.79843e-06,0.0014125614,0.9787941,-0.0069139735,-0.016132496,0.2040934,0.9789583,0.004473106,-0.004242113,0.20396751,1
7552000,0.0022893678,0.0033836598,-0.0007357732,0.9787893,-0.0069192653,-0.016033541,0.20412363,0.9789583,0.004473106,-0.004242113,0.20396751,1
7584000,-0.0020621775,-0.0026921341,-0.0051498087,0.9787857,-0.006925488,-0.016008748,0.20414318,0.9789583,0.004473106,-0.004242113,0.20396751,1
7616000,-0.0036137842,0.0056617097,0.006309272,0.9787827,-0.00689187,-0.015871273,0.2041688,0.9789583,0.004473106,-0.004242113,0.20396751,1
7648000,-0.0015177086,0.0015648797,-0.004868249,0.9787774,-0.006876827,-0.015803581,0.20420061,0.9789583,0.004473106,-0.004242113,0.20396751,1
7680000,9.5204334e-05,-0.0018640487,-0.002162896,0.978767,-0.0068790903,-0.015742019,0.20425504,0.9789583,0.004473106,-0.004242113,0.20396751,1
7712000,0.00019638264,-0.0014620153,-0.008992725,0.9787791,-0.0068795057,-0.015689148,0.20420143,0.9789583,0.004473106,-0.004242113,0.20396751,1
7748000,0.003085394,-0.0010972442,0.005169077,0.9787774,-0.0068607978,-0.015630461,0.20421405,0.9789583,0.004473106,-0.004242113,0.20396751,1
7776000,-0.00064034166,0.0059478795,-0.00027522,0.9787702,-0.0069027273,-0.015579426,0.20425121,0.9789583,0.004473106,-0.004242113,0.20396751,1
7812000,-0.0010980929,-6.255647e-05,-0.0008326926,0.97877216,-0.0069258157,-0.015512082,0.20424639,0.9789583,0.004473106,-0.004242113,0.20396751,1
7840000,3.5215635e-07,-0.0049987617,0.003580419,0.9787757,-0.0069364607,-0.015443416,0.20423426,0.9789583,0.004473106,-0.004242113,0.20396751,1
7876000,0.0018113174,-0.005629377,-0.00062974414,0.9787786,-0.0069491505,-0.015340466,0.20422791,0.9789583,0.004473106,-0.004242113,0.20396751,1
7904000,0.004478555,-0.0016466421,0.00055529526,0.97878605,-0.006941127,-0.0152784875,0.20419669,0.9789583,0.004473106,-0.004242113,0.20396751,1
7940000,0.00060397683,-0.0048780832,-0.0075343144,0.97879106,-0.00697218,-0.015181773,0.20417906,0.9789583,0.004473106,-0.004242113,0.20396751,1
7968000,-0.00024951482,-0.0043244585,-0.0045301323,0.9787931,-0.0069508115,-0.015159553,0.20417154,0.9789583,0.004473106,-0.004242113,0.20396751,1
8003999,-0.0006894375,-0.0011975621,0.0017451195,0.97878563,-0.006986889,-0.015044739,0.20421433,0.9789583,0.004473106,-0.004242113,0.20396751,1
8032000,-0.00034154777,0.002401304,0.0018602351,0.9787808,-0.0070071477,-0.014967842,0.2042426,0.9789583,0.004473106,-0.004242113,0.20396751,1
8064000,0.006582917,0.007890021,-0.0036773095,0.9787945,-0.007026857,-0.014891351,0.2041822,0.9789583,0.004473106,-0.004242113,0.20396751,1
8096000,0.005318313,-0.0016122628,0.0025854928,0.9787894,-0.0070604007,-0.0148605155,0.20420745,0.9789583,0.004473106,-0.004242113,0.20396751,1
8128000,0.0030930252,-0.0003878032,-5.6344434e-06,0.9787846,-0.007043541,-0.01475178,0.20423903,0.9789583,0.004473106,-0.004242113,0.20396751,1
8160000,0.0032869768,-0.0025488161,-0.0047022062,0.9787949,-0.006994565,-0.014653745,0.20419832,0.9789583,0.004473106,-0.004242113,0.20396751,1
8192000,0.003867115,-0.0020333058,-0.002935424,0.97879636,-0.006947383,-0.014591755,0.20419747,0.9789583,0.004473106,-0.004242113,0.20396751,1
8224000,-0.0076887016,0.0063327365,-0.0011662899,0.9788034,-0.006962488,-0.014558622,0.20416567,0.9789583,0.004473106,-0.004242113,0.20396751,1
8256000,0.0011857109,0.003819884,0.0007655311,0.9787924,-0.006954533,-0.014469289,0.2042248,0.9789583,0.004473106,-0.004242113,0.20396751,1
8288000,-0.0018957206,-0.0031286897,-0.0030633477,0.97878885,-0.0069838334,-0.014404384,0.20424531,0.9789583,0.004473106,-0.004242113,0.20396751,1
8323999,-0.005511516,-0.0057144184,0.00040830817,0.9787806,-0.006992712,-0.01431307,0.20429139,0.9789583,0.004473106,-0.004242113,0.20396751,1
8352000,0.0013172006,0.0016623491,-8.747232e-05,0.97877514,-0.006973135,-0.014243238,0.20432284,0.9789583,0.004473106,-0.004242113,0.20396751,1
8384000,0.00047863298,0.0010395176,0.0011551911,0.9787741,-0.0069637424,-0.014180921,0.20433246,0.9789583,0.004473106,-0.004242113,0.20396751,1
8416000,-0.00059429463,-0.002451391,0.003993953,0.9787662,-0.0069297715,-0.014124802,0.20437542,0.9789583,0.004473106,-0.004242113,0.20396751,1
8448000,0.0007060246,-0.005685662,-0.0020539577,0.9787628,-0.00695128,-0.014147515,0.2043892,0.9789583,0.004473106,-0.004242113,0.20396751,1
8480000,0.0051379,-0.0025103432,0.005544154,0.97876096,-0.006933568,-0.014125969,0.2044003,0.9789583,0.004473106,-0.004242113,0.20396751,1
8512000,-0.005005866,0.004079017,-0.0012343652,0.9787633,-0.0069655366,-0.01405485,0.20439298,0.9789583,0.004473106,-0.004242113,0.20396751,1
8544000,-0.0006167274,-0.0014430536,0.0021883235,0.9787509,-0.00697686,-0.014027494,0.20445393,0.9789583,0.004473106,-0.004242113,0.20396751,1
8576000,-0.00028185674,-0.000634579,0.0011813433,0.97875845,-0.006987056,-0.013966095,0.20442148,0.9789583,0.004473106,-0.004242113,0.20396751,1
8608000,0.0017982532,-0.0078169415,-0.0037326345,0.978757,-0.0070218346,-0.013916162,0.20443037,0.9789583,0.004473106,-0.004242113,0.20396751,1
8640000,0.005151745,0.000348452,-0.0009822052,0.9787601,-0.0070272265,-0.013891718,0.20441711,0.9789583,0.004473106,-0.004242113,0.20396751,1
8672000,-0.004260067,-0.006536085,-0.0020797846,0.97875947,-0.0070448057,-0.013817035,0.20442462,0.9789583,0.004473106,-0.004242113,0.20396751,1
8704000,-0.005612065,0.00015559094,0.0019434642,0.9787564,-0.0069974735,-0.013795082,0.20444228,0.9789583,0.004473106,-0.004242113,0.20396751,1
8736000,-0.0004894072,-0.0032507991,-0.0020999021,0.9787569,-0.0070432224,-0.0137821175,0.20443916,0.9789583,0.004473106,-0.004242113,0.20396751,1
8772000,0.0042060474,-0.00576049,0.0031023081,0.9787468,-0.007036823,-0.013738494,0.20449089,0.9789583,0.004473106,-0.004242113,0.20396751,1
8804000,-0.0056221117,0.006510608,-0.002152181,0.97874725,-0.0070596347,-0.013674209,0.2044919,0.9789583,0.004473106,-0.004242113,0.20396751,1
8832000,0.001397087,-0.004731861,0.0040447125,0.97874683,-0.007106619,-0.013632088,0.2044958,0.9789583,0.004473106,-0.004242113,0.20396751,1
8864000,-0.0034193657,-0.004120482,0.0015097068,0.9787504,-0.007121387,-0.013582862,0.2044811,0.9789583,0.004473106,-0.004242113,0.20396751,1
8896000,-0.0022305762,0.0013037845,1.8014776e-05,0.97874796,-0.007144195,-0.013525466,0.20449615,0.9789583,0.004473106,-0.004242113,0.20396751,1
8928000,0.00027281337,-0.0032849382,-0.0026966035,0.97875696,-0.0071622236,-0.013441678,0.20445788,0.9789583,0.004473106,-0.004242113,0.20396751,1
8964000,0.0037224828,-0.01077598,-0.0010393639,0.97875714,-0.0072042905,-0.01350372,0.20445086,0.9789583,0.004473106,-0.004242113,0.20396751,1
8996000,-0.00014624372,-0.00012489455,0.0028062598,0.9787654,-0.007196056,-0.013495203,0.20441236,0.9789583,0.004473106,-0.004242113,0.20396751,1
9024000,0.003209918,0.0015372867,-0.008074759,0.97878414,-0.007222295,-0.013443213,0.20432495,0.9789583,0.004473106,-0.004242113,0.20396751,1
9056000,0.002523791,0.00032562762,-0.0006551929,0.9787759,-0.0072029806,-0.0134208305,0.20436674,0.9789583,0.004473106,-0.004242113,0.20396751,1
9088000,0.003921336,0.0015710276,0.0025934675,0.97877896,-0.0071494337,-0.013413581,0.20435469,0.9789583,0.004473106,-0.004242113,0.20396751,1
9124000,-0.0014900924,0.0023011807,-0.0025612316,0.9787742,-0.007182869,-0.013377062,0.20437829,0.9789583,0.004473106,-0.004242113,0.20396751,1
9152000,0.00083819113,-0.00324897,0.0035791756,0.9787823,-0.0071944743,-0.013385026,0.2043387,0.9789583,0.004473106,-0.004242113,0.20396751,1
9184000,0.0057695303,-0.0023682127,0.0034423464,0.9787804,-0.0072092013,-0.013418261,0.20434505,0.9789583,0.004473106,-0.004242113,0.20396751,1
9216000,0.000901003,0.0059908843,0.0076452363,0.9787683,-0.0072332523,-0.013329522,0.20440839,0.9789583,0.004473106,-0.004242113,0.20396751,1
9248000,-0.0016091468,0.0028536876,0.0022056433,0.9787661,-0.0072620525,-0.013247808,0.20442307,0.9789583,0.004473106,-0.004242113,0.20396751,1
9280000,0.006268509,0.0019068767,-0.001156636,0.97877616,-0.007249316,-0.013237315,0.20437603,0.9789583,0.004473106,-0.004242113,0.20396751,1
9312000,0.0025769393,-0.0029459586,-0.0033289113,0.9787813,-0.0072436403,-0.013204281,0.20435363,0.9789583,0.004473106,-0.004242113,0.20396751,1
9344000,0.0096614715,0.0038581272,-0.00083285675,0.978787,-0.007238594,-0.013144147,0.2043302,0.9789583,0.004473106,-0.004242113,0.20396751,1
9376000,0.005334849,-0.0010455828,-0.0027005665,0.978794,-0.0072007203,-0.013123762,0.20429996,0.9789583,0.004473106,-0.004242113,0.20396751,1
9408000,0.0006342788,-0.004032779,0.0029175486,0.9787849,-0.007184092,-0.013129848,0.2043435,0.9789583,0.004473106,-0.004242113,0.20396751,1
9440000,9.72891e-05,0.003940328,0.0059567234,0.97879213,-0.007226515,-0.013049319,0.2043122,0.9789583,0.004473106,-0.004242113,0.20396751,1
9472000,-0.0066687134,0.007642621,-0.0013610632,0.97878945,-0.007297473,-0.012994452,0.2043262,0.9789583,0.004473106,-0.004242113,0.20396751,1
9504000,0.0023071868,0.003942809,-5.285663e-06,0.97880125,-0.007347174,-0.012931564,0.20427214,0.9789583,0.004473106,-0.004242113,0.20396751,1
9536000,2.4755136e-05,-0.0005113925,0.0011778569,0.978797,-0.007365978,-0.012883982,0.20429447,0.9789583,0.004473106,-0.004242113,0.20396751,1
9568000,0.004771753,0.0027685026,-0.008329818,0.97881335,-0.0073532797,-0.012875622,0.20421684,0.9789583,0.004473106,-0.004242113,0.20396751,1
9600000,-0.00028843898,-0.0027083964,0.003191106,0.9788142,-0.0073780837,-0.01289069,0.20421137,0.9789583,0.004473106,-0.004242113,0.20396751,1
9632000,-0.0029827813,-0.0009895847,0.0019940487,0.9788191,-0.007418093,-0.0128417425,0.20418954,0.9789583,0.004473106,-0.004242113,0.20396751,1
9664000,0.0051072882,-0.0007670317,0.004016456,0.97881114,-0.0074172835,-0.012821819,0.2042288,0.9789583,0.004473106,-0.004242113,0.20396751,1
9696000,0.0031361545,0.0021944812,-0.0074019395,0.9788159,-0.007410133,-0.0127845025,0.2042083,0.9789583,0.004473106,-0.004242113,0.20396751,1
9728000,0.00954545,-0.0032448904,-0.0034246077,0.97882265,-0.0073807733,-0.0127501525,0.20417939,0.9789583,0.004473106,-0.004242113,0.20396751,1
9760000,-0.0018139571,-0.01244767,-0.0020354218,0.9788111,-0.0073849484,-0.012781049,0.2042326,0.9789583,0.004473106,-0.004242113,0.20396751,1
9792000,-0.00173381,-0.0034302864,0.0021998608,0.97881204,-0.0073835365,-0.012747073,0.20423053,0.9789583,0.004473106,-0.004242113,0.20396751,1
9824000,-0.0027985596,-0.001482503,-0.0055998173,0.97881424,-0.007402217,-0.0127726225,0.20421775,0.9789583,0.004473106,-0.004242113,0.20396751,1
9856000,0.0021639527,-0.002997423,9.1891765e-05,0.9788214,-0.0074006016,-0.012767873,0.20418389,0.9789583,0.004473106,-0.004242113,0.20396751,1
9888000,0.001776508,-0.00052268524,0.0023773934,0.9788301,-0.007427523,-0.0127679715,0.20414078,0.9789583,0.004473106,-0.004242113,0.20396751,1
9920000,-0.0007891357,0.00017037708,-0.0028779851,0.9788396,-0.0074473177,-0.012766351,0.20409468,0.9789583,0.004473106,-0.004242113,0.20396751,1
9952000,-0.0056031607,-0.009064028,0.00037859008,0.97885114,-0.007489532,-0.012773917,0.20403738,0.9789583,0.004473106,-0.004242113,0.20396751,1
9984000,-0.00046948704,0.0042756386,-0.00016856108,0.9788529,-0.007545281,-0.012771098,0.20402654,0.9789583,0.004473106,-0.004242113,0.20396751,1
10020000,-0.0015761274,-0.0024267728,-0.0024950285,0.9788591,-0.007574809,-0.012720016,0.20399936,0.9789583,0.004473106,-0.004242113,0.20396751,1
10048000,-0.0017846763,-0.0023742127,-0.0027126768,0.97886676,-0.0076010004,-0.012715882,0.20396183,0.9789583,0.004473106,-0.004242113,0.20396751,1
10080000,0.0067529418,0.0013516103,0.0032097294,0.9788801,-0.007566357,-0.012681419,0.20390157,0.9789583,0.004473106,-0.004242113,0.20396751,1
10112000,0.0035917712,0.005226563,-0.0010814152,0.97889316,-0.007643953,-0.0125892395,0.20384134,0.9789583,0.004473106,-0.004242113,0.20396751,1
10144000,-0.0053347005,-0.004896155,-0.0010720548,0.97890294,-0.007688128,-0.012553343,0.20379514,0.9789583,0.004473106,-0.004242113,0.20396751,1
10176000,-0.00062567205,-0.0048021902,0.002432877,0.97890425,-0.00771196,-0.012573298,0.2037867,0.9789583,0.004473106,-0.004242113,0.20396751,1
10208000,0.0012434376,0.0009504012,-0.0042422777,0.978912,-0.00775478,-0.012558088,0.20374854,0.9789583,0.004473106,-0.004242113,0.20396751,1
10240000,0.00043704634,0.0073706447,-0.00018481589,0.9789152,-0.0077810194,-0.012495608,0.20373599,0.9789583,0.004473106,-0.004242113,0.20396751,1
10272000,0.006124234,-0.0031829756,-0.0070255212,0.9789156,-0.0077530784,-0.012492832,0.20373566,0.9789583,0.004473106,-0.004242113,0.20396751,1
10308000,-0.008100386,-0.002626771,0.0024227,0.9789156,-0.007784909,-0.012449301,0.20373747,0.9789583,0.004473106,-0.004242113,0.20396751,1
10336000,-0.0046598846,-7.6600816e-05,0.0047395695,0.9789248,-0.007805257,-0.012474032,0.20369051,0.9789583,0.004473106,-0.004242113,0.20396751,1
10368000,-0.0006443565,-0.0036458983,0.0022190951,0.97893435,-0.0078438865,-0.012465643,0.20364372,0.9789583,0.004473106,-0.004242113,0.20396751,1
10400000,0.0012624792,-0.0025156369,0.008083149,0.9789398,-0.007820158,-0.012490465,0.20361716,0.9789583,0.004473106,-0.004242113,0.20396751,1
10432000,0.001975346,-0.0016630497,0.0023128397,0.9789483,-0.0077861906,-0.012502353,0.20357634,0.9789583,0.004473106,-0.004242113,0.20396751,1
10468000,-0.0046497826,-0.004111342,-0.006050628,0.9789651,-0.007821974,-0.012496121,0.2034944,0.9789583,0.004473106,-0.004242113,0.20396751,1
10496000,0.0030644047,0.0064071063,-0.0021202087,0.97897625,-0.007863433,-0.01247423,0.2034406,0.9789583,0.004473106,-0.004242113,0.20396751,1
10528000,0.0019057204,0.00461403,-0.0005129189,0.9789997,-0.007832577,-0.012389155,0.20333461,0.9789583,0.004473106,-0.004242113,0.20396751,1
10560000,0.0056571015,0.0006030919,0.0071917926,0.9790033,-0.007803913,-0.012342059,0.20332097,0.9789583,0.004473106,-0.004242113,0.20396751,1
10592000,4.1056774e-05,-0.0022718962,0.00612672,0.9790077,-0.007840331,-0.012293227,0.20330116,0.9789583,0.004473106,-0.004242113,0.20396751,1
10624000,-0.0002398378,0.0019071414,0.0018211479,0.97901833,-0.007832757,-0.012277689,0.20325111,0.9789583,0.004473106,-0.004242113,0.20396751,1
10656000,-0.00020943524,-0.0013973056,0.0032806674,0.9790268,-0.0077964375,-0.012294284,0.2032111,0.9789583,0.004473106,-0.004242113,0.20396751,1
10688000,0.0029037585,0.00419269,-0.008892637,0.9790471,-0.0078102937,-0.012292281,0.20311259,0.9789583,0.004473106,-0.004242113,0.20396751,1
10720000,-0.002860192,0.0005422975,0.0069045676,0.9790562,-0.007835687,-0.012290203,0.20306802,0.9789583,0.004473106,-0.004242113,0.20396751,1
10752000,-0.0043619345,0.001262513,-0.0028154596,0.979072,-0.007890791,-0.012299591,0.2029889,0.9789583,0.004473106,-0.004242113,0.20396751,1
10784000,-0.0008064193,-0.0067846007,-0.0025038233,0.97909397,-0.0078640785,-0.0123364,0.20288193,0.9789583,0.004473106,-0.004242113,0.20396751,1
10816000,0.0014248826,0.01109738,-0.0013804998,0.9791073,-0.007861705,-0.01230891,0.2028195,0.9789583,0.004473106,-0.004242113,0.20396751,1
10848000,-0.0043416787,-0.0015186276,-0.001902062,0.979121,-0.007889499,-0.01228468,0.20275328,0.9789583,0.004473106,-0.004242113,0.20396751,1
10880000,-0.003964404,0.00018423749,0.004726784,0.9791213,-0.007969028,-0.012300266,0.20274803,0.9789583,0.004473106,-0.004242113,0.20396751,1
10912000,-0.003726705,-0.0026386925,-0.0111634405,0.9791334,-0.008022636,-0.012339582,0.20268488,0.9789583,0.004473106,-0.004242113,0.20396751,1
10944000,0.0020147269,0.0015278417,-0.001175109,0.9791429,-0.007993554,-0.01232744,0.20264082,0.9789583,0.004473106,-0.004242113,0.20396751,1
10976000,0.0023348178,0.0100956205,-0.003258282,0.9791549,-0.008025976,-0.012283391,0.20258452,0.9789583,0.004473106,-0.004242113,0.20396751,1
11008000,0.002943988,0.0018422375,-0.0027434924,0.9791734,-0.008071769,-0.012239622,0.20249575,0.9789583,0.004473106,-0.004242113,0.20396751,1
11040000,-0.0021081767,0.0021697057,-0.0024054472,0.9791867,-0.008083275,-0.012220248,0.20243189,0.9789583,0.004473106,-0.004242113,0.20396751,1
11072000,0.005251447,0.008510273,0.0036278784,0.97918636,-0.008115749,-0.012164836,0.20243576,0.9789583,0.004473106,-0.004242113,0.20396751,1
11104000,0.0005657952,0.008378268,0.0040193466,0.9791829,-0.008102968,-0.012125804,0.20245576,0.9789583,0.004473106,-0.004242113,0.20396751,1
11136000,-0.0003457585,0.0027746467,-0.0001261926,0.97918344,-0.008148585,-0.012099714,0.2024527,0.9789583,0.004473106,-0.004242113,0.20396751,1
11168000,-0.0050427094,0.002833816,-0.0055298912,0.97919273,-0.00814908,-0.01209873,0.20240797,0.9789583,0.004473106,-0.004242113,0.20396751,1
11200000,-0.0015020949,-0.0060657593,-0.0031230191,0.97919106,-0.008137461,-0.012132793,0.2024141,0.9789583,0.004473106,-0.004242113,0.20396751,1
11232000,0.0012763416,0.0027927957,0.0035610704,0.9791849,-0.008161967,-0.0121437255,0.20244245,0.9789583,0.004473106,-0.004242113,0.20396751,1
11268000,-0.0008505578,0.0018889788,-0.0059971204,0.9791856,-0.008197687,-0.012171421,0.20243616,0.9789583,0.004473106,-0.004242113,0.20396751,1
11296000,-0.00043455116,-0.0018250039,0.0018386468,0.9791853,-0.008221142,-0.012148345,0.20243809,0.9789583,0.004473106,-0.004242113,0.20396751,1
11328000,-0.0051736115,0.0020018397,-0.002779138,0.98008776,-0.00835146,-0.012063361,0.19802208,0.99999,-9.054784e-05,9.388756e-05,-0.004472673,2
11360000,0.0052378513,0.0009847065,0.0052922103,0.9800954,-0.008365539,-0.012061003,0.1979842,0.99999,-9.054784e-05,9.388756e-05,-0.004472673,2
11392000,0.0005003521,-0.0023391903,0.0033976703,0.9800866,-0.008333874,-0.012072727,0.19802818,0.99999,-9.054784e-05,9.388756e-05,-0.004472673,2
11424000,-0.005264427,-0.0012001866,-0.0033539778,0.98006916,-0.008328072,-0.012039627,0.19811666,0.99999,-9.054784e-05,9.388756e-05,-0.004472673,2
11456000,-0.0024499586,0.0004767552,0.0018579401,0.9800426,-0.008324707,-0.012040458,0.1982485,0.99999,-9.054784e-05,9.388756e-05,-0.004472673,2
11488000,8.268427e-05,0.0015589218,-0.0017171729,0.98001915,-0.008345844,-0.012033155,0.19836368,0.99999,-9.054784e-05,9.388756e-05,-0.004472673,2
11520000,0.0015486319,0.0012887376,-0.0006059136,0.97997254,-0.008386349,-0.012044727,0.19859138,0.99999,-9.054784e-05,9.388756e-05,-0.004472673,2
11552000,-0.0059332494,-0.0053242208,-0.0014761491,0.97993,-0.008422933,-0.0120499525,0.19879924,0.99999,-9.054784e-05,9.388756e-05,-0.004472673,2
11584000,0.004206232,0.0035492803,-0.0030677821,0.9798864,-0.008362853,-0.011980949,0.19902052,0.99999,-9.054784e-05,9.388756e-05,-0.004472673,2
11620000,-0.0009771048,0.000155902,0.0041538044,0.9798195,-0.008400518,-0.011938031,0.19935101,0.99999,-9.054784e-05,9.388756e-05,-0.004472673,2
11648000,0.0027587356,0.0023863632,-0.0009276756,0.979762,-0.008404701,-0.011965069,0.1996311,0.99999,-9.054784e-05,9.388756e-05,-0.004472673,2
11684000,0.0029645786,0.002011375,-0.0025860027,0.97969943,-0.008372163,-0.011918729,0.19994259,0.99999,-9.054784e-05,9.388756e-05,-0.004472673,2
11712000,-0.0054836725,-0.006726294,-0.0035807397,0.97965115,-0.008373891,-0.011945567,0.20017678,0.99999,-9.054784e-05,9.388756e-05,-0.004472673,2
11744000,0.008024206,0.0009083566,-0.0075718663,0.97960216,-0.008337578,-0.011943376,0.20041874,0.99999,-9.054784e-05,9.388756e-05,-0.004472673,2
11776000,0.0022261483,0.001318357,-0.0018972513,0.9795713,-0.00829158,-0.011942808,0.2005714,0.99999,-9.054784e-05,9.388756e-05,-0.004472673,2
11808000,0.00025088264,0.0033432806,0.0033727048,0.9795343,-0.008314435,-0.011877311,0.20075472,0.99999,-9.054784e-05,9.388756e-05,-0.004472673,2
11840000,0.0013668996,-0.004622894,0.004819948,0.97950524,-0.008278974,-0.011887209,0.20089737,0.99999,-9.054784e-05,9.388756e-05,-0.004472673,2
11876000,0.00014144817,-0.0035991902,0.0013002016,0.9794745,-0.0082500875,-0.011883603,0.20104876,0.99999,-9.054784e-05,9.388756e-05,-0.004472673,2
11908000,0.0009648875,0.006711073,-0.004988502,0.97945,-0.0082379235,-0.011873295,0.2011692,0.99999,-9.054784e-05,9.388756e-05,-0.004472673,2
11940000,1.7393613e-05,-0.0038068467,-0.0015073352,0.97943884,-0.008246365,-0.0119013,0.20122081,0.99999,-9.054784e-05,9.388756e-05,-0.004472673,2
11968000,0.00399404,-0.0033008717,0.0050674463,0.9794311,-0.008198607,-0.011924133,0.20125948,0.99999,-9.054784e-05,9.388756e-05,-0.004472673,2
12004000,-0.002969074,-0.0031603249,0.0007399062,0.9794291,-0.0082197385,-0.011953556,0.20126636,0.99999,-9.054784e-05,9.388756e-05,-0.004472673,2
12032000,0.002730242,-0.0032833954,-0.0002450486,0.9794336,-0.0081809955,-0.012016168,0.20124288,0.99999,-9.054784e-05,9.388756e-05,-0.004472673,2
12064000,-0.0044293525,-0.0033075842,0.006809122,0.9794334,-0.00818649,-0.012032567,0.20124249,0.99999,-9.054784e-05,9.388756e-05,-0.004472673,2
12096000,0.0009401478,0.0055787354,-0.0017081251,0.9794448,-0.008189414,-0.012080942,0.20118369,0.99999,-9.054784e-05,9.388756e-05,-0.004472673,2
12128000,0.00622933,0.01022708,0.003156491,0.9794539,-0.008165564,-0.0120705515,0.20114106,0.99999,-9.054784e-05,9.388756e-05,-0.004472673,2
12160000,0.0041856687,0.0017832308,-0.00028830976,0.9794592,-0.008185529,-0.012129187,0.20111068,0.99999,-9.054784e-05,9.388756e-05,-0.004472673,2
12196000,-0.00072914804,-0.00029103924,-0.0017834037,0.9794582,-0.008156496,-0.012129726,0.20111722,0.99999,-9.054784e-05,9.388756e-05,-0.004472673,2
12224000,0.0059821266,0.006549906,-0.0023104472,0.97947794,-0.00815228,-0.012130553,0.20102073,0.99999,-9.054784e-05,9.388756e-05,-0.004472673,2
12256000,0.0011931958,-0.0077324547,-0.005562544,0.9794905,-0.008151273,-0.012188445,0.20095623,0.99999,-9.054784e-05,9.388756e-05,-0.004472673,2
12288000,-0.007857326,-0.004423597,-0.00064979034,0.9794873,-0.008177935,-0.012251994,0.20096695,0.99999,-9.054784e-05,9.388756e-05,-0.004472673,2
12320000,-0.005078916,0.0034735142,0.0058485377,0.97948927,-0.00825464,-0.012206924,0.20095702,0.99999,-9.054784e-05,9.388756e-05,-0.004472673,2
12352000,-0.0012687547,0.0017194878,-7.88062e-05,0.9794987,-0.008256777,-0.012193521,0.20091149,0.99999,-9.054784e-05,9.388756e-05,-0.004472673,2
12384000,-0.0018202305,-0.0027789748,-0.0010255816,0.9795093,-0.008304278,-0.012208626,0.20085724,0.99999,-9.054784e-05,9.388756e-05,-0.004472673,2
12416000,0.0030039097,0.007568337,-0.0058648963,0.97953343,-0.008265698,-0.012192702,0.20074157,0.99999,-9.054784e-05,9.388756e-05,-0.004472673,2
12448000,0.00031247514,-0.0013446333,-0.00371021,0.97955436,-0.008261314,-0.012182059,0.20064104,0.99999,-9.054784e-05,9.388756e-05,-0.004472673,2
12480000,0.00031002582,0.0011261725,-0.0019011647,0.97955877,-0.008286286,-0.012193518,0.20061737,0.99999,-9.054784e-05,9.388756e-05,-0.004472673,2
12512000,-0.00031358842,-0.0050943685,-0.007002473,0.9795648,-0.008303321,-0.012257373,0.20058316,0.99999,-9.054784e-05,9.388756e-05,-0.004472673,2
12544000,-0.0042606597,0.0029382643,-0.0010416667,0.9795696,-0.008338054,-0.012237601,0.20055991,0.99999,-9.054784e-05,9.388756e-05,-0.004472673,2
12576000,0.0018046645,0.0018613948,-0.00079452584,0.979574,-0.008293157,-0.012277156,0.20053744,0.99999,-9.054784e-05,9.388756e-05,-0.004472673,2
12612000,0.0008417148,-0.000513047,-0.009558249,0.9795591,-0.008276596,-0.012285641,0.20061032,0.99999,-9.054784e-05,9.388756e-05,-0.004472673,2
12640000,0.002674302,-0.0017890898,-5.679118e-05,0.97956383,-0.008252062,-0.012258189,0.20059052,0.99999,-9.054784e-05,9.388756e-05,-0.004472673,2
12672000,0.004411349,-0.002353597,-0.0040948982,0.979557,-0.008212375,-0.012283863,0.20062384,0.99999,-9.054784e-05,9.388756e-05,-0.004472673,2
12704000,-0.0026029467,-0.0035516159,0.00019523426,0.9795494,-0.008191753,-0.012301149,0.20066044,0.99999,-9.054784e-05,9.388756e-05,-0.004472673,2
12736000,0.0017399583,0.004061357,-0.00050869404,0.9795372,-0.008152581,-0.012256357,0.20072408,0.99999,-9.054784e-05,9.388756e-05,-0.004472673,2
12768000,-0.0047943643,-0.00010437658,-0.00012858464,0.9795344,-0.00815673,-0.012251416,0.2007381,0.99999,-9.054784e-05,9.388756e-05,-0.004472673,2
12804000,0.0019537767,-0.00044898828,0.0010912657,0.9795326,-0.0081606265,-0.012240842,0.20074743,0.99999,-9.054784e-05,9.388756e-05,-0.004472673,2
12832000,-0.0060157925,-0.0026192716,-0.0014235219,0.97952217,-0.008195317,-0.0122628,0.20079552,0.99999,-9.054784e-05,9.388756e-05,-0.004472673,2
12864000,-0.0006072561,-0.0018895776,-0.00029976753,0.97951186,-0.0082195755,-0.012249882,0.2008459,0.99999,-9.054784e-05,9.388756e-05,-0.004472673,2
12896000,0.0035817865,0.005714249,-0.009802787,0.97951025,-0.00823217,-0.01223698,0.20085368,0.99999,-9.054784e-05,9.388756e-05,-0.004472673,2
12928000,0.0031291978,-0.007637346,0.0024755835,0.97949797,-0.008167557,-0.012231526,0.2009166,0.99999,-9.054784e-05,9.388756e-05,-0.004472673,2
12960000,-0.0024543274,0.0057168547,-0.00080443645,0.97949064,-0.008162322,-0.012254456,0.20095111,0.99999,-9.054784e-05,9.388756e-05,-0.004472673,2
12992000,-0.0025900654,0.005125703,-0.00022689751,0.979487,-0.008153403,-0.012221189,0.20097129,0.99999,-9.054784e-05,9.388756e-05,-0.004472673,2
13024000,0.004804742,0.0006984724,0.0011947728,0.979484,-0.00819185,-0.012225586,0.20098379,0.99999,-9.054784e-05,9.388756e-05,-0.004472673,2
13060000,-0.0019143444,-0.0010982249,-0.003982622,0.9794792,-0.008213161,-0.012196565,0.20100874,0.99999,-9.054784e-05,9.388756e-05,-0.004472673,2
13088000,-0.0048428364,-0.0022685453,-0.0020821015,0.9794756,-0.008216982,-0.012244519,0.20102257,0.99999,-9.054784e-05,9.388756e-05,-0.004472673,2
13120000,-0.0062961155,0.0022942855,-0.001940765,0.97948164,-0.008229467,-0.012230594,0.20099401,0.99999,-9.054784e-05,9.388756e-05,-0.004472673,2
13152000,-0.0011001362,-0.0016921889,-0.0039679613,0.97948796,-0.008270642,-0.012247954,0.20096005,0.99999,-9.054784e-05,9.388756e-05,-0.004472673,2
13184000,-0.0041806977,0.009447389,0.008029508,0.97947645,-0.008298065,-0.012195898,0.20101841,0.99999,-9.054784e-05,9.388756e-05,-0.004472673,2
13220000,-0.009009165,-0.0013138722,-0.011232261,0.97949094,-0.008314789,-0.012203229,0.2009466,0.99999,-9.054784e-05,9.388756e-05,-0.004472673,2
13252000,-0.0077815866,-0.00050096074,-0.00013455862,0.97949636,-0.008348594,-0.012221078,0.20091762,0.99999,-9.054784e-05,9.388756e-05,-0.004472673,2
13280000,-0.0050352914,-0.0021583354,-0.002497259,0.979497,-0.008372348,-0.012227152,0.20091298,0.99999,-9.054784e-05,9.388756e-05,-0.004472673,2
13312000,0.0035464244,-0.0031394437,0.00037424627,0.979498,-0.008339725,-0.012241807,0.20090847,0.99999,-9.054784e-05,9.388756e-05,-0.004472673,2
13344000,-0.008209971,0.0003541396,-0.0004922172,0.9794986,-0.008356905,-0.01229366,0.20090184,0.99999,-9.054784e-05,9.388756e-05,-0.004472673,2
13376000,0.0021965043,0.001190132,0.00042029098,0.97949606,-0.008337257,-0.012299757,0.20091446,0.99999,-9.054784e-05,9.388756e-05,-0.004472673,2
13408000,0.0044680224,-0.0022506542,0.0050444626,0.97949696,-0.008295581,-0.012268941,0.20091404,0.99999,-9.054784e-05,9.388756e-05,-0.004472673,2
13440000,-0.00013658754,-0.0050629308,-0.0030702387,0.9795017,-0.008260983,-0.012289559,0.20089106,0.99999,-9.054784e-05,9.388756e-05,-0.004472673,2
13476000,0.0034901793,-0.00407077,-0.0014741211,0.9795146,-0.008206293,-0.012283791,0.20083074,0.99999,-9.054784e-05,9.388756e-05,-0.004472673,2
13504000,-0.004224729,0.001389516,-0.00054711214,0.97951746,-0.008203447,-0.01229238,0.20081633,0.99999,-9.054784e-05,9.388756e-05,-0.004472673,2
13536000,-0.0020002087,0.005099669,0.0019733731,0.9795108,-0.008208845,-0.01228016,0.20084934,0.99999,-9.054784e-05,9.388756e-05,-0.004472673,2
13568000,-0.0018316221,0.00071122684,-0.0044338964,0.979518,-0.008225369,-0.012293285,0.20081262,0.99999,-9.054784e-05,9.388756e-05,-0.004472673,2
13604000,0.004817566,0.007446452,5.281058e-05,0.9795265,-0.00827817,-0.012286256,0.20076978,0.99999,-9.054784e-05,9.388756e-05,-0.004472673,2
13632000,0.000296454,-0.0046864236,-0.0074006715,0.97952455,-0.008283075,-0.012297035,0.20077802,0.99999,-9.054784e-05,9.388756e-05,-0.004472673,2
13664000,0.0028209407,0.0019335463,0.0008750222,0.9795276,-0.0082417475,-0.012302135,0.20076485,0.99999,-9.054784e-05,9.388756e-05,-0.004472673,2
13696000,-0.0030137198,-0.0026310962,-0.0015121457,0.97952694,-0.0082927365,-0.012300649,0.20076571,0.99999,-9.054784e-05,9.388756e-05,-0.004472673,2
13728000,0.004256763,0.0012019654,-0.0069524855,0.9795241,-0.00831149,-0.0123178745,0.20077814,0.99999,-9.054784e-05,9.388756e-05,-0.004472673,2
13760000,-0.0009584059,-0.0021235002,-0.0023410383,0.97951216,-0.008272259,-0.012319209,0.20083778,0.99999,-9.054784e-05,9.388756e-05,-0.004472673,2
13792000,-0.007504668,0.008733301,-0.0019426714,0.9794996,-0.008310952,-0.012287185,0.20089921,0.99999,-9.054784e-05,9.388756e-05,-0.004472673,2
13824000,0.0013811253,-0.0011113924,-0.0012161892,0.97948915,-0.008260896,-0.012291394,0.2009524,0.99999,-9.054784e-05,9.388756e-05,-0.004472673,2
13860000,0.005307006,0.00041138148,0.0049249576,0.97947764,-0.008298783,-0.0122901285,0.201007,0.99999,-9.054784e-05,9.388756e-05,-0.004472673,2
13888000,-1.3485085e-05,0.0037915525,-0.000515211,0.97947,-0.008303505,-0.0122561725,0.20104562,0.99999,-9.054784e-05,9.388756e-05,-0.004472673,2
13920000,0.0007433351,-0.0015283623,-0.008520832,0.97946954,-0.008263395,-0.012258712,0.20104961,0.99999,-9.054784e-05,9.388756e-05,-0.004472673,2
13952000,0.0014250983,0.0020146621,-0.0047441795,0.9794652,-0.008257099,-0.012266962,0.20107073,0.99999,-9.054784e-05,9.388756e-05,-0.004472673,2
13988000,0.0028813614,-0.006180192,-0.003797766,0.97946006,-0.008245366,-0.012281862,0.20109548,0.99999,-9.054784e-05,9.388756e-05,-0.004472673,2
14016000,-0.0027585241,0.0023811082,-0.0021354062,0.9794559,-0.008212431,-0.012272773,0.20111714,0.99999,-9.054784e-05,9.388756e-05,-0.004472673,2
14048000,0.005972413,0.00096968515,-0.0038362134,0.9794619,-0.008275254,-0.012276191,0.20108493,0.99999,-9.054784e-05,9.388756e-05,-0.004472673,2
14080000,-2.9006042e-05,0.0026309013,-0.002419361,0.97945625,-0.008331094,-0.0122237895,0.2011133,0.99999,-9.054784e-05,9.388756e-05,-0.004472673,2
14112000,-0.0005564445,-0.001469878,-0.003986003,0.9794621,-0.008316137,-0.012174465,0.20108907,0.99999,-9.054784e-05,9.388756e-05,-0.004472673,2
14144000,-0.004399021,0.0003365539,-0.00070501515,0.9794575,-0.0083768945,-0.012161609,0.20110956,0.99999,-9.054784e-05,9.388756e-05,-0.004472673,2
14176000,0.003523015,-0.0015693032,-0.0025319315,0.9794559,-0.008331206,-0.012152088,0.20112011,0.99999,-9.054784e-05,9.388756e-05,-0.004472673,2
14208000,-0.00043772266,-0.0018345453,-0.0018099175,0.9794598,-0.008336933,-0.012134586,0.20110162,0.99999,-9.054784e-05,9.388756e-05,-0.004472673,2
14240000,-0.0041636475,-0.0010964647,-0.0025528853,0.9794634,-0.008366714,-0.012164897,0.2010809,0.99999,-9.054784e-05,9.388756e-05,-0.004472673,2
14272000,-0.0034404388,0.00033515412,-0.0013132431,0.97947216,-0.008349914,-0.012113506,0.20104218,0.99999,-9.054784e-05,9.388756e-05,-0.004472673,2
14304000,0.0030236398,-0.0015341518,-0.0021604507,0.97947323,-0.008356057,-0.012132203,0.20103526,0.99999,-9.054784e-05,9.388756e-05,-0.004472673,2
14336000,0.0023895027,0.0051303403,0.007595253,0.9794708,-0.008338616,-0.012086157,0.201051,0.99999,-9.054784e-05,9.388756e-05,-0.004472673,2
14368000,0.0045296825,0.0022194998,-0.0046710363,0.9794764,-0.008357886,-0.012019891,0.20102645,0.99999,-9.054784e-05,9.388756e-05,-0.004472673,2
14400000,-0.00042529718,0.00041277427,0.002951481,0.9794769,-0.008366601,-0.01200771,0.20102464,0.99999,-9.054784e-05,9.388756e-05,-0.004472673,2
14436000,-0.004273926,-0.002505978,0.0010144839,0.9794838,-0.008355285,-0.012018891,0.20099106,0.99999,-9.054784e-05,9.388756e-05,-0.004472673,2
14464000,0.0019091839,0.0010435502,0.0017636521,0.9794794,-0.008332088,-0.012039156,0.20101233,0.99999,-9.054784e-05,9.388756e-05,-0.004472673,2
14496000,0.0035330928,0.009782707,0.00052340224,0.9794794,-0.008339591,-0.01198964,0.20101447,0.99999,-9.054784e-05,9.388756e-05,-0.004472673,2
14532000,-0.0047248714,0.005007052,-0.0009020975,0.9794925,-0.0082966965,-0.011975937,0.20095345,0.99999,-9.054784e-05,9.388756e-05,-0.004472673,2
14560000,-0.00507052,0.006007137,0.0046331314,0.9794873,-0.008330177,-0.011952512,0.20097889,0.99999,-9.054784e-05,9.388756e-05,-0.004472673,2
14592000,-0.005460604,-0.0012022019,0.005010009,0.9794994,-0.008352632,-0.01195959,0.20091824,0.99999,-9.054784e-05,9.388756e-05,-0.004472673,2
14624000,0.0033428103,0.00021191081,-0.0020286017,0.97950095,-0.0083674835,-0.011977657,0.20090938,0.99999,-9.054784e-05,9.388756e-05,-0.004472673,2
14656000,0.0027682963,0.00056388276,-0.004461706,0.97951263,-0.008296944,-0.01195683,0.20085676,0.99999,-9.054784e-05,9.388756e-05,-0.004472673,2
14688000,-0.003706236,0.0024670828,-0.0031841197,0.979521,-0.008316524,-0.012036299,0.20081002,0.99999,-9.054784e-05,9.388756e-05,-0.004472673,2
14724000,0.0027484274,-0.0037260647,-0.0032806902,0.9795287,-0.008288163,-0.012025895,0.20077409,0.99999,-9.054784e-05,9.388756e-05,-0.004472673,2
14752000,-0.0017863783,-0.0017123511,0.0036382447,0.97952634,-0.008279183,-0.012027897,0.20078619,0.99999,-9.054784e-05,9.388756e-05,-0.004472673,2
14784000,0.005115031,-0.0030417643,-0.0032075946,0.9795351,-0.0083019575,-0.012049504,0.20074111,0.99999,-9.054784e-05,9.388756e-05,-0.004472673,2
14816000,-0.0017220494,-0.0034230882,-0.00066274323,0.9795379,-0.008286797,-0.012046383,0.20072812,0.99999,-9.054784e-05,9.388756e-05,-0.004472673,2
14848000,0.0019689999,0.0052710483,-0.0031692903,0.9795344,-0.008300207,-0.012022903,0.2007464,0.99999,-9.054784e-05,9.388756e-05,-0.004472673,2
14884000,0.005311683,0.008169943,0.004858474,0.97952384,-0.008276348,-0.012010394,0.2007998,0.99999,-9.054784e-05,9.388756e-05,-0.004472673,2
14912000,-6.596418e-05,-0.0004888321,-0.0015617429,0.9795244,-0.008292059,-0.011982661,0.20079777,0.99999,-9.054784e-05,9.388756e-05,-0.004472673,2
14944000,0.003915466,0.0016931626,-0.001260689,0.97952545,-0.008284831,-0.011960319,0.20079418,0.99999,-9.054784e-05,9.388756e-05,-0.004472673,2
14976000,0.002667407,0.0019877278,6.783729e-05,0.9795214,-0.008225227,-0.011913308,0.20081933,0.99999,-9.054784e-05,9.388756e-05,-0.004472673,2
15008000,-0.00057874026,-0.0013716756,-0.007232468,0.9795317,-0.008211266,-0.011882439,0.2007713,0.99999,-9.054784e-05,9.388756e-05,-0.004472673,2
15040000,0.003270189,0.0015044208,-0.002666638,0.979531,-0.0081782425,-0.011921777,0.20077409,0.99999,-9.054784e-05,9.388756e-05,-0.004472673,2
15076000,0.0009844218,0.0021989415,0.0031808268,0.9795274,-0.008194594,-0.011884324,0.20079273,0.99999,-9.054784e-05,9.388756e-05,-0.004472673,2
15104000,0.0005319403,0.007167575,-0.0055697495,0.9795302,-0.008215592,-0.0118764,0.20077875,0.99999,-9.054784e-05,9.388756e-05,-0.004472673,2
15136000,0.009580252,-0.0016129389,0.0023722355,0.97952443,-0.008154269,-0.01186381,0.20081009,0.99999,-9.054784e-05,9.388756e-05,-0.004472673,2
15168000,-0.0054683154,-0.0016217865,-0.0054108333,0.9795201,-0.008132389,-0.011870749,0.20083176,0.99999,-9.054784e-05,9.388756e-05,-0.004472673,2
15204000,0.0003860157,0.00179641,0.0023319963,0.979513,-0.008149986,-0.011829813,0.20086785,0.99999,-9.054784e-05,9.388756e-05,-0.004472673,2
