timestamp,x,y,z,yaw,yawspeed,vx,vy,vz,acc_x,acc_y,acc_z,jerk_x,jerk_y,jerk_z,thrust[0],thrust[1],thrust[2]
93016000,0.039617006,-0.04134796,-0.38822505,0.4226186,0.0,0.0014632834,0.0077748923,-1.1234004,0.0,0.0,0.0,0.0,0.0,0.0,0.007784879,0.005002614,-0.6993143
93112000,0.03943189,-0.04107259,-0.5345162,0.4225636,0.0,0.0051593385,0.000494051,-1.490993,0.0,0.0,0.0,0.0,0.0,0.0,0.010048965,0.0024600606,-0.71006703
93212000,0.039224476,-0.040852673,-0.68901867,0.42332876,0.0,0.012596149,0.0013181283,-1.5,0.0,0.0,0.0,0.0,0.0,0.0,0.009815896,0.0033086138,-0.54006076
93308000,0.03891785,-0.040322978,-0.8333595,0.42332876,0.0,0.013108728,0.0012177294,-1.8917006,0.0,0.0,0.0,0.0,0.0,0.0,0.0086602345,0.0033158904,-0.7444044
93404000,0.038490452,-0.039733674,-0.9773649,0.42332876,0.0,0.02126992,-0.0013390081,-1.8691915,0.0,0.0,0.0,0.0,0.0,0.0,0.007873847,0.0037657586,-0.5000353
93500000,0.038226698,-0.039250545,-1.1212864,0.42332876,0.0,0.025406512,-0.0030134013,-1.840806,0.0,0.0,0.0,0.0,0.0,0.0,0.010983137,0.004065534,-0.5730597
93616000,0.038041748,-0.03869609,-1.2952902,0.42332876,0.0,0.032427322,-0.006216022,-1.8219928,0.0,0.0,0.0,0.0,0.0,0.0,0.012045287,0.0033557746,-0.58691585
93712000,0.037611447,-0.038174625,-1.4393831,0.42332876,0.0,0.040131554,-0.009577738,-1.805838,0.0,0.0,0.0,0.0,0.0,0.0,0.012897864,0.0028985736,-0.5833408
93812000,0.037435856,-0.03778083,-1.5892526,0.42332876,0.0,0.047203302,-0.01288947,-1.7779583,0.0,0.0,0.0,0.0,0.0,0.0,0.013181745,0.0023528845,-0.57979584
93908000,0.037230033,-0.0372845,-1.7332475,0.42332876,0.0,0.054413285,-0.017137175,-1.7625071,0.0,0.0,0.0,0.0,0.0,0.0,0.014489752,0.0016368051,-0.5808825
94004000,0.0367964,-0.0370663,-1.8771944,0.42332876,0.0,0.06258142,-0.021552637,-1.7467526,0.0,0.0,0.0,0.0,0.0,0.0,0.015083177,0.0015145299,-0.57818
94100000,0.036766384,-0.036654755,-2.0211349,0.42332876,0.0,0.07276911,-0.026852418,-1.7270254,0.0,0.0,0.0,0.0,0.0,0.0,0.016504748,0.0015020036,-0.57522464
94196000,0.03655658,-0.03634928,-2.1651921,0.42332876,0.0,0.07674091,-0.025086943,-1.7134498,0.0,0.0,0.0,0.0,0.0,0.0,0.01602269,0.0016015167,-0.579087
94312000,0.03635754,-0.03605876,-2.3390658,0.42332876,0.0,0.085677855,-0.034081683,-1.7021925,0.0,0.0,0.0,0.0,0.0,0.0,0.01731617,3.8583123e-05,-0.5821867
94412000,0.036116358,-0.03571609,-2.489037,0.42332876,0.0,0.09123743,-0.03407642,-1.6803176,0.0,0.0,0.0,0.0,0.0,0.0,0.016774012,0.0008092721,-0.5778435
94508000,0.035961356,-0.035410464,-2.6330347,0.42332876,0.0,0.09675952,-0.037300486,-1.6702273,0.0,0.0,0.0,0.0,0.0,0.0,0.017993972,0.0011734017,-0.5780834
94604000,0.03571506,-0.035111472,-2.7770252,0.42332876,0.0,0.102378525,-0.04086088,-1.6592729,0.0,0.0,0.0,0.0,0.0,0.0,0.0188921,0.00020768889,-0.57707477
94700000,0.035655893,-0.03470248,-2.9210157,0.42332876,0.0,0.10732081,-0.04596793,-1.6490927,0.0,0.0,0.0,0.0,0.0,0.0,0.019086536,-0.0002180608,-0.5788911
94816000,0.03549077,-0.034347564,-3.0950043,0.42332876,0.0,0.11278018,-0.047832057,-1.645019,0.0,0.0,0.0,0.0,0.0,0.0,0.020532312,-0.00067988655,-0.5825639
94912000,0.035298202,-0.034212068,-3.2389948,0.42332876,0.0,0.11737972,-0.050108325,-1.6375484,0.0,0.0,0.0,0.0,0.0,0.0,0.020468382,-0.00043089525,-0.58314425
95012000,0.03532832,-0.033953518,-3.388985,0.42332876,0.0,0.12076268,-0.05334793,-1.6241825,0.0,0.0,0.0,0.0,0.0,0.0,0.020477042,-0.0008808381,-0.5785641
95108000,0.03506529,-0.033784032,-3.5329754,0.42332876,0.0,0.123821944,-0.05527186,-1.6181893,0.0,0.0,0.0,0.0,0.0,0.0,0.02086209,-0.00024119922,-0.5792912
95204000,0.034969896,-0.03360651,-3.676966,0.42332876,0.0,0.12648886,-0.057068877,-1.6129944,0.0,0.0,0.0,0.0,0.0,0.0,0.021416577,-0.00079074077,-0.5797179
95300000,0.034865353,-0.033430915,-3.8209565,0.42332876,0.0,0.13106067,-0.057815913,-1.6086144,0.0,0.0,0.0,0.0,0.0,0.0,0.020993412,-0.00096406817,-0.58024716
95416000,0.03475924,-0.03325065,-3.994945,0.42332876,0.0,0.13069159,-0.060407747,-1.6102598,0.0,0.0,0.0,0.0,0.0,0.0,0.021256793,-0.0015822388,-0.5840376
95512000,0.03468105,-0.03309889,-4.1389346,0.42332876,0.0,0.1334963,-0.06052011,-1.6074927,0.0,0.0,0.0,0.0,0.0,0.0,0.022240672,-0.0011588369,-0.5840167
95612000,0.034565877,-0.032986324,-4.2889237,0.42332876,0.0,0.13640042,-0.061205156,-1.5984533,0.0,0.0,0.0,0.0,0.0,0.0,0.021791434,-0.0010930491,-0.5807983
95708000,0.034533367,-0.03283732,-4.4329133,0.42332876,0.0,0.13527219,-0.06363826,-1.5957787,0.0,0.0,0.0,0.0,0.0,0.0,0.022381324,-0.0021822185,-0.58162963
95804000,0.034470703,-0.032724064,-4.576903,0.42332876,0.0,0.13720453,-0.06268242,-1.593313,0.0,0.0,0.0,0.0,0.0,0.0,0.023273066,-0.0017947906,-0.58089197
95900000,0.034326885,-0.03260199,-4.7208924,0.42332876,0.0,0.1390562,-0.06568303,-1.5896204,0.0,0.0,0.0,0.0,0.0,0.0,0.02373879,-0.0030507757,-0.5794452
96016000,0.034396186,-0.03247104,-4.884431,0.42332876,0.0,0.13883631,-0.06684663,-1.5813606,0.0,0.0,0.0,0.0,0.0,0.0,0.024214834,-0.0033863108,-0.57989454
96112000,0.03423662,-0.032419946,-5.0284204,0.42332876,0.0,0.14056586,-0.068391494,-1.5792868,0.0,0.0,0.0,0.0,0.0,0.0,0.024380997,-0.003061879,-0.584853
96212000,0.03431985,-0.032265335,-5.166933,0.42332876,0.0,0.13944466,-0.06981287,-1.5337943,0.0,0.0,0.0,0.0,0.0,0.0,0.023978641,-0.0041826153,-0.56070125
96308000,0.034181412,-0.03219404,-5.306559,0.42332876,0.0,0.13957891,-0.07102387,-1.4900267,0.0,0.0,0.0,0.0,0.0,0.0,0.023716133,-0.0050141443,-0.5632048
96404000,0.034144916,-0.03213958,-5.442206,0.42332876,0.0,0.13769582,-0.0722112,-1.4451935,0.0,0.0,0.0,0.0,0.0,0.0,0.023726638,-0.0059210006,-0.5651871
96500000,0.03411564,-0.032033633,-5.5738287,0.42332876,0.0,0.13686705,-0.074279785,-1.4002402,0.0,0.0,0.0,0.0,0.0,0.0,0.024168847,-0.006224071,-0.5632911
96616000,0.03397633,-0.03195398,-5.727507,0.42332876,0.0,0.13831332,-0.074767455,-1.3515,0.0,0.0,0.0,0.0,0.0,0.0,0.02509206,-0.0073323855,-0.56590754
96712000,0.034111958,-0.031879265,-5.8383937,0.42332876,0.0,0.13560809,-0.07751151,-1.2984402,0.0,0.0,0.0,0.0,0.0,0.0,0.024912586,-0.007582248,-0.55847996
96812000,0.033975877,-0.03181123,-5.9625416,0.42332876,0.0,0.13469574,-0.077937774,-1.2535467,0.0,0.0,0.0,0.0,0.0,0.0,0.025933562,-0.006803302,-0.5650216
96908000,0.034105364,-0.031802114,-6.069521,0.42332876,0.0,0.13339707,-0.078930296,-1.213363,0.0,0.0,0.0,0.0,0.0,0.0,0.025193382,-0.0075244536,-0.5625626
97004000,0.033929635,-0.031730745,-6.1799884,0.42332876,0.0,0.1292159,-0.07778291,-1.1785862,0.0,0.0,0.0,0.0,0.0,0.0,0.025008189,-0.007674621,-0.56504697
97100000,0.03387101,-0.031685587,-6.2847886,0.42332876,0.0,0.12557162,-0.07808785,-1.1417085,0.0,0.0,0.0,0.0,0.0,0.0,0.024771214,-0.0068605295,-0.562544
97216000,0.03375075,-0.031614438,-6.4105816,0.42332876,0.0,0.12572901,-0.07794618,-1.1073346,0.0,0.0,0.0,0.0,0.0,0.0,0.024899296,-0.007607169,-0.56737906
97312000,0.03371684,-0.031552073,-6.5088573,0.42332876,0.0,0.12010919,-0.076013595,-1.0757906,0.0,0.0,0.0,0.0,0.0,0.0,0.024125539,-0.008936778,-0.5661376
97412000,0.03370144,-0.031510215,-6.6105785,0.42332876,0.0,0.11676058,-0.0749121,-1.0399321,0.0,0.0,0.0,0.0,0.0,0.0,0.023366619,-0.008301574,-0.56383306
97508000,0.033593383,-0.03143178,-6.707437,0.42332876,0.0,0.11393267,-0.07408943,-1.0110837,0.0,0.0,0.0,0.0,0.0,0.0,0.02423593,-0.008941803,-0.56463486
97604000,0.033642676,-0.031507697,-6.794311,0.42332876,0.0,0.10938237,-0.0709562,-0.9770846,0.0,0.0,0.0,0.0,0.0,0.0,0.023806281,-0.008056147,-0.56201875
97700000,0.033572383,-0.031426527,-6.885756,0.42332876,0.0,0.10566486,-0.068702035,-0.9523474,0.0,0.0,0.0,0.0,0.0,0.0,0.023818253,-0.007992901,-0.56569755
97816000,0.033581723,-0.031367328,-6.988414,0.42332876,0.0,0.09939891,-0.06387147,-0.92370373,0.0,0.0,0.0,0.0,0.0,0.0,0.02305724,-0.007881311,-0.56664324
97912000,0.033591695,-0.031365335,-7.0716147,0.42332876,0.0,0.097894646,-0.061710022,-0.8973359,0.0,0.0,0.0,0.0,0.0,0.0,0.022829013,-0.007910889,-0.5658099
98012000,0.03356523,-0.03136252,-7.1557083,0.42332876,0.0,0.08839752,-0.05587899,-0.8665253,0.0,0.0,0.0,0.0,0.0,0.0,0.021798162,-0.0064709643,-0.564389
98108000,0.033427685,-0.031324435,-7.236933,0.42332876,0.0,0.08710523,-0.05253967,-0.84557664,0.0,0.0,0.0,0.0,0.0,0.0,0.021823883,-0.0066768345,-0.56608754
98204000,0.03342041,-0.031309348,-7.3127584,0.42332876,0.0,0.079157874,-0.0465901,-0.8207633,0.0,0.0,0.0,0.0,0.0,0.0,0.022656674,-0.0066085584,-0.5629982
98300000,0.03328617,-0.031283055,-7.3897023,0.42332876,0.0,0.07745606,-0.04304685,-0.79824656,0.0,0.0,0.0,0.0,0.0,0.0,0.022598526,-0.0067400206,-0.5638265
98396000,0.033459578,-0.031247742,-7.460723,0.42332876,0.0,0.07251307,-0.03773492,-0.773206,0.0,0.0,0.0,0.0,0.0,0.0,0.02173431,-0.0060605267,-0.56163734
98512000,0.033260185,-0.03122598,-7.5484176,0.42332876,0.0,0.06668545,-0.03409533,-0.75066066,0.0,0.0,0.0,0.0,0.0,0.0,0.021071557,-0.0059726886,-0.56747633
98612000,0.03334516,-0.03119451,-7.6185102,0.42332876,0.0,0.06052981,-0.027535459,-0.72452325,0.0,0.0,0.0,0.0,0.0,0.0,0.020130282,-0.0054676817,-0.5638497
98708000,0.033186715,-0.031208742,-7.686645,0.42332876,0.0,0.05512385,-0.023018591,-0.7069089,0.0,0.0,0.0,0.0,0.0,0.0,0.019567352,-0.0051936996,-0.56500965
98804000,0.033347383,-0.0311125,-7.751158,0.42332876,0.0,0.050968338,-0.015266569,-0.68716633,0.0,0.0,0.0,0.0,0.0,0.0,0.018506875,-0.003151333,-0.5631971
98900000,0.0332023,-0.031128127,-7.8152003,0.42332876,0.0,0.04137519,-0.011373577,-0.6680261,0.0,0.0,0.0,0.0,0.0,0.0,0.018095214,-0.003775152,-0.56308633
99016000,0.03310204,-0.031134957,-7.8898587,0.42332876,0.0,0.036013976,-0.0034196398,-0.64746106,0.0,0.0,0.0,0.0,0.0,0.0,0.018318277,-0.0030798758,-0.5642761
99112000,0.03306596,-0.031143472,-7.949669,0.42332876,0.0,0.03464361,0.0031856033,-0.6286382,0.0,0.0,0.0,0.0,0.0,0.0,0.017932028,-0.0014819708,-0.56510544
99212000,0.033024594,-0.031099714,-8.010076,0.42332876,0.0,0.02788734,0.008718875,-0.6082404,0.0,0.0,0.0,0.0,0.0,0.0,0.018044192,-0.002759936,-0.5639971
99308000,0.03311918,-0.031076938,-8.066195,0.42332876,0.0,0.025740977,0.014830669,-0.59275204,0.0,0.0,0.0,0.0,0.0,0.0,0.01721073,-0.0022329749,-0.5654177
99404000,0.033005644,-0.031086119,-8.121293,0.42332876,0.0,0.019137375,0.018470507,-0.5773165,0.0,0.0,0.0,0.0,0.0,0.0,0.017232597,-0.002599265,-0.5644624
99500000,0.033047557,-0.031091793,-8.174485,0.42332876,0.0,0.017440444,0.024533285,-0.5614612,0.0,0.0,0.0,0.0,0.0,0.0,0.016423268,-0.0012423391,-0.56345487
99596000,0.03298865,-0.031073507,-8.226189,0.42332876,0.0,0.013673176,0.028910255,-0.547139,0.0,0.0,0.0,0.0,0.0,0.0,0.016203033,-0.0010753368,-0.5648838
99712000,0.03308907,-0.031036844,-8.286046,0.42332876,0.0,0.008459698,0.033799496,-0.5293604,0.0,0.0,0.0,0.0,0.0,0.0,0.015737979,-0.0012521376,-0.5623325
99812000,0.033060238,-0.03104664,-8.33668,0.42332876,0.0,0.008141026,0.03862962,-0.51138437,0.0,0.0,0.0,0.0,0.0,0.0,0.017036933,-0.001004519,-0.5630035
99908000,0.03302583,-0.031022377,-8.383359,0.42332876,0.0,0.0029874546,0.040417098,-0.49560675,0.0,0.0,0.0,0.0,0.0,0.0,0.016044943,-0.0014224683,-0.5622844
100004000,0.032992717,-0.031036695,-8.429198,0.42332876,0.0,0.0034325062,0.04482705,-0.4821324,0.0,0.0,0.0,0.0,0.0,0.0,0.016668124,-0.00021518616,-0.5636179
100100000,0.03299435,-0.0310241,-8.473167,0.42332876,0.0,0.00027977745,0.044204023,-0.4675628,0.0,0.0,0.0,0.0,0.0,0.0,0.016188355,-0.0017483048,-0.56067824
100216000,0.03297875,-0.031036107,-8.525054,0.42332876,0.0,-0.00020903643,0.0506015,-0.45343375,0.0,0.0,0.0,0.0,0.0,0.0,0.017254231,-0.0008295858,-0.56425315
100312000,0.032956105,-0.031046038,-8.566533,0.42332876,0.0,-0.0013228322,0.05219258,-0.44084078,0.0,0.0,0.0,0.0,0.0,0.0,0.01745288,-0.0003985506,-0.5633622
100412000,0.032944303,-0.031036692,-8.608183,0.42332876,0.0,-0.00212676,0.05526865,-0.42621487,0.0,0.0,0.0,0.0,0.0,0.0,0.01622225,-0.00066163705,-0.56199527
100508000,0.032951985,-0.031039495,-8.647526,0.42332876,0.0,-0.004041884,0.058288664,-0.41387594,0.0,0.0,0.0,0.0,0.0,0.0,0.015562146,-0.0010279827,-0.5611875
100604000,0.032935172,-0.031054968,-8.685456,0.42332876,0.0,-0.0036652223,0.05967513,-0.40143058,0.0,0.0,0.0,0.0,0.0,0.0,0.017202172,-0.0003901549,-0.56304556
100700000,0.032918252,-0.031054955,-8.722007,0.42332876,0.0,-0.0043909517,0.05954145,-0.39058697,0.0,0.0,0.0,0.0,0.0,0.0,0.016805924,-0.000975489,-0.5627329
100816000,0.032941543,-0.031033628,-8.765262,0.42332876,0.0,-0.0061617247,0.06493602,-0.37895775,0.0,0.0,0.0,0.0,0.0,0.0,0.016876237,-0.00023079332,-0.562569
100912000,0.032924276,-0.031116975,-8.7998,0.42332876,0.0,-0.005605928,0.06208231,-0.36944187,0.0,0.0,0.0,0.0,0.0,0.0,0.016905906,-0.0012067936,-0.5640467
101012000,0.032984003,-0.03112846,-8.834769,0.42332876,0.0,-0.006223598,0.067164585,-0.35810962,0.0,0.0,0.0,0.0,0.0,0.0,0.01668523,-0.0006077434,-0.56292
101108000,0.033001278,-0.031117916,-8.867339,0.42332876,0.0,-0.008073381,0.064579114,-0.349397,0.0,0.0,0.0,0.0,0.0,0.0,0.016098952,-0.0019504146,-0.5617456
101204000,0.0329916,-0.031060595,-8.898924,0.42332876,0.0,-0.007947534,0.06725398,-0.3405202,0.0,0.0,0.0,0.0,0.0,0.0,0.016465247,-0.001087768,-0.5612736
101300000,0.032981806,-0.031088874,-8.930003,0.42332876,0.0,-0.0094916,0.0661488,-0.33253494,0.0,0.0,0.0,0.0,0.0,0.0,0.016906554,-0.0016491804,-0.5629598
101416000,0.033003904,-0.03107064,-8.9657955,0.42332876,0.0,-0.010943019,0.06686133,-0.3235277,0.0,0.0,0.0,0.0,0.0,0.0,0.016457751,-0.0011452483,-0.5632086
101512000,0.03303732,-0.03106414,-8.994649,0.42332876,0.0,-0.009346879,0.068748556,-0.31501478,0.0,0.0,0.0,0.0,0.0,0.0,0.016860131,-0.0016951571,-0.5630766
101612000,0.032995492,-0.031076817,-9.023863,0.42332876,0.0,-0.014631036,0.06833847,-0.30568904,0.0,0.0,0.0,0.0,0.0,0.0,0.015677972,-0.0014959683,-0.5623275
101708000,0.03295312,-0.031088058,-9.051335,0.42332876,0.0,-0.012494201,0.07069236,-0.29671967,0.0,0.0,0.0,0.0,0.0,0.0,0.016635368,-0.0010797165,-0.5614694
101804000,0.032946914,-0.031092469,-9.078038,0.42332876,0.0,-0.014419701,0.072457515,-0.2877567,0.0,0.0,0.0,0.0,0.0,0.0,0.01609171,0.00020404987,-0.5610385
101900000,0.032965317,-0.031088365,-9.103725,0.42332876,0.0,-0.016150251,0.07343736,-0.27948272,0.0,0.0,0.0,0.0,0.0,0.0,0.015841465,-0.00036423164,-0.56282926
101996000,0.032953035,-0.031082783,-9.128422,0.42332876,0.0,-0.015486745,0.07429469,-0.27234092,0.0,0.0,0.0,0.0,0.0,0.0,0.016407512,-0.00029134023,-0.5633966
102112000,0.032937113,-0.031028619,-9.157466,0.42332876,0.0,-0.01807644,0.07756205,-0.26385415,0.0,0.0,0.0,0.0,0.0,0.0,0.016038038,8.646026e-05,-0.56317556
102212000,0.032944422,-0.031048648,-9.182071,0.42332876,0.0,-0.017514246,0.078095526,-0.2560639,0.0,0.0,0.0,0.0,0.0,0.0,0.016558334,-0.00028721668,-0.56126046
102308000,0.032960843,-0.031042768,-9.204799,0.42332876,0.0,-0.018016737,0.07831354,-0.24988195,0.0,0.0,0.0,0.0,0.0,0.0,0.016633265,-0.00032850355,-0.563235
102404000,0.033162706,-0.030752974,-9.226422,0.4640877,0.0,-0.0063820593,0.09233586,-0.23632538,0.0,0.0,0.0,0.0,0.0,0.0,0.01942664,0.0026496565,-0.5577825
102500000,0.03756896,-0.026234273,-9.246187,0.53948593,0.0,0.08325477,0.18240306,-0.22306052,0.0,0.0,0.0,0.0,0.0,0.0,0.03676243,0.020235809,-0.5580113
102616000,0.0589463,-0.005160118,-9.269113,0.6057371,0.0,0.3130666,0.3935539,-0.21710381,0.0,0.0,0.0,0.0,0.0,0.0,0.07995293,0.058036663,-0.55798906
102712000,0.09789529,0.028668072,-9.287295,0.60572225,0.0,0.59704727,0.5882058,-0.21161973,0.0,0.0,0.0,0.0,0.0,0.0,0.12832041,0.08587295,-0.5486313
102812000,0.16171436,0.07857937,-9.305253,0.6056694,0.0,0.91302526,0.79368603,-0.20235795,0.0,0.0,0.0,0.0,0.0,0.0,0.16645844,0.10475505,-0.5378601
102908000,0.2429767,0.13889353,-9.321491,0.60558194,0.0,1.2156355,0.98815286,-0.19238324,0.0,0.0,0.0,0.0,0.0,0.0,0.19156447,0.11954773,-0.53241545
103004000,0.34102547,0.20952715,-9.336711,0.60549945,0.0,1.5093726,1.1762253,-0.182204,0.0,0.0,0.0,0.0,0.0,0.0,0.20700222,0.1304041,-0.53139174
103100000,0.4535294,0.2890045,-9.350978,0.6054172,0.0,1.7898251,1.354745,-0.17295484,0.0,0.0,0.0,0.0,0.0,0.0,0.21722426,0.13833289,-0.53608763
103216000,0.60634714,0.39535475,-9.367081,0.6053765,0.0,2.1105032,1.560048,-0.16337647,0.0,0.0,0.0,0.0,0.0,0.0,0.23484239,0.15211408,-0.5400002
103312000,0.7455648,0.49118653,-9.379604,0.6053775,0.0,2.3573847,1.7183479,-0.1555567,0.0,0.0,0.0,0.0,0.0,0.0,0.24427277,0.1597683,-0.5418053
103412000,0.9022618,0.598216,-9.3920145,0.60543376,0.0,2.59578,1.8723177,-0.14773345,0.0,0.0,0.0,0.0,0.0,0.0,0.24975468,0.16538323,-0.54177743
103508000,1.0640092,0.70800555,-9.403439,0.6054523,0.0,2.8188276,2.0141566,-0.1405321,0.0,0.0,0.0,0.0,0.0,0.0,0.26057532,0.17340888,-0.5397278
103604000,1.2368524,0.824732,-9.414464,0.6054923,0.0,3.036633,2.1528752,-0.13382038,0.0,0.0,0.0,0.0,0.0,0.0,0.27384704,0.18219475,-0.5391094
103700000,1.4197714,0.9477342,-9.425075,0.6055825,0.0,3.249694,2.2901313,-0.12850216,0.0,0.0,0.0,0.0,0.0,0.0,0.28604668,0.19076927,-0.5381013
103816000,1.654857,1.1051799,-9.437448,0.6057004,0.0,3.5051599,2.4543903,-0.122788355,0.0,0.0,0.0,0.0,0.0,0.0,0.30434126,0.20471677,-0.53823316
103912000,1.8606104,1.2425122,-9.447339,0.6058484,0.0,3.7056127,2.5850477,-0.1180795,0.0,0.0,0.0,0.0,0.0,0.0,0.31365004,0.21313125,-0.53738004
104012000,2.0865784,1.3930093,-9.457371,0.6060244,0.0,3.9020555,2.7141638,-0.11311312,0.0,0.0,0.0,0.0,0.0,0.0,0.32033056,0.218364,-0.5370519
104108000,2.3149705,1.5448979,-9.466768,0.6062163,0.0,4.09402,2.8429513,-0.10978618,0.0,0.0,0.0,0.0,0.0,0.0,0.330093,0.22628075,-0.5363302
104204000,2.555079,1.7048342,-9.475996,0.6064191,0.0,4.2605276,2.9711757,-0.10659468,0.0,0.0,0.0,0.0,0.0,0.0,0.33619395,0.23603353,-0.53464264
104300000,2.8050475,1.8730977,-9.485068,0.60667056,0.0,4.386065,3.0997949,-0.10374521,0.0,0.0,0.0,0.0,0.0,0.0,0.33452678,0.24530178,-0.5376351
104416000,3.1196394,2.0881994,-9.495877,0.6069556,0.0,4.5107923,3.237068,-0.10279581,0.0,0.0,0.0,0.0,0.0,0.0,0.33630288,0.25533813,-0.54443735
104512000,3.389026,2.2745688,-9.504715,0.60719657,0.0,4.5768023,3.3144832,-0.103934646,0.0,0.0,0.0,0.0,0.0,0.0,0.33170164,0.25431177,-0.5525378
104604000,3.6528702,2.4580417,-9.51308,0.607389,0.0,4.587538,3.3382804,-0.10510421,0.0,0.0,0.0,0.0,0.0,0.0,0.3224645,0.24485171,-0.55192155
104716000,3.9798198,2.6855173,-9.523191,0.6075572,0.0,4.575656,3.3307936,-0.10791616,0.0,0.0,0.0,0.0,0.0,0.0,0.31196147,0.23359232,-0.5547326
104812000,4.2646255,2.8831532,-9.531868,0.6076555,0.0,4.497973,3.2760825,-0.11181769,0.0,0.0,0.0,0.0,0.0,0.0,0.29461962,0.21799171,-0.57465047
104912000,4.5636387,3.0900867,-9.540929,0.607743,0.0,4.399903,3.1974823,-0.11903181,0.0,0.0,0.0,0.0,0.0,0.0,0.27967763,0.2038597,-0.5859366
105008000,4.8551283,3.2909565,-9.549661,0.6078004,0.0,4.358757,3.1618695,-0.12586011,0.0,0.0,0.0,0.0,0.0,0.0,0.2838133,0.20518196,-0.58143675
105104000,5.1529474,3.4960203,-9.558379,0.6078603,0.0,4.367785,3.1694195,-0.13176274,0.0,0.0,0.0,0.0,0.0,0.0,0.30088878,0.2186352,-0.5673542
105200000,5.4561925,3.705175,-9.567009,0.60790604,0.0,4.3637023,3.173066,-0.13406861,0.0,0.0,0.0,0.0,0.0,0.0,0.3111833,0.22789747,-0.54793
105316000,5.825955,3.9602294,-9.577299,0.6079751,0.0,4.3578515,3.1679733,-0.13449344,0.0,0.0,0.0,0.0,0.0,0.0,0.3114268,0.22715203,-0.5457471
105412000,6.1340027,4.1727777,-9.585665,0.6080178,0.0,4.352251,3.1639645,-0.13533953,0.0,0.0,0.0,0.0,0.0,0.0,0.30594566,0.22368787,-0.558578
105512000,6.457096,4.3957076,-9.594241,0.60806483,0.0,4.3312106,3.1527977,-0.13856351,0.0,0.0,0.0,0.0,0.0,0.0,0.29399452,0.21797475,-0.5721598
105608000,6.770016,4.6116676,-9.602364,0.6080926,0.0,4.3233166,3.1428194,-0.14428893,0.0,0.0,0.0,0.0,0.0,0.0,0.29306892,0.21497686,-0.5760924
105704000,7.0856295,4.829361,-9.610358,0.60810745,0.0,4.314791,3.137035,-0.1486867,0.0,0.0,0.0,0.0,0.0,0.0,0.29582974,0.2174344,-0.57186353
105800000,7.403246,5.0483203,-9.618212,0.6081016,0.0,4.309899,3.1301105,-0.15271002,0.0,0.0,0.0,0.0,0.0,0.0,0.30172902,0.21957208,-0.5644864
105896000,7.722752,5.2687364,-9.625942,0.6081051,0.0,4.3065414,3.1294844,-0.1555134,0.0,0.0,0.0,0.0,0.0,0.0,0.3056717,0.22309017,-0.5590392
106012000,8.110543,5.5362244,-9.635067,0.6080922,0.0,4.313598,3.1291358,-0.16005851,0.0,0.0,0.0,0.0,0.0,0.0,0.306737,0.22408131,-0.55997694
106112000,8.445727,5.7674026,-9.642765,0.60808784,0.0,4.300286,3.1208377,-0.16562918,0.0,0.0,0.0,0.0,0.0,0.0,0.3013196,0.22058052,-0.56662893
106208000,8.768829,5.9903417,-9.649995,0.6080698,0.0,4.298021,3.1141193,-0.17299691,0.0,0.0,0.0,0.0,0.0,0.0,0.29860014,0.21876559,-0.57105285
106304000,9.0934925,6.2141175,-9.657104,0.6080498,0.0,4.2950826,3.1104858,-0.17998508,0.0,0.0,0.0,0.0,0.0,0.0,0.29884633,0.21870771,-0.5714341
106400000,9.41915,6.43888,-9.664067,0.6080188,0.0,4.2924705,3.1083684,-0.18669423,0.0,0.0,0.0,0.0,0.0,0.0,0.30043358,0.21913296,-0.56888413
106516000,9.814686,6.7116146,-9.672297,0.60798776,0.0,4.3025007,3.1089747,-0.19323784,0.0,0.0,0.0,0.0,0.0,0.0,0.3053184,0.22145933,-0.5668208
106612000,10.14254,6.937775,-9.678939,0.6079468,0.0,4.3010526,3.1072352,-0.1984635,0.0,0.0,0.0,0.0,0.0,0.0,0.3070457,0.22211911,-0.565563
106712000,10.484708,7.1737556,-9.685704,0.6078949,0.0,4.290488,3.095637,-0.20347628,0.0,0.0,0.0,0.0,0.0,0.0,0.3053405,0.22063509,-0.5646289
106808000,10.814034,7.4009013,-9.692035,0.607847,0.0,4.2905016,3.092207,-0.20970228,0.0,0.0,0.0,0.0,0.0,0.0,0.30444103,0.22084215,-0.5695852
106904000,11.1442795,7.628675,-9.698244,0.6078135,0.0,4.2901897,3.0896971,-0.21703821,0.0,0.0,0.0,0.0,0.0,0.0,0.30315125,0.22015986,-0.57097906
107000000,11.475073,7.856843,-9.7043495,0.60777664,0.0,4.288468,3.0859509,-0.22348797,0.0,0.0,0.0,0.0,0.0,0.0,0.3024887,0.2202049,-0.57184833
107116000,11.876481,8.133663,-9.711536,0.6077461,0.0,4.2998223,3.0911741,-0.23212756,0.0,0.0,0.0,0.0,0.0,0.0,0.30606753,0.22198835,-0.5711657
107212000,12.208868,8.362949,-9.717327,0.60771847,0.0,4.2976623,3.086912,-0.23816913,0.0,0.0,0.0,0.0,0.0,0.0,0.3072692,0.22208755,-0.5696881
107312000,12.555703,8.602142,-9.723228,0.6076912,0.0,4.288378,3.077635,-0.24375886,0.0,0.0,0.0,0.0,0.0,0.0,0.30719092,0.22051126,-0.5699669
107408000,12.889182,8.832196,-9.728766,0.6076501,0.0,4.286329,3.0743995,-0.24971706,0.0,0.0,0.0,0.0,0.0,0.0,0.30630293,0.22076702,-0.57101136
107504000,13.223572,9.062795,-9.734173,0.60761034,0.0,4.2889924,3.0722272,-0.25547287,0.0,0.0,0.0,0.0,0.0,0.0,0.30660364,0.22058137,-0.57188475
107600000,13.558277,9.29366,-9.739462,0.60756576,0.0,4.2859535,3.068958,-0.2610983,0.0,0.0,0.0,0.0,0.0,0.0,0.30635428,0.21926889,-0.5714657
107716000,13.963998,9.573475,-9.745701,0.607528,0.0,4.3001833,3.0746248,-0.26857737,0.0,0.0,0.0,0.0,0.0,0.0,0.30927992,0.2216749,-0.57378834
107812000,14.299897,9.805158,-9.750728,0.607504,0.0,4.2974033,3.070553,-0.27378866,0.0,0.0,0.0,0.0,0.0,0.0,0.30895227,0.22160298,-0.5725682
107912000,14.650355,10.046841,-9.755837,0.6074965,0.0,4.287586,3.0621727,-0.28012967,0.0,0.0,0.0,0.0,0.0,0.0,0.30702335,0.22097093,-0.5735628
108008000,14.987505,10.279316,-9.760629,0.6074873,0.0,4.2851186,3.0580142,-0.28616136,0.0,0.0,0.0,0.0,0.0,0.0,0.3070228,0.22168255,-0.57248384
108104000,15.325605,10.512503,-9.765298,0.607482,0.0,4.284941,3.056623,-0.29103306,0.0,0.0,0.0,0.0,0.0,0.0,0.30848762,0.22148159,-0.5723057
108200000,15.664124,10.745949,-9.769937,0.6074712,0.0,4.284197,3.0542772,-0.29688543,0.0,0.0,0.0,0.0,0.0,0.0,0.3087336,0.22046596,-0.5740812
108316000,16.07455,11.02896,-9.775236,0.6074768,0.0,4.2938914,3.0585496,-0.30175453,0.0,0.0,0.0,0.0,0.0,0.0,0.31069815,0.2220922,-0.5752599
108412000,16.414165,11.263196,-9.779612,0.60744023,0.0,4.2966247,3.0594063,-0.30432075,0.0,0.0,0.0,0.0,0.0,0.0,0.3109,0.22295225,-0.5730924
108512000,16.767183,11.50664,-9.784007,0.6074369,0.0,4.2878976,3.051762,-0.30715862,0.0,0.0,0.0,0.0,0.0,0.0,0.31023622,0.22271684,-0.57256705
108608000,17.10489,11.739536,-9.788083,0.60748065,0.0,4.295051,3.0556262,-0.30973902,0.0,0.0,0.0,0.0,0.0,0.0,0.3127586,0.22422726,-0.57300717
108704000,17.441238,11.971489,-9.792111,0.6075243,0.0,4.299041,3.0578673,-0.31130078,0.0,0.0,0.0,0.0,0.0,0.0,0.31292558,0.22485709,-0.5706953
108800000,17.77633,12.202563,-9.795985,0.6075958,0.0,4.303021,3.0610952,-0.31381476,0.0,0.0,0.0,0.0,0.0,0.0,0.31403896,0.22590983,-0.5729471
108896000,18.110443,12.432963,-9.799771,0.6076555,0.0,4.3063636,3.0628824,-0.31650108,0.0,0.0,0.0,0.0,0.0,0.0,0.31495953,0.22628437,-0.5732531
109012000,18.513523,12.710901,-9.804204,0.60779184,0.0,4.318907,3.0722823,-0.3190398,0.0,0.0,0.0,0.0,0.0,0.0,0.3167268,0.22768782,-0.573257
109112000,18.860033,12.949847,-9.807915,0.6079123,0.0,4.307016,3.0658002,-0.32130817,0.0,0.0,0.0,0.0,0.0,0.0,0.3138359,0.22693358,-0.5752684
109208000,19.192936,13.179396,-9.811389,0.6080492,0.0,4.3062677,3.0668461,-0.32368118,0.0,0.0,0.0,0.0,0.0,0.0,0.31414735,0.22682573,-0.57508045
109304000,19.526123,13.409147,-9.814797,0.6081479,0.0,4.30441,3.0659363,-0.3229708,0.0,0.0,0.0,0.0,0.0,0.0,0.31502026,0.22667032,-0.5722124
109400000,19.860008,13.6394205,-9.818093,0.6082301,0.0,4.301036,3.0638347,-0.32476315,0.0,0.0,0.0,0.0,0.0,0.0,0.31475955,0.22658409,-0.5745339
109516000,20.26484,13.918588,-9.82199,0.6083436,0.0,4.3091383,3.069973,-0.3251739,0.0,0.0,0.0,0.0,0.0,0.0,0.3161161,0.2281111,-0.576107
109612000,20.60061,14.1501255,-9.8252,0.60851365,0.0,4.3053293,3.068344,-0.32719594,0.0,0.0,0.0,0.0,0.0,0.0,0.31504336,0.22809312,-0.57753104
109712000,20.95099,14.391736,-9.828407,0.6087036,0.0,4.2897086,3.058408,-0.32774734,0.0,0.0,0.0,0.0,0.0,0.0,0.31256855,0.22676218,-0.5773784
109808000,21.288622,14.624554,-9.831409,0.608909,0.0,4.283378,3.058143,-0.32746777,0.0,0.0,0.0,0.0,0.0,0.0,0.3136329,0.22679758,-0.5764999
109904000,21.62698,14.857894,-9.83446,0.60907906,0.0,4.281942,3.0564268,-0.32623103,0.0,0.0,0.0,0.0,0.0,0.0,0.3142911,0.22742411,-0.5744486
110000000,21.966192,15.091809,-9.837323,0.6092805,0.0,4.2764077,3.0553977,-0.32593313,0.0,0.0,0.0,0.0,0.0,0.0,0.31474447,0.22834726,-0.57510054
110116000,22.3773,15.375287,-9.8407345,0.60949683,0.0,4.284527,3.0620768,-0.32438278,0.0,0.0,0.0,0.0,0.0,0.0,0.31636542,0.22994721,-0.5747693
110212000,22.718248,15.610387,-9.843488,0.60970837,0.0,4.280386,3.0600402,-0.32429707,0.0,0.0,0.0,0.0,0.0,0.0,0.3162826,0.22876489,-0.5768985
110312000,23.07405,15.855725,-9.8462925,0.6099053,0.0,4.2640467,3.0500963,-0.32312453,0.0,0.0,0.0,0.0,0.0,0.0,0.3126644,0.22737797,-0.5775888
110408000,23.41692,16.092125,-9.848927,0.61009717,0.0,4.2604814,3.04848,-0.32214212,0.0,0.0,0.0,0.0,0.0,0.0,0.31324074,0.22772904,-0.5778188
110504000,23.760553,16.329107,-9.851517,0.61029553,0.0,4.258365,3.0464108,-0.3201515,0.0,0.0,0.0,0.0,0.0,0.0,0.31333402,0.22838718,-0.5756099
110600000,24.10502,16.566605,-9.853962,0.61056554,0.0,4.25149,3.0449002,-0.3166213,0.0,0.0,0.0,0.0,0.0,0.0,0.31421775,0.22796114,-0.5752577
110716000,24.520191,16.853104,-9.857063,0.610883,0.0,4.198855,3.0181885,-0.3162024,0.0,0.0,0.0,0.0,0.0,0.0,0.30368197,0.22327398,-0.578564
110812000,24.858019,17.087158,-9.859358,0.61124295,0.0,4.093329,2.9550993,-0.31283498,0.0,0.0,0.0,0.0,0.0,0.0,0.2855305,0.21219891,-0.5857545
110912000,25.203033,17.326199,-9.861912,0.6115782,0.0,3.9551222,2.8600218,-0.31719974,0.0,0.0,0.0,0.0,0.0,0.0,0.26608282,0.19631982,-0.6004828
111008000,25.528336,17.551521,-9.864257,0.61186033,0.0,3.827651,2.7729774,-0.31531784,0.0,0.0,0.0,0.0,0.0,0.0,0.25501782,0.18698715,-0.60064024
111104000,25.84773,17.77254,-9.86655,0.6120823,0.0,3.7049942,2.6835935,-0.31693852,0.0,0.0,0.0,0.0,0.0,0.0,0.24841486,0.18027398,-0.59953135
111200000,26.161568,17.989082,-9.868691,0.6123259,0.0,3.587006,2.592818,-0.3145127,0.0,0.0,0.0,0.0,0.0,0.0,0.24599643,0.17468734,-0.59237325
111296000,26.469566,18.200645,-9.871002,0.61247504,0.0,3.4746456,2.5014079,-0.31574816,0.0,0.0,0.0,0.0,0.0,0.0,0.24397483,0.17019399,-0.5917709
111412000,26.833721,18.449146,-9.873651,0.6127411,0.0,3.3532398,2.397208,-0.31301588,0.0,0.0,0.0,0.0,0.0,0.0,0.2357367,0.16186474,-0.5926398
111512000,27.140162,18.656668,-9.875866,0.61299014,0.0,3.2399063,2.3071706,-0.3096945,0.0,0.0,0.0,0.0,0.0,0.0,0.22751032,0.15602529,-0.59296083
111608000,27.428284,18.852732,-9.878005,0.6133218,0.0,3.1416044,2.2646728,-0.3094998,0.0,0.0,0.0,0.0,0.0,0.0,0.22079045,0.15830185,-0.5959048
111704000,27.71997,19.05379,-9.879929,0.61363375,0.0,3.0466268,2.2264018,-0.30406588,0.0,0.0,0.0,0.0,0.0,0.0,0.21561581,0.15965864,-0.5901347
111800000,28.006414,19.252678,-9.882035,0.61399364,0.0,2.9433284,2.159948,-0.30511567,0.0,0.0,0.0,0.0,0.0,0.0,0.20939426,0.15340658,-0.5938246
111916000,28.341152,19.484835,-9.88437,0.6142936,0.0,2.8342388,2.077122,-0.29758233,0.0,0.0,0.0,0.0,0.0,0.0,0.20177892,0.14436045,-0.59105486
112012000,28.608562,19.669376,-9.886287,0.6145374,0.0,2.7398853,2.000066,-0.29734886,0.0,0.0,0.0,0.0,0.0,0.0,0.19676304,0.13548468,-0.5954843
112112000,28.880232,19.855574,-9.888232,0.614707,0.0,2.6367812,1.9117111,-0.29680276,0.0,0.0,0.0,0.0,0.0,0.0,0.19088677,0.12767754,-0.597642
112208000,29.134394,20.028717,-9.89011,0.6149077,0.0,2.5469625,1.8445007,-0.29004183,0.0,0.0,0.0,0.0,0.0,0.0,0.18668221,0.124498,-0.5898279
112304000,29.381569,20.197933,-9.891758,0.61505747,0.0,2.4736798,1.8066564,-0.2891066,0.0,0.0,0.0,0.0,0.0,0.0,0.18539427,0.12807348,-0.5923661
112400000,29.62255,20.364328,-9.893633,0.6153138,0.0,2.3951128,1.7652724,-0.28377646,0.0,0.0,0.0,0.0,0.0,0.0,0.18099749,0.12839325,-0.5878923
112516000,29.903881,20.559776,-9.8954935,0.61552817,0.0,2.2921944,1.6981317,-0.27952647,0.0,0.0,0.0,0.0,0.0,0.0,0.17184062,0.12146883,-0.5903339
112612000,30.12838,20.715296,-9.897247,0.61570084,0.0,2.2075436,1.6261392,-0.27470136,0.0,0.0,0.0,0.0,0.0,0.0,0.16572759,0.112348504,-0.5925582
112712000,30.355156,20.870947,-9.89887,0.61580956,0.0,2.1162724,1.5447158,-0.27376273,0.0,0.0,0.0,0.0,0.0,0.0,0.15968747,0.10417245,-0.5960051
112808000,30.566334,21.01529,-9.900436,0.6159654,0.0,2.041213,1.496,-0.26540372,0.0,0.0,0.0,0.0,0.0,0.0,0.15677755,0.10313761,-0.5907726
112904000,30.772303,21.157063,-9.901872,0.6160722,0.0,1.9766033,1.4604541,-0.26251337,0.0,0.0,0.0,0.0,0.0,0.0,0.15528089,0.10525785,-0.5906824
113000000,30.972723,21.29594,-9.903207,0.61632395,0.0,1.898635,1.4126295,-0.25673977,0.0,0.0,0.0,0.0,0.0,0.0,0.1507674,0.103323326,-0.586893
113116000,31.206017,21.457928,-9.90489,0.61650705,0.0,1.807605,1.3432815,-0.24956611,0.0,0.0,0.0,0.0,0.0,0.0,0.14240833,0.095676735,-0.58724463
113212000,31.392492,21.58628,-9.906267,0.61670154,0.0,1.7354447,1.2778592,-0.24503538,0.0,0.0,0.0,0.0,0.0,0.0,0.13704371,0.0886253,-0.5891419
113312000,31.580915,21.715435,-9.907555,0.6167945,0.0,1.658112,1.2295579,-0.23908225,0.0,0.0,0.0,0.0,0.0,0.0,0.13300927,0.086634144,-0.5900127
113408000,31.757322,21.837412,-9.908876,0.6169115,0.0,1.6028495,1.1975914,-0.23119965,0.0,0.0,0.0,0.0,0.0,0.0,0.1323365,0.0870433,-0.5857351
113504000,31.928986,21.956577,-9.910086,0.61690974,0.0,1.5345647,1.145615,-0.22822782,0.0,0.0,0.0,0.0,0.0,0.0,0.1279188,0.08360076,-0.58822256
113600000,32.095055,22.070864,-9.911249,0.6169812,0.0,1.4630009,1.0793606,-0.22016016,0.0,0.0,0.0,0.0,0.0,0.0,0.12238568,0.07584101,-0.58407056
113716000,32.289463,22.20353,-9.912763,0.61657745,0.0,1.4066263,1.0404937,-0.21713576,0.0,0.0,0.0,0.0,0.0,0.0,0.1214209,0.074328765,-0.58850265
113812000,32.445633,22.311714,-9.913862,0.61632466,0.0,1.3467965,1.0048091,-0.20721298,0.0,0.0,0.0,0.0,0.0,0.0,0.11765966,0.074035324,-0.58323544
113912000,32.603073,22.420513,-9.91506,0.6162752,0.0,1.2787378,0.9469811,-0.20318219,0.0,0.0,0.0,0.0,0.0,0.0,0.114031486,0.07002733,-0.5841389
114008000,32.74925,22.520823,-9.916019,0.61629593,0.0,1.2200038,0.90094334,-0.19560497,0.0,0.0,0.0,0.0,0.0,0.0,0.110099815,0.06619507,-0.58383924
114104000,32.89132,22.619005,-9.917112,0.6164459,0.0,1.1750269,0.87965006,-0.18919785,0.0,0.0,0.0,0.0,0.0,0.0,0.10794016,0.065978706,-0.58572996
114200000,33.029903,22.714886,-9.918122,0.6165592,0.0,1.1287135,0.8407638,-0.18188833,0.0,0.0,0.0,0.0,0.0,0.0,0.10601042,0.06397691,-0.58141714
114316000,33.192326,22.826696,-9.91928,0.61701417,0.0,1.0747676,0.7979254,-0.17340901,0.0,0.0,0.0,0.0,0.0,0.0,0.102405734,0.061494872,-0.58349603
114412000,33.322536,22.915878,-9.920219,0.6173823,0.0,1.026193,0.75921154,-0.16763578,0.0,0.0,0.0,0.0,0.0,0.0,0.099279895,0.058465175,-0.5833899
114512000,33.45378,23.005903,-9.921157,0.6179119,0.0,0.96210724,0.7248341,-0.16031277,0.0,0.0,0.0,0.0,0.0,0.0,0.09363039,0.057097975,-0.58190435
114608000,33.575317,23.090265,-9.92204,0.6185172,0.0,0.9121561,0.69621193,-0.1521826,0.0,0.0,0.0,0.0,0.0,0.0,0.08901307,0.056511078,-0.5802345
114704000,33.693554,23.172014,-9.92294,0.6194157,0.0,0.86901236,0.65901506,-0.14800738,0.0,0.0,0.0,0.0,0.0,0.0,0.08805784,0.053109206,-0.58258605
114800000,33.80855,23.25091,-9.923722,0.620094,0.0,0.82080185,0.62659335,-0.13666834,0.0,0.0,0.0,0.0,0.0,0.0,0.085347414,0.050540656,-0.57649964
114916000,33.94296,23.343916,-9.924702,0.62098205,0.0,0.774534,0.6044022,-0.13370804,0.0,0.0,0.0,0.0,0.0,0.0,0.082673006,0.0507562,-0.58259743
115012000,34.050568,23.418821,-9.925466,0.62168324,0.0,0.72902465,0.5711761,-0.12298857,0.0,0.0,0.0,0.0,0.0,0.0,0.07851637,0.047394738,-0.57698643
115112000,34.159264,23.493803,-9.92619,0.6225315,0.0,0.6813097,0.5317054,-0.12104586,0.0,0.0,0.0,0.0,0.0,0.0,0.07636205,0.04369191,-0.58284163
115208000,34.26093,23.563639,-9.926978,0.62311816,0.0,0.64645946,0.5093969,-0.11337732,0.0,0.0,0.0,0.0,0.0,0.0,0.075192936,0.04347372,-0.57900417
115304000,34.35977,23.63212,-9.9277525,0.62375295,0.0,0.6030967,0.48594582,-0.11088534,0.0,0.0,0.0,0.0,0.0,0.0,0.07188543,0.0439908,-0.5796963
115400000,34.455204,23.69832,-9.9284725,0.6242152,0.0,0.56131685,0.45029664,-0.101508155,0.0,0.0,0.0,0.0,0.0,0.0,0.0684469,0.04031977,-0.57609665
115516000,34.567238,23.775276,-9.929291,0.6248022,0.0,0.52359605,0.42460698,-0.0934854,0.0,0.0,0.0,0.0,0.0,0.0,0.0663871,0.037161484,-0.5756866
115612000,34.656586,23.837557,-9.930006,0.62506706,0.0,0.48228037,0.40184182,-0.087268665,0.0,0.0,0.0,0.0,0.0,0.0,0.06341783,0.036690004,-0.5773665
115712000,34.746834,23.900265,-9.930658,0.6253749,0.0,0.4491237,0.3718825,-0.08043386,0.0,0.0,0.0,0.0,0.0,0.0,0.06245307,0.03506504,-0.57716155
115808000,34.831566,23.958994,-9.931313,0.6255723,0.0,0.42046785,0.3495448,-0.069299065,0.0,0.0,0.0,0.0,0.0,0.0,0.06191232,0.034103796,-0.5721638
115904000,34.91399,24.01589,-9.93195,0.6259103,0.0,0.38922024,0.3234217,-0.06332677,0.0,0.0,0.0,0.0,0.0,0.0,0.05936972,0.032385737,-0.5758879
116000000,34.99405,24.070875,-9.932474,0.6260647,0.0,0.3573927,0.29809967,-0.051065877,0.0,0.0,0.0,0.0,0.0,0.0,0.056839652,0.029895633,-0.57214993
116116000,35.087082,24.135303,-9.933148,0.62651205,0.0,0.31755796,0.27466962,-0.04773797,0.0,0.0,0.0,0.0,0.0,0.0,0.05371979,0.028488003,-0.57745206
116212000,35.161545,24.186815,-9.933658,0.6268486,0.0,0.29049727,0.25475004,-0.036390625,0.0,0.0,0.0,0.0,0.0,0.0,0.052575752,0.027401187,-0.57087576
116312000,35.23714,24.239279,-9.934136,0.6273205,0.0,0.2663076,0.23558432,-0.033275425,0.0,0.0,0.0,0.0,0.0,0.0,0.052029572,0.02672723,-0.576472
116408000,35.307976,24.288229,-9.9347105,0.62793714,0.0,0.24045387,0.21606019,-0.02448601,0.0,0.0,0.0,0.0,0.0,0.0,0.05156415,0.026254058,-0.56996065
116504000,35.376686,24.33567,-9.935345,0.6289836,0.0,0.21376896,0.1973829,-0.017410096,0.0,0.0,0.0,0.0,0.0,0.0,0.049132735,0.025444217,-0.57141626
116600000,35.44326,24.381603,-9.935733,0.62971556,0.0,0.1873984,0.17815784,-0.008735143,0.0,0.0,0.0,0.0,0.0,0.0,0.0473269,0.023382261,-0.5720937
116716000,35.52101,24.435266,-9.93639,0.6268144,0.0,0.16378778,0.16061863,0.0002725036,0.0,0.0,0.0,0.0,0.0,0.0,0.04560727,0.021945618,-0.5695952
116812000,35.58256,24.478918,-9.93689,0.6833631,0.0,0.10618663,0.16342583,0.004838335,0.0,0.0,0.0,0.0,0.0,0.0,0.03771864,0.024564952,-0.572906
116912000,35.636604,24.526478,-9.937328,0.76190287,0.0,-0.05743155,0.19061351,0.013816811,0.0,0.0,0.0,0.0,0.0,0.0,0.008959234,0.031396814,-0.5678786
117008000,35.669674,24.575073,-9.937868,0.8373011,0.0,-0.3193711,0.22286236,0.017190155,0.0,0.0,0.0,0.0,0.0,0.0,-0.035750076,0.03630396,-0.56899774
117104000,35.67688,24.626589,-9.938236,0.9126993,0.0,-0.64430696,0.25743046,0.024029262,0.0,0.0,0.0,0.0,0.0,0.0,-0.08416557,0.03999293,-0.5632561
117200000,35.6602,24.675007,-9.938608,0.9880975,0.0,-0.95091194,0.28518543,0.030685944,0.0,0.0,0.0,0.0,0.0,0.0,-0.11590272,0.040152576,-0.5568298
117316000,35.633747,24.71241,-9.938863,1.0792038,0.0,-1.1916382,0.2897187,0.039642856,0.0,0.0,0.0,0.0,0.0,0.0,-0.119213626,0.03561791,-0.55501753
117412000,35.604572,24.742672,-9.939065,1.1546023,0.0,-1.3741081,0.28966963,0.04833369,0.0,0.0,0.0,0.0,0.0,0.0,-0.11487351,0.03448684,-0.5605077
117512000,35.567936,24.773775,-9.939266,1.2331424,0.0,-1.5468812,0.28715596,0.05662398,0.0,0.0,0.0,0.0,0.0,0.0,-0.109539196,0.034243442,-0.5642368
117608000,35.527103,24.803486,-9.939453,1.3085408,0.0,-1.6991246,0.28554103,0.063612506,0.0,0.0,0.0,0.0,0.0,0.0,-0.11388244,0.034166027,-0.56475466
117704000,35.48081,24.833279,-9.939636,1.3839393,0.0,-1.8415008,0.28403336,0.07026248,0.0,0.0,0.0,0.0,0.0,0.0,-0.11999841,0.034385104,-0.564176
117800000,35.429012,24.863274,-9.939808,1.4593377,0.0,-1.9759951,0.2767433,0.07679922,0.0,0.0,0.0,0.0,0.0,0.0,-0.12747005,0.03391221,-0.5663971
117896000,35.371532,24.893278,-9.93998,1.5347362,0.0,-2.1047776,0.2631593,0.08170938,0.0,0.0,0.0,0.0,0.0,0.0,-0.13324377,0.031245992,-0.5665013
118012000,35.294163,24.929485,-9.94018,1.6258426,0.0,-2.2570508,0.24337387,0.0864947,0.0,0.0,0.0,0.0,0.0,0.0,-0.14385287,0.02975025,-0.5689399
118112000,35.220127,24.960627,-9.940355,1.7043827,0.0,-2.3795426,0.22027227,0.09121776,0.0,0.0,0.0,0.0,0.0,0.0,-0.1460236,0.029889233,-0.56897485
118208000,35.142235,24.990414,-9.940517,1.7797811,0.0,-2.4978325,0.19702876,0.09557308,0.0,0.0,0.0,0.0,0.0,0.0,-0.15362033,0.02890402,-0.57125366
118304000,35.05734,25.020016,-9.940682,1.8551795,0.0,-2.6081276,0.1714735,0.09909138,0.0,0.0,0.0,0.0,0.0,0.0,-0.15864426,0.028345913,-0.5706207
118400000,34.965763,25.049314,-9.940844,1.930578,0.0,-2.6964138,0.14246222,0.10419257,0.0,0.0,0.0,0.0,0.0,0.0,-0.1612326,0.027014874,-0.57068104
118516000,34.846924,25.08414,-9.941043,2.0216844,0.0,-2.7765203,0.104316056,0.10932746,0.0,0.0,0.0,0.0,0.0,0.0,-0.1617415,0.02457337,-0.5729711
118612000,34.742615,25.112194,-9.941201,2.0970829,0.0,-2.812439,0.064533055,0.112054884,0.0,0.0,0.0,0.0,0.0,0.0,-0.15639988,0.022029623,-0.5791911
118712000,34.628986,25.140442,-9.941377,2.175623,0.0,-2.81766,0.021459103,0.11437648,0.0,0.0,0.0,0.0,0.0,0.0,-0.14698318,0.02134987,-0.5803865
118808000,34.51606,25.166574,-9.941543,2.2510214,0.0,-2.8015926,-0.017718315,0.11582114,0.0,0.0,0.0,0.0,0.0,0.0,-0.14029658,0.02049303,-0.5823653
118904000,34.400608,25.191639,-9.941712,2.3264198,0.0,-2.7608235,-0.056506664,0.11725331,0.0,0.0,0.0,0.0,0.0,0.0,-0.1331217,0.018855907,-0.5832879
119000000,34.284393,25.215466,-9.94188,2.4018183,0.0,-2.694435,-0.0953055,0.11938089,0.0,0.0,0.0,0.0,0.0,0.0,-0.12335514,0.017354012,-0.5820535
119096000,34.168888,25.238012,-9.942046,2.4772167,0.0,-2.5981734,-0.12957764,0.122045405,0.0,0.0,0.0,0.0,0.0,0.0,-0.11103781,0.01802595,-0.58433634
119212000,34.032604,25.264557,-9.942253,2.5683231,0.0,-2.4604673,-0.14222899,0.12552623,0.0,0.0,0.0,0.0,0.0,0.0,-0.09387306,0.021480173,-0.58344966
119312000,33.918293,25.28773,-9.942427,2.6468632,0.0,-2.3428779,-0.14789444,0.12914935,0.0,0.0,0.0,0.0,0.0,0.0,-0.08568783,0.027344387,-0.583153
119408000,33.81067,25.310139,-9.942593,2.7222617,0.0,-2.2513273,-0.15641382,0.13385105,0.0,0.0,0.0,0.0,0.0,0.0,-0.08408823,0.029122632,-0.5809591
119504000,33.70452,25.332388,-9.942763,2.79766,0.0,-2.1742492,-0.16959712,0.13809477,0.0,0.0,0.0,0.0,0.0,0.0,-0.08460259,0.02834212,-0.5808689
119600000,33.59968,25.35402,-9.942933,2.8730586,0.0,-2.108989,-0.19108173,0.14324321,0.0,0.0,0.0,0.0,0.0,0.0,-0.0873764,0.026046932,-0.5786275
119716000,33.474518,25.378902,-9.943132,2.964165,0.0,-2.0423596,-0.2180636,0.15014547,0.0,0.0,0.0,0.0,0.0,0.0,-0.08675469,0.022736046,-0.5771665
119812000,33.372456,25.398321,-9.9432955,3.0395634,0.0,-1.9884198,-0.242659,0.15661298,0.0,0.0,0.0,0.0,0.0,0.0,-0.086732104,0.02112287,-0.5751555
119912000,33.267586,25.417715,-9.943463,3.1181035,0.0,-1.9306288,-0.25471678,0.1628739,0.0,0.0,0.0,0.0,0.0,0.0,-0.0850871,0.021539632,-0.5756204
120008000,33.168556,25.436163,-9.943622,-3.102854,0.0,-1.8798187,-0.26412135,0.16886221,0.0,0.0,0.0,0.0,0.0,0.0,-0.08452282,0.023455095,-0.5748255
120104000,33.071003,25.454113,-9.94378,-3.0979543,0.0,-1.8325213,-0.28211603,0.17382753,0.0,0.0,0.0,0.0,0.0,0.0,-0.08357913,0.022276282,-0.5739602
120200000,32.975147,25.471184,-9.943933,-3.092413,0.0,-1.7858344,-0.30350196,0.17967755,0.0,0.0,0.0,0.0,0.0,0.0,-0.08288247,0.018739372,-0.5748211
120316000,32.861526,25.490688,-9.944121,-3.086093,0.0,-1.7334536,-0.32478592,0.18496138,0.0,0.0,0.0,0.0,0.0,0.0,-0.08081031,0.01539024,-0.5748427
120412000,32.76978,25.50629,-9.944267,-3.0801265,0.0,-1.6870791,-0.3355775,0.18954992,0.0,0.0,0.0,0.0,0.0,0.0,-0.07922375,0.014088891,-0.5739567
120512000,32.67617,25.522203,-9.94442,-3.073597,0.0,-1.6355141,-0.35148886,0.19356641,0.0,0.0,0.0,0.0,0.0,0.0,-0.07728546,0.012249261,-0.57332414
120608000,32.57692,25.538704,-9.944579,-3.0669842,0.0,-1.5982349,-0.3715762,0.19685765,0.0,0.0,0.0,0.0,0.0,0.0,-0.07684714,0.009629607,-0.5756006
120704000,32.47966,25.55429,-9.944731,-3.0605953,0.0,-1.5628245,-0.39101267,0.19999619,0.0,0.0,0.0,0.0,0.0,0.0,-0.07579422,0.008044913,-0.5739237
120800000,32.362206,25.572405,-9.944919,-3.0535178,0.0,-1.5316302,-0.4087947,0.2039177,0.0,0.0,0.0,0.0,0.0,0.0,-0.07575822,0.0064471513,-0.57246614
120916000,32.231438,25.592436,-9.945134,-3.0456612,0.0,-1.49581,-0.41982055,0.20581646,0.0,0.0,0.0,0.0,0.0,0.0,-0.074270666,0.006899275,-0.5747414
121012000,32.131348,25.607609,-9.945304,-3.0383484,0.0,-1.4603165,-0.4348603,0.20719166,0.0,0.0,0.0,0.0,0.0,0.0,-0.07255179,0.006275095,-0.5737735
121112000,32.030693,25.622492,-9.945477,-3.0307455,0.0,-1.4184783,-0.45165962,0.20831732,0.0,0.0,0.0,0.0,0.0,0.0,-0.06984259,0.003050439,-0.5736022
121208000,31.924784,25.63757,-9.945661,-3.0232239,0.0,-1.3918893,-0.46824342,0.20819522,0.0,0.0,0.0,0.0,0.0,0.0,-0.069575995,0.00087843835,-0.5743773
121304000,31.82139,25.651712,-9.945818,-3.0162463,0.0,-1.3593298,-0.4822689,0.2062546,0.0,0.0,0.0,0.0,0.0,0.0,-0.06704444,0.0003284961,-0.5743714
121400000,31.720999,25.665049,-9.945973,-3.008645,0.0,-1.3202592,-0.49537802,0.20457804,0.0,0.0,0.0,0.0,0.0,0.0,-0.06439486,-0.0016415492,-0.5738501
121496000,31.6332,25.676487,-9.946113,-3.0019019,0.0,-1.2867581,-0.50400007,0.20135748,0.0,0.0,0.0,0.0,0.0,0.0,-0.061937712,-0.002740927,-0.57595736
121612000,31.50503,25.692936,-9.946322,-2.992706,0.0,-1.2544646,-0.5149733,0.20018065,0.0,0.0,0.0,0.0,0.0,0.0,-0.06151478,-0.0035236627,-0.5740103
121712000,31.409857,25.704922,-9.946483,-2.9849813,0.0,-1.2222619,-0.5223294,0.1985203,0.0,0.0,0.0,0.0,0.0,0.0,-0.060351986,-0.0041277185,-0.5735034
121808000,31.319914,25.716045,-9.946638,-2.977502,0.0,-1.1884516,-0.5321036,0.19709551,0.0,0.0,0.0,0.0,0.0,0.0,-0.058209136,-0.005057305,-0.5727832
121904000,31.232048,25.726503,-9.94676,-2.9706802,0.0,-1.1569403,-0.5402358,0.19512887,0.0,0.0,0.0,0.0,0.0,0.0,-0.05709082,-0.008126557,-0.57421327
122000000,31.137844,25.737267,-9.946978,-2.963056,0.0,-1.1249567,-0.5495845,0.19213681,0.0,0.0,0.0,0.0,0.0,0.0,-0.054547973,-0.008849889,-0.57225597
122116000,31.03452,25.748777,-9.947058,-2.955336,0.0,-1.092407,-0.55162305,0.18950881,0.0,0.0,0.0,0.0,0.0,0.0,-0.051913016,-0.008802213,-0.5736121
122212000,30.945667,25.758505,-9.947386,-2.9485662,0.0,-1.0646857,-0.55565107,0.18555507,0.0,0.0,0.0,0.0,0.0,0.0,-0.0505743,-0.00885921,-0.5734816
122312000,30.864784,25.767021,-9.947388,-2.9419923,0.0,-1.0291454,-0.5584799,0.18566385,0.0,0.0,0.0,0.0,0.0,0.0,-0.047669683,-0.009263493,-0.57039917
122408000,30.780163,25.77565,-9.947512,-2.9356704,0.0,-1.006146,-0.5572905,0.17778347,0.0,0.0,0.0,0.0,0.0,0.0,-0.0474242,-0.009476237,-0.57474136
122504000,30.697739,25.784039,-9.947667,-2.9301877,0.0,-0.97795945,-0.5556472,0.17625304,0.0,0.0,0.0,0.0,0.0,0.0,-0.045895666,-0.008979589,-0.5710796
122600000,30.617193,25.791813,-9.947777,-2.9241962,0.0,-0.95469624,-0.55763257,0.1715815,0.0,0.0,0.0,0.0,0.0,0.0,-0.04579509,-0.008759815,-0.572256
122716000,30.521618,25.800753,-9.947948,-2.918133,0.0,-0.92354804,-0.5516432,0.16675036,0.0,0.0,0.0,0.0,0.0,0.0,-0.043223903,-0.009539481,-0.57022494
122812000,30.445774,25.807816,-9.948105,-2.912366,0.0,-0.8994439,-0.54938334,0.16219065,0.0,0.0,0.0,0.0,0.0,0.0,-0.041944627,-0.009620283,-0.5723588
122912000,30.370132,25.814592,-9.948139,-2.9067855,0.0,-0.8711148,-0.5470016,0.15553452,0.0,0.0,0.0,0.0,0.0,0.0,-0.04026806,-0.0101654045,-0.57266366
123008000,30.298042,25.820768,-9.94829,-2.9012816,0.0,-0.8494535,-0.5442195,0.15177272,0.0,0.0,0.0,0.0,0.0,0.0,-0.038807925,-0.010152414,-0.5716418
123104000,30.227928,25.826572,-9.948387,-2.8965821,0.0,-0.8222228,-0.5400773,0.1477213,0.0,0.0,0.0,0.0,0.0,0.0,-0.03756856,-0.009917218,-0.5712454
123200000,30.159983,25.83213,-9.948368,-2.8913004,0.0,-0.8002983,-0.5334423,0.13898048,0.0,0.0,0.0,0.0,0.0,0.0,-0.03705734,-0.008730009,-0.57399184
123316000,30.07916,25.838669,-9.948494,-2.8862927,0.0,-0.7752912,-0.52822745,0.13570277,0.0,0.0,0.0,0.0,0.0,0.0,-0.035632752,-0.009069383,-0.56969094
123412000,30.014717,25.843456,-9.948581,-2.8815985,0.0,-0.7548637,-0.5231206,0.12731476,0.0,0.0,0.0,0.0,0.0,0.0,-0.035018787,-0.009167641,-0.5728055
123512000,29.950474,25.848297,-9.948643,-2.8771932,0.0,-0.72850627,-0.5141294,0.12500042,0.0,0.0,0.0,0.0,0.0,0.0,-0.032913167,-0.009295404,-0.5681048
123608000,29.889532,25.852789,-9.948688,-2.872756,0.0,-0.7065817,-0.50804174,0.11726619,0.0,0.0,0.0,0.0,0.0,0.0,-0.031471495,-0.009135604,-0.57196635
123704000,29.830269,25.857033,-9.948786,-2.8690653,0.0,-0.6898168,-0.5008971,0.11287873,0.0,0.0,0.0,0.0,0.0,0.0,-0.030939624,-0.008429345,-0.5713158
123800000,29.772589,25.861055,-9.948861,-2.864656,0.0,-0.6672641,-0.4945408,0.10833291,0.0,0.0,0.0,0.0,0.0,0.0,-0.028993528,-0.008369371,-0.56994796
123916000,29.708273,25.8654,-9.948958,-2.8627145,0.0,-0.65372723,-0.4837184,0.10013637,0.0,0.0,0.0,0.0,0.0,0.0,-0.031063523,-0.0065755397,-0.57214445
124012000,29.661194,25.868458,-9.949033,-2.8610334,0.0,-0.63746494,-0.47489116,0.09591181,0.0,0.0,0.0,0.0,0.0,0.0,-0.03129218,-0.00581526,-0.5685841
124112000,29.609978,25.871693,-9.949138,-2.8583252,0.0,-0.61622465,-0.46668184,0.08780071,0.0,0.0,0.0,0.0,0.0,0.0,-0.030025259,-0.006437566,-0.5699551
124208000,29.564928,25.874424,-9.94921,-2.8572395,0.0,-0.59978646,-0.45938513,0.08292447,0.0,0.0,0.0,0.0,0.0,0.0,-0.027233195,-0.006843511,-0.5709068
124304000,29.51764,25.87721,-9.949295,-2.8603811,0.0,-0.58207136,-0.451859,0.0779852,0.0,0.0,0.0,0.0,0.0,0.0,-0.025246527,-0.006426979,-0.5705998
124400000,29.470293,25.880033,-9.949373,-2.9357796,0.0,-0.60842544,-0.44122663,0.07275906,0.0,0.0,0.0,0.0,0.0,0.0,-0.033474814,-0.005881492,-0.5687596
124496000,29.421448,25.882753,-9.949446,-3.011178,0.0,-0.6985218,-0.431276,0.06868115,0.0,0.0,0.0,0.0,0.0,0.0,-0.05303686,-0.00512065,-0.5652449
124612000,29.360447,25.885662,-9.949519,-3.1022844,0.0,-0.86415374,-0.4196032,0.06541005,0.0,0.0,0.0,0.0,0.0,0.0,-0.082502976,-0.0058851577,-0.5617676
124712000,29.294674,25.888258,-9.949583,-3.1256876,0.0,-1.0664661,-0.4102304,0.062855154,0.0,0.0,0.0,0.0,0.0,0.0,-0.112650335,-0.0074825212,-0.55941975
124808000,29.21719,25.890833,-9.949648,-3.1258762,0.0,-1.2903411,-0.40161994,0.060111437,0.0,0.0,0.0,0.0,0.0,0.0,-0.13929282,-0.0064044483,-0.5579838
124904000,29.12507,25.893475,-9.949713,-3.1260364,0.0,-1.5219228,-0.39341524,0.05681077,0.0,0.0,0.0,0.0,0.0,0.0,-0.16080973,-0.006535515,-0.5579197
125000000,29.018276,25.896185,-9.949778,-3.126206,0.0,-1.7587881,-0.38493526,0.053535853,0.0,0.0,0.0,0.0,0.0,0.0,-0.1765249,-0.004970707,-0.5572575
125096000,28.897017,25.898956,-9.949842,-3.12635,0.0,-1.9954871,-0.3770154,0.05082265,0.0,0.0,0.0,0.0,0.0,0.0,-0.19147661,-0.002975393,-0.55968595
125212000,28.731424,25.902386,-9.949921,-3.1265545,0.0,-2.286341,-0.36633837,0.047860537,0.0,0.0,0.0,0.0,0.0,0.0,-0.21384962,-0.0014864802,-0.55893767
125312000,28.57233,25.905346,-9.949988,-3.126746,0.0,-2.5283163,-0.3583711,0.046095286,0.0,0.0,0.0,0.0,0.0,0.0,-0.22506914,-0.0009932965,-0.55655193
125408000,28.40568,25.9081,-9.950051,-3.1268995,0.0,-2.763063,-0.3515674,0.04495946,0.0,0.0,0.0,0.0,0.0,0.0,-0.23954016,-0.0016042702,-0.55630904
125504000,28.22597,25.91076,-9.950095,-3.1270216,0.0,-2.994761,-0.34579283,0.04385515,0.0,0.0,0.0,0.0,0.0,0.0,-0.2534502,-0.0014821999,-0.5573547
125600000,28.03354,25.913328,-9.950147,-3.1271367,0.0,-3.2227445,-0.33975765,0.041732505,0.0,0.0,0.0,0.0,0.0,0.0,-0.26493078,-0.0031456202,-0.5586951
125696000,27.828518,25.915808,-9.9501915,-3.127236,0.0,-3.4451885,-0.3344713,0.03904538,0.0,0.0,0.0,0.0,0.0,0.0,-0.27605045,-0.0032358207,-0.55837494
125812000,27.563915,25.918692,-9.950247,-3.1273484,0.0,-3.715713,-0.32774884,0.03459086,0.0,0.0,0.0,0.0,0.0,0.0,-0.29465187,-0.0024959408,-0.5617972
125912000,27.320923,25.92108,-9.950298,-3.127445,0.0,-3.9302456,-0.3217637,0.029730508,0.0,0.0,0.0,0.0,0.0,0.0,-0.2991293,-0.0024196096,-0.56174016
126008000,27.074203,25.923296,-9.950338,-3.127538,0.0,-4.1405144,-0.3162938,0.023818359,0.0,0.0,0.0,0.0,0.0,0.0,-0.3117144,-0.0025217757,-0.56353337
126104000,26.814173,25.925386,-9.950369,-3.1276019,0.0,-4.3484783,-0.31301665,0.018403515,0.0,0.0,0.0,0.0,0.0,0.0,-0.32213423,-0.0030368492,-0.56153786
126200000,26.540678,25.927282,-9.950417,-3.1276488,0.0,-4.554746,-0.3100919,0.013211786,0.0,0.0,0.0,0.0,0.0,0.0,-0.33328888,-0.0027394034,-0.56192803
126296000,26.253304,25.928986,-9.950455,-3.1276658,0.0,-4.758526,-0.30810732,0.008655268,0.0,0.0,0.0,0.0,0.0,0.0,-0.3434868,-0.0038027242,-0.5629656
126412000,25.886936,25.930775,-9.950504,-3.127683,0.0,-5.0121746,-0.30587286,0.0032381078,0.0,0.0,0.0,0.0,0.0,0.0,-0.3616785,-0.0033939779,-0.5624568
126512000,25.555134,25.93204,-9.950546,-3.1276786,0.0,-5.1731668,-0.30612576,-0.0019037288,0.0,0.0,0.0,0.0,0.0,0.0,-0.3586756,-0.004998382,-0.5646124
126608000,25.224663,25.93292,-9.950582,-3.1276488,0.0,-5.288329,-0.3072789,-0.006175503,0.0,0.0,0.0,0.0,0.0,0.0,-0.35336983,-0.005604204,-0.5692187
126704000,24.884827,25.933443,-9.950621,-3.127589,0.0,-5.3525567,-0.31045914,-0.01075572,0.0,0.0,0.0,0.0,0.0,0.0,-0.34210715,-0.0059996434,-0.5782194
126800000,24.53794,25.933495,-9.950672,-3.1275423,0.0,-5.3669944,-0.3144734,-0.015994973,0.0,0.0,0.0,0.0,0.0,0.0,-0.32837397,-0.006889995,-0.58604115
126916000,24.11224,25.93297,-9.950707,-3.127462,0.0,-5.3398457,-0.31535554,-0.023019295,0.0,0.0,0.0,0.0,0.0,0.0,-0.3172267,-0.006543517,-0.59237427
127012000,23.7557,25.932718,-9.950749,-3.127407,0.0,-5.3168654,-0.30827808,-0.030600162,0.0,0.0,0.0,0.0,0.0,0.0,-0.31501275,-0.005178433,-0.593435
127112000,23.379137,25.932465,-9.950784,-3.12734,0.0,-5.283878,-0.30872962,-0.03728849,0.0,0.0,0.0,0.0,0.0,0.0,-0.31726632,-0.0059544295,-0.5874777
127208000,23.013332,25.93198,-9.950815,-3.1272817,0.0,-5.2667894,-0.30650494,-0.042712886,0.0,0.0,0.0,0.0,0.0,0.0,-0.32239667,-0.0060817637,-0.5825056
127304000,22.644142,25.931679,-9.950845,-3.127186,0.0,-5.2540317,-0.30297488,-0.046835974,0.0,0.0,0.0,0.0,0.0,0.0,-0.32291758,-0.0054872744,-0.581542
127400000,22.272354,25.931196,-9.950887,-3.127112,0.0,-5.2420926,-0.3024341,-0.051597875,0.0,0.0,0.0,0.0,0.0,0.0,-0.32015634,-0.0063072406,-0.5849363
127516000,21.81956,25.930834,-9.950922,-3.1270134,0.0,-5.2441936,-0.295217,-0.056389872,0.0,0.0,0.0,0.0,0.0,0.0,-0.31853506,-0.003858041,-0.58842987
127612000,21.442516,25.930527,-9.950958,-3.126932,0.0,-5.2336264,-0.29644275,-0.059149735,0.0,0.0,0.0,0.0,0.0,0.0,-0.31673694,-0.004423462,-0.5896818
127712000,21.047716,25.930069,-9.950988,-3.1268065,0.0,-5.211012,-0.29216594,-0.06254221,0.0,0.0,0.0,0.0,0.0,0.0,-0.31482327,-0.0052548833,-0.5889594
127808000,20.666636,25.929848,-9.951028,-3.126682,0.0,-5.203066,-0.28979737,-0.06461263,0.0,0.0,0.0,0.0,0.0,0.0,-0.31749,-0.006795116,-0.58534795
127904000,20.28401,25.929499,-9.951058,-3.1265268,0.0,-5.195222,-0.28917155,-0.065781444,0.0,0.0,0.0,0.0,0.0,0.0,-0.31836838,-0.0076556057,-0.5840781
127999999,19.900103,25.92924,-9.951089,-3.1263928,0.0,-5.1908383,-0.28710437,-0.06628439,0.0,0.0,0.0,0.0,0.0,0.0,-0.3190614,-0.0065344907,-0.5842334
128116000,19.434511,25.92887,-9.951124,-3.1262136,0.0,-5.198267,-0.2845654,-0.06577409,0.0,0.0,0.0,0.0,0.0,0.0,-0.32046872,-0.0051703937,-0.5837505
128212000,19.04814,25.928566,-9.951177,-3.1260939,0.0,-5.1942377,-0.28282657,-0.06814629,0.0,0.0,0.0,0.0,0.0,0.0,-0.31960887,-0.0061796904,-0.58752733
128312000,18.644773,25.928276,-9.951183,-3.1259255,0.0,-5.1771,-0.2807488,-0.06640815,0.0,0.0,0.0,0.0,0.0,0.0,-0.31585598,-0.00728048,-0.5864061
128408000,18.255941,25.92798,-9.9511795,-3.1258156,0.0,-5.17621,-0.2771892,-0.070567146,0.0,0.0,0.0,0.0,0.0,0.0,-0.31872228,-0.0064633936,-0.58846015
128504000,17.865658,25.927908,-9.951395,-3.1256728,0.0,-5.175588,-0.27287883,-0.07009769,0.0,0.0,0.0,0.0,0.0,0.0,-0.31952193,-0.005956333,-0.5834687
128620000,17.393167,25.927368,-9.951459,-3.1255422,0.0,-5.1881685,-0.2746509,-0.07311881,0.0,0.0,0.0,0.0,0.0,0.0,-0.32212257,-0.0059176236,-0.5848082
128719999,16.985687,25.92711,-9.951493,-3.1254385,0.0,-5.169457,-0.26681665,-0.071884185,0.0,0.0,0.0,0.0,0.0,0.0,-0.31747234,-0.0048285313,-0.58735776
128816000,16.593298,25.926867,-9.951544,-3.125321,0.0,-5.171574,-0.26794755,-0.0757582,0.0,0.0,0.0,0.0,0.0,0.0,-0.31707284,-0.005287206,-0.5897015
128912000,16.200085,25.926405,-9.951591,-3.125146,0.0,-5.169762,-0.2648386,-0.07392981,0.0,0.0,0.0,0.0,0.0,0.0,-0.3174925,-0.0060845893,-0.5854102
129028000,15.723889,25.926037,-9.951613,-3.1250017,0.0,-5.1826186,-0.26207447,-0.07492451,0.0,0.0,0.0,0.0,0.0,0.0,-0.32146794,-0.0051587,-0.5865124
129104000,15.411632,25.92584,-9.951634,-3.1249049,0.0,-5.170968,-0.2582256,-0.07474303,0.0,0.0,0.0,0.0,0.0,0.0,-0.32038125,-0.004788896,-0.5852438
129224000,14.9161825,25.925293,-9.951769,-3.1247945,0.0,-5.172632,-0.257042,-0.07826238,0.0,0.0,0.0,0.0,0.0,0.0,-0.3228864,-0.005439911,-0.5865372
129320000,14.519357,25.924746,-9.952033,-3.1246743,0.0,-5.1725698,-0.25010338,-0.07572344,0.0,0.0,0.0,0.0,0.0,0.0,-0.3206896,-0.0044937525,-0.5827594
129415999,14.1224165,25.924698,-9.952039,-3.1245794,0.0,-5.1750813,-0.2447609,-0.07721818,0.0,0.0,0.0,0.0,0.0,0.0,-0.32027367,-0.0029943772,-0.58816594
129532000,13.641417,25.924307,-9.952052,-3.1244295,0.0,-5.1911597,-0.24308772,-0.078868985,0.0,0.0,0.0,0.0,0.0,0.0,-0.32356137,-0.0039424896,-0.58847827
129628000,13.242831,25.92412,-9.952031,-3.1242945,0.0,-5.191719,-0.23785564,-0.079345435,0.0,0.0,0.0,0.0,0.0,0.0,-0.3247298,-0.0034261849,-0.58854026
129728000,12.827333,25.9238,-9.95209,-3.1240857,0.0,-5.1814823,-0.23716217,-0.0796447,0.0,0.0,0.0,0.0,0.0,0.0,-0.3231992,-0.003579544,-0.58638513
129824000,12.42775,25.923624,-9.952095,-3.123977,0.0,-5.1810703,-0.22971226,-0.080686405,0.0,0.0,0.0,0.0,0.0,0.0,-0.322758,-0.0018085595,-0.5863838
129920000,12.028575,25.92356,-9.952143,-3.1238658,0.0,-5.1433716,-0.22604604,-0.07684483,0.0,0.0,0.0,0.0,0.0,0.0,-0.31775782,-0.001760941,-0.5858728
130040000,11.537831,25.92346,-9.952132,-3.123516,0.0,-5.0483675,-0.22403404,-0.08171561,0.0,0.0,0.0,0.0,0.0,0.0,-0.30035406,-0.0026601069,-0.59658694
130135999,11.155269,25.923368,-9.952196,-3.1231925,0.0,-4.8933783,-0.22213842,-0.07708985,0.0,0.0,0.0,0.0,0.0,0.0,-0.2753832,-0.0023192372,-0.6005817
130231999,10.780549,25.923267,-9.952165,-3.1229832,0.0,-4.7581773,-0.21907014,-0.080434285,0.0,0.0,0.0,0.0,0.0,0.0,-0.26262408,-0.0016334653,-0.60622835
130328000,10.4128895,25.923153,-9.952276,-3.1227856,0.0,-4.629706,-0.2160134,-0.07929956,0.0,0.0,0.0,0.0,0.0,0.0,-0.25846514,-0.0010575559,-0.6023871
130424000,10.053011,25.923027,-9.952109,-3.1225057,0.0,-4.5047483,-0.2138087,-0.079069234,0.0,0.0,0.0,0.0,0.0,0.0,-0.25822568,-0.0013874937,-0.5953286
130540000,9.628516,25.922861,-9.9521475,-3.1221929,0.0,-4.3737955,-0.21113135,-0.08097,0.0,0.0,0.0,0.0,0.0,0.0,-0.25547063,-0.00035420246,-0.5932604
130640000,9.272168,25.922707,-9.952095,-3.1218698,0.0,-4.2429976,-0.20924135,-0.079994954,0.0,0.0,0.0,0.0,0.0,0.0,-0.23430002,-0.0009991843,-0.59360355
130736000,8.937123,25.922544,-9.952277,-3.1215699,0.0,-4.1345787,-0.20751913,-0.07867604,0.0,0.0,0.0,0.0,0.0,0.0,-0.22892556,-0.0014360957,-0.59777373
130832000,8.610182,25.922373,-9.952335,-3.121099,0.0,-4.0248823,-0.20677243,-0.08053146,0.0,0.0,0.0,0.0,0.0,0.0,-0.2365493,-0.0014080163,-0.60027105
130948000,8.225631,25.922148,-9.952347,-3.1206076,0.0,-3.9035394,-0.20573182,-0.074343994,0.0,0.0,0.0,0.0,0.0,0.0,-0.23314181,-0.0017019864,-0.5879847
131047999,7.903203,25.921946,-9.952315,-3.1200635,0.0,-3.782261,-0.205536,-0.07661877,0.0,0.0,0.0,0.0,0.0,0.0,-0.22742626,-0.0028700884,-0.5924356
131144000,7.601191,25.921736,-9.952295,-3.1195464,0.0,-3.676438,-0.20532434,-0.07301679,0.0,0.0,0.0,0.0,0.0,0.0,-0.21851024,-0.0030452237,-0.59287316
131240000,7.3065515,25.921513,-9.9522915,-3.1189911,0.0,-3.5726492,-0.20531124,-0.074862026,0.0,0.0,0.0,0.0,0.0,0.0,-0.21026757,-0.002535779,-0.5967406
131336000,7.018828,25.92128,-9.952304,-3.1184978,0.0,-3.4703176,-0.20454626,-0.073956475,0.0,0.0,0.0,0.0,0.0,0.0,-0.20363608,-0.0029106513,-0.59565896
131432000,6.738048,25.921036,-9.952289,-3.1179016,0.0,-3.3693314,-0.20502047,-0.07301075,0.0,0.0,0.0,0.0,0.0,0.0,-0.18648495,-0.0033280458,-0.59376633
131552000,6.387337,25.920704,-9.952178,-3.1172292,0.0,-3.2525775,-0.20435636,-0.07101665,0.0,0.0,0.0,0.0,0.0,0.0,-0.1837602,-0.0031934418,-0.5946908
131647999,6.121877,25.920433,-9.952092,-3.1166441,0.0,-3.1698718,-0.20358506,-0.07180038,0.0,0.0,0.0,0.0,0.0,0.0,-0.19935335,-0.0026499499,-0.5904202
131743999,5.8544273,25.920145,-9.95215,-3.1161451,0.0,-3.0907245,-0.2024883,-0.06783717,0.0,0.0,0.0,0.0,0.0,0.0,-0.19761658,-0.003780229,-0.5827729
131860000,5.5340824,25.919773,-9.952222,-3.1154883,0.0,-3.003248,-0.20172559,-0.06454554,0.0,0.0,0.0,0.0,0.0,0.0,-0.18854123,-0.0025754496,-0.5859788
131956000,5.274024,25.919443,-9.952189,-3.114946,0.0,-2.9215138,-0.20071533,-0.060973093,0.0,0.0,0.0,0.0,0.0,0.0,-0.17943245,-0.0025672745,-0.5912071
132056000,5.00443,25.91908,-9.952265,-3.1143115,0.0,-2.82692,-0.19983362,-0.05817308,0.0,0.0,0.0,0.0,0.0,0.0,-0.17011224,-0.0032370463,-0.5901856
132152000,4.7577715,25.918728,-9.952242,-3.1138391,0.0,-2.7388046,-0.19855724,-0.05843424,0.0,0.0,0.0,0.0,0.0,0.0,-0.15554531,-0.0028846078,-0.5918662
132248000,4.50966,25.918346,-9.952355,-3.1132188,0.0,-2.65248,-0.19764766,-0.05332298,0.0,0.0,0.0,0.0,0.0,0.0,-0.15120634,-0.002532687,-0.5902969
132344000,4.271347,25.917957,-9.952427,-3.1126797,0.0,-2.5836709,-0.19545542,-0.0580501,0.0,0.0,0.0,0.0,0.0,0.0,-0.16401744,-0.0023991074,-0.5919822
132463999,3.9820337,25.917772,-9.952428,-3.1118705,0.0,-2.497947,-0.19026875,-0.052067786,0.0,0.0,0.0,0.0,0.0,0.0,-0.16478352,-0.0022980943,-0.5804512
132560000,3.7590108,25.917774,-9.952432,-3.111206,0.0,-2.4215155,-0.18923657,-0.05474642,0.0,0.0,0.0,0.0,0.0,0.0,-0.15745424,-0.0025782809,-0.5865979
132656000,3.5369744,25.917765,-9.952433,-3.110458,0.0,-2.350721,-0.18858345,-0.050031886,0.0,0.0,0.0,0.0,0.0,0.0,-0.14961539,-0.0026983265,-0.5850199
132772000,3.2762403,25.917732,-9.952456,-3.1096659,0.0,-2.2783763,-0.18715616,-0.049296968,0.0,0.0,0.0,0.0,0.0,0.0,-0.14447944,-0.0026650429,-0.5887772
132868000,3.068105,25.917688,-9.952332,-3.1089385,0.0,-2.2091267,-0.1860728,-0.046518806,0.0,0.0,0.0,0.0,0.0,0.0,-0.13940388,-0.0023788698,-0.58522016
132968000,2.8543952,25.91763,-9.95258,-3.1082823,0.0,-2.1318285,-0.18438758,-0.044226095,0.0,0.0,0.0,0.0,0.0,0.0,-0.12769456,-0.0023073535,-0.58576244
133064000,2.6555898,25.917557,-9.952294,-3.1075318,0.0,-2.0629964,-0.18284844,-0.03640314,0.0,0.0,0.0,0.0,0.0,0.0,-0.13292302,-0.002482472,-0.5846033
133159999,2.4654706,25.917469,-9.952327,-3.1068714,0.0,-1.996747,-0.18112081,-0.039103404,0.0,0.0,0.0,0.0,0.0,0.0,-0.13293006,-0.0027613193,-0.5860272
133255999,2.2781603,25.91737,-9.952328,-3.106067,0.0,-1.9352309,-0.18006058,-0.03246821,0.0,0.0,0.0,0.0,0.0,0.0,-0.13007082,-0.0026098825,-0.5796653
133372000,2.0578046,25.917227,-9.952429,-3.1053097,0.0,-1.8694055,-0.17781936,-0.03397887,0.0,0.0,0.0,0.0,0.0,0.0,-0.12494051,-0.0028300025,-0.5857656
133472000,1.8739754,25.917088,-9.952434,-3.104576,0.0,-1.7995489,-0.1757804,-0.030302692,0.0,0.0,0.0,0.0,0.0,0.0,-0.118547365,-0.002346743,-0.58334565
