timestamp,states[0],states[1],states[2],states[3],states[4],states[5],states[6],states[7],states[8],states[9],states[10],states[11],states[12],states[13],states[14],states[15],states[16],states[17],states[18],states[19],states[20],states[21],states[22],states[23],vibe[0],vibe[1],vibe[2],covariances[0],covariances[1],covariances[2],covariances[3],covariances[4],covariances[5],covariances[6],covariances[7],covariances[8],covariances[9],covariances[10],covariances[11],covariances[12],covariances[13],covariances[14],covariances[15],covariances[16],covariances[17],covariances[18],covariances[19],covariances[20],covariances[21],covariances[22],covariances[23],control_mode_flags,pos_horiz_accuracy,pos_vert_accuracy,mag_test_ratio,vel_test_ratio,pos_test_ratio,hgt_test_ratio,tas_test_ratio,hagl_test_ratio,beta_test_ratio,time_slip,gps_check_fail_flags,filter_fault_flags,innovation_check_flags,solution_status_flags,n_states,pre_flt_fail,health_flags,timeout_flags
1936000,0.9788632,-0.0079440065,-0.012883858,0.20395544,0.0,0.0,-0.0012627915,0.0,0.0,-5.051166e-06,0.0,0.0,0.0,0.0,0.0,0.0,0.2042463,0.009145033,0.43464214,0.0,0.0,0.0,0.0,0.0,5.2141286e-10,2.049911e-05,0.00028506597,0.000105040446,2.5067711e-05,2.4808778e-05,0.0024193958,25.0,25.0,0.56251043,0.24937439,0.24937439,4.000036,6.400005e-09,6.400005e-09,6.400005e-09,2.5600002e-06,2.5600002e-06,2.5600002e-06,0.0,0.0,0.0,0.0,0.0,0.0,0.0,0.0,515,0.70622146,2.0000088,0.0,0.0,0.0,0.0,0.0,0.0,0.0,0.0,0,0,0,165,24,0,0,0
2136000,0.97887653,-0.007995213,-0.0134950355,0.20384999,-0.00028070988,-0.000857914,-0.029982634,-2.5425623e-05,-4.8273178e-05,0.012951213,-1.2405683e-10,2.965836e-13,-5.4173466e-09,-1.1414287e-09,-2.3394825e-10,-4.968779e-09,0.2042463,0.009145033,0.43464214,0.0,0.0,0.0,0.0,0.0,5.4711863e-10,2.2988865e-05,0.00028700143,5.5381708e-05,2.6061824e-05,2.5907439e-05,0.0012754437,5.6084204,5.6084247,0.56158006,0.08845377,0.08845376,0.45061037,6.400105e-09,6.400105e-09,6.3995294e-09,2.559963e-06,2.5599627e-06,2.5599911e-06,0.0,0.0,0.0,0.0,0.0,0.0,0.0,0.0,531,0.42060378,0.6712752,0.0064640525,0.0,9.621579e-07,0.0023345775,0.0,0.0,0.0,0.0,0,0,0,165,24,0,0,0
2336000,0.9788105,-0.008027067,-0.014109994,0.20412363,0.0019283047,0.0019506793,-0.0557749,5.94984e-05,8.89055e-05,-0.0041270675,-8.7279617e-10,-2.6838328e-11,-3.8112205e-08,4.293683e-09,1.8119606e-10,1.1696682e-07,0.2042463,0.009145033,0.43464214,0.0,0.0,0.0,0.0,0.0,5.7842997e-10,2.3824141e-05,0.00030308974,3.6236026e-05,2.9161038e-05,2.9047884e-05,0.0008337181,0.90950227,0.9095051,0.5488194,0.049709227,0.049709253,0.24382502,6.4001946e-09,6.4001955e-09,6.39659e-09,2.5595264e-06,2.5595261e-06,2.5597092e-06,0.0,0.0,0.0,0.0,0.0,0.0,0.0,0.0,531,0.31530696,0.49378642,0.012421383,0.0,1.986544e-06,0.00069200434,0.0,0.0,0.0,0.0,0,0,0,165,24,0,0,0
2536000,0.97872734,-0.008025453,-0.014631414,0.20448534,0.006447136,0.0027116123,-0.07434905,0.00035524394,0.00034799057,-0.0047281426,-1.8800452e-09,-5.240926e-10,-9.186118e-08,2.6798515e-08,6.82036e-08,-1.5803173e-06,0.2042463,0.009145033,0.43464214,0.0,0.0,0.0,0.0,0.0,6.3911515e-10,2.5160822e-05,0.00029118222,2.7764123e-05,3.429311e-05,3.4198045e-05,0.0006392133,0.31324306,0.31324422,0.5190939,0.03830916,0.038309187,0.20144996,6.400184e-09,6.4001884e-09,6.390632e-09,2.5576326e-06,2.5576321e-06,2.558237e-06,0.0,0.0,0.0,0.0,0.0,0.0,0.0,0.0,531,0.2768002,0.44883177,0.008810597,0.0,6.3978905e-06,0.003496601,0.0,0.0,0.0,0.0,0,0,0,165,24,0,0,0
2736000,0.978896,-0.007954647,-0.015170118,0.2036398,0.015728809,0.00014992335,-0.09863601,0.0014777613,0.00021882937,-0.016501982,3.4857397e-09,-5.9516143e-09,1.5781214e-07,5.132551e-07,3.131889e-08,-2.9666767e-06,0.2042463,0.009145033,0.43464214,0.0,0.0,0.0,0.0,0.0,5.5238886e-10,2.3609096e-05,0.0002748267,2.204709e-05,4.1408577e-05,4.132531e-05,0.0005079307,0.13623232,0.13623351,0.46229482,0.027632626,0.027632657,0.18615465,6.3994534e-09,6.3994645e-09,6.3788996e-09,2.5503512e-06,2.55035e-06,2.5530503e-06,0.0,0.0,0.0,0.0,0.0,0.0,0.0,0.0,531,0.2350857,0.43145642,0.012960457,0.0,3.1337757e-05,0.0049883514,0.0,0.0,0.0,0.0,0,0,0,165,24,0,0,0
2936000,0.9789214,-0.007957839,-0.015555727,0.20348854,0.024327401,0.001372844,-0.11038763,0.0035930208,0.00029679213,-0.022036267,-3.3972793e-09,-2.9105033e-08,1.8976895e-07,2.0955379e-06,-4.1371158e-07,-8.727013e-06,0.2042463,0.009145033,0.43464214,0.0,0.0,0.0,0.0,0.0,5.769601e-10,2.4100653e-05,0.00028380597,1.8739567e-05,5.0467337e-05,5.0392755e-05,0.00043177092,0.083606794,0.083608486,0.4016076,0.02394936,0.023949405,0.19140367,6.3966485e-09,6.3966685e-09,6.3630647e-09,2.534475e-06,2.534472e-06,2.5434338e-06,0.0,0.0,0.0,0.0,0.0,0.0,0.0,0.0,531,0.21885787,0.43749705,0.002063675,0.0,6.724158e-05,0.005140979,0.0,0.0,0.0,0.0,0,0,0,165,24,0,0,0
3136000,0.9789258,-0.008011056,-0.016157962,0.20341863,0.031214796,0.0033270894,-0.121810056,0.005629823,0.0003533713,-0.026651032,-3.2311753e-08,-1.1261199e-07,2.56789e-07,6.9478906e-06,-2.0777306e-06,-1.804495e-05,0.2042463,0.009145033,0.43464214,0.0,0.0,0.0,0.0,0.0,5.8446803e-10,2.5137711e-05,0.0002902715,1.6117332e-05,6.1310755e-05,6.124138e-05,0.00037105667,0.059794534,0.059796594,0.33055714,0.019742405,0.019742485,0.18805388,6.386372e-09,6.386408e-09,6.3378183e-09,2.4965298e-06,2.496522e-06,2.5252627e-06,0.0,0.0,0.0,0.0,0.0,0.0,0.0,0.0,531,0.19870804,0.4336518,0.0027744565,0.0,0.000112027556,0.007409112,0.0,0.0,0.0,0.0,0,0,0,165,24,0,0,0
3336000,0.9789327,-0.008087224,-0.016713211,0.20333755,0.041664544,0.0051836953,-0.11671869,0.008161727,0.0006368724,-0.019613896,-1.07584874e-07,-3.3076378e-07,3.1362407e-07,1.7577113e-05,-5.59494e-06,-3.603724e-05,0.2042463,0.009145033,0.43464214,0.0,0.0,0.0,0.0,0.0,5.737767e-10,2.5324613e-05,0.00028962528,1.4222672e-05,7.3632415e-05,7.356742e-05,0.00032734894,0.051812477,0.051815595,0.2683524,0.01718846,0.017188594,0.18200628,6.35856e-09,6.3586154e-09,6.303565e-09,2.425324e-06,2.425305e-06,2.498584e-06,0.0,0.0,0.0,0.0,0.0,0.0,0.0,0.0,531,0.1854105,0.42662194,0.00083538535,0.0,0.00016915315,0.003047113,0.0,0.0,0.0,0.0,0,0,0,165,24,0,0,0
3536000,0.97889405,-0.008192047,-0.017211406,0.20347746,0.051071845,0.004704273,-0.122206934,0.0117390575,0.0010512031,-0.021098059,-2.4414342e-07,-7.28468e-07,2.1760363e-07,3.4579665e-05,-1.1127405e-05,-5.136797e-05,0.2042463,0.009145033,0.43464214,0.0,0.0,0.0,0.0,0.0,5.758824e-10,2.368143e-05,0.0002956109,1.3005826e-05,8.714421e-05,8.708216e-05,0.00029894875,0.05280419,0.052808434,0.22608146,0.016838675,0.01683891,0.18207186,6.3071712e-09,6.307246e-09,6.2648797e-09,2.327461e-06,2.3274245e-06,2.4678036e-06,0.0,0.0,0.0,0.0,0.0,0.0,0.0,0.0,531,0.18351454,0.4266988,0.01605649,0.0,0.00023451312,0.0029556656,0.0,0.0,0.0,0.0,0,0,0,165,24,0,0,0
3736000,0.97892475,-0.008140988,-0.017841162,0.20327805,0.056568448,0.005565878,-0.11512048,0.014418588,0.001347592,-0.011400082,-4.9821404e-07,-1.5131518e-06,4.0315555e-07,6.3798936e-05,-2.0436755e-05,-7.800551e-05,0.2042463,0.009145033,0.43464214,0.0,0.0,0.0,0.0,0.0,6.3148964e-10,2.4476121e-05,0.00028172918,1.1906784e-05,0.00010078112,0.0001007201,0.0002736252,0.054165404,0.05417028,0.18849467,0.016002443,0.01600276,0.17229629,6.202882e-09,6.202974e-09,6.2110734e-09,2.1771102e-06,2.1770443e-06,2.4246908e-06,0.0,0.0,0.0,0.0,0.0,0.0,0.0,0.0,531,0.17889997,0.41508588,0.019720802,0.0,0.0002980677,0.005301908,0.0,0.0,0.0,0.0,0,0,0,165,24,0,0,0
3936000,0.97893035,-0.008113396,-0.018325074,0.20320868,0.062670745,0.005341602,-0.1229494,0.017810313,0.0015845981,-0.016224349,-8.483463e-07,-2.5832146e-06,5.3139115e-07,9.891547e-05,-3.1810145e-05,-9.613638e-05,0.2042463,0.009145033,0.43464214,0.0,0.0,0.0,0.0,0.0,6.604997e-10,2.5052033e-05,0.00028069274,1.1204859e-05,0.00011443514,0.00011437503,0.00025718598,0.05770316,0.057708647,0.16601099,0.016670156,0.016670616,0.16949604,6.0573275e-09,6.057428e-09,6.1534506e-09,2.0168263e-06,2.0167242e-06,2.3780988e-06,0.0,0.0,0.0,0.0,0.0,0.0,0.0,0.0,531,0.18259457,0.41169897,0.015731864,0.0,0.00034760704,0.011324808,0.0,0.0,0.0,0.0,0,0,0,165,24,0,0,0
4132000,0.97898865,-0.0082077235,-0.018634014,0.202896,0.0633808,0.0060121445,-0.14331111,0.019847192,0.0017160556,-0.03897457,-1.3099086e-06,-3.988732e-06,8.9515305e-07,0.0001397602,-4.546639e-05,-0.00010101702,0.2042463,0.009145033,0.43464214,0.0,0.0,0.0,0.0,0.0,6.420041e-10,2.4453202e-05,0.00027061926,1.0633488e-05,0.00012656189,0.00012650475,0.00024405331,0.059224166,0.059229326,0.14964633,0.017183274,0.017183825,0.1644179,5.8618386e-09,5.8619363e-09,6.0863687e-09,1.8510589e-06,1.8509155e-06,2.3233476e-06,0.0,0.0,0.0,0.0,0.0,0.0,0.0,0.0,531,0.18538365,0.40548477,0.0073705614,0.0,0.00038972544,0.007785803,0.0,0.0,0.0,0.0,0,0,0,165,24,0,0,0
4332000,0.9789761,-0.008056344,-0.01887895,0.20293953,0.06476477,0.0067164097,-0.14823678,0.020560395,0.0019313334,-0.0445057,-1.940667e-06,-5.886356e-06,7.979804e-07,0.00018665117,-6.062967e-05,-0.00012875113,0.2042463,0.009145033,0.43464214,0.0,0.0,0.0,0.0,0.0,6.170057e-10,2.3791994e-05,0.00026860656,1.0107761e-05,0.00013720783,0.00013715294,0.00023176262,0.057327162,0.057331953,0.13561523,0.01706771,0.017068269,0.1562071,5.5902363e-09,5.5903167e-09,5.9993566e-09,1.6805719e-06,1.6803825e-06,2.2506022e-06,0.0,0.0,0.0,0.0,0.0,0.0,0.0,0.0,531,0.18475924,0.39523044,0.015134,0.0,0.0004149938,0.00061641313,0.0,0.0,0.0,0.0,0,0,0,165,24,0,0,0
4532000,0.978976,-0.008113063,-0.019063283,0.20292053,0.06686877,0.004736999,-0.15478769,0.021943927,0.0020509658,-0.05347491,-2.5552217e-06,-7.7868635e-06,9.964667e-07,0.00022609415,-7.315178e-05,-0.00015623657,0.2042463,0.009145033,0.43464214,0.0,0.0,0.0,0.0,0.0,6.7231715e-10,2.4478995e-05,0.00028458846,9.807452e-06,0.00014757365,0.00014752158,0.00022448602,0.055968653,0.05597293,0.12899895,0.017704446,0.01770501,0.1538235,5.316104e-09,5.3161613e-09,5.911115e-09,1.5585958e-06,1.558372e-06,2.1750159e-06,0.0,0.0,0.0,0.0,0.0,0.0,0.0,0.0,531,0.18817401,0.3922034,0.0027788014,0.0,0.0004326168,0.0038740865,0.0,0.0,0.0,0.0,0,0,0,165,24,0,0,0
4732000,0.9788789,-0.008150332,-0.019076766,0.20338611,0.064819075,0.002407293,-0.16388741,0.021754833,0.0016041106,-0.06814254,-3.309024e-06,-9.981512e-06,3.3455748e-07,0.0002635086,-8.529581e-05,-0.0001820244,0.2042463,0.009145033,0.43464214,0.0,0.0,0.0,0.0,0.0,6.4856814e-10,2.4717036e-05,0.00029097756,9.5012465e-06,0.00015582137,0.00015577313,0.00021688496,0.051421005,0.051424302,0.12233586,0.01706778,0.017068258,0.14681496,4.9997952e-09,4.9998223e-09,5.800573e-09,1.4631573e-06,1.4629085e-06,2.0795235e-06,0.0,0.0,0.0,0.0,0.0,0.0,0.0,0.0,531,0.18475941,0.3831644,0.0075592296,0.0,0.0004396793,0.008238678,0.0,0.0,0.0,0.0,0,0,0,165,24,0,0,0
4932000,0.97884375,-0.00787219,-0.018989822,0.20357408,0.062503815,0.0049309325,-0.16595939,0.021087855,0.001367985,-0.07228151,-4.1117733e-06,-1.2182884e-05,-3.656734e-07,0.00029203173,-9.485149e-05,-0.0002259519,0.2042463,0.009145033,0.43464214,0.0,0.0,0.0,0.0,0.0,5.9083893e-10,2.4339592e-05,0.00030015063,9.243337e-06,0.00016309533,0.00016304835,0.00021102828,0.046807017,0.04680984,0.11773994,0.016344719,0.016345123,0.14109552,4.68049e-09,4.680482e-09,5.6781957e-09,1.4050612e-06,1.4048004e-06,1.9722831e-06,0.0,0.0,0.0,0.0,0.0,0.0,0.0,0.0,531,0.18080331,0.37562683,0.013186055,0.0,0.00043626246,0.0023769785,0.0,0.0,0.0,0.0,0,0,0,165,24,0,0,0
5132000,0.97887504,-0.0078120786,-0.01882626,0.20344134,0.06381557,0.0045886715,-0.17760363,0.022115706,0.0014960727,-0.08944235,-4.8140787e-06,-1.4156471e-05,-3.1007644e-07,0.00031080274,-0.000101208185,-0.0002543002,0.2042463,0.009145033,0.43464214,0.0,0.0,0.0,0.0,0.0,6.155898e-10,2.4142755e-05,0.0002895195,9.1289185e-06,0.00017093941,0.00017089475,0.00020852652,0.044571333,0.044573933,0.116823845,0.016644109,0.016644508,0.14130917,4.3970463e-09,4.3970103e-09,5.5599507e-09,1.3772163e-06,1.3769583e-06,1.8675613e-06,0.0,0.0,0.0,0.0,0.0,0.0,0.0,0.0,531,0.18245168,0.37591112,0.014235233,0.0,0.00043610195,0.0056733736,0.0,0.0,0.0,0.0,0,0,0,165,24,0,0,0
5332000,0.9788501,-0.0076972814,-0.01879727,0.20356792,0.05941122,0.009320662,-0.17598303,0.02145691,0.0019343733,-0.095520586,-5.580275e-06,-1.6365975e-05,-4.2652783e-07,0.00032387773,-0.00010511626,-0.00030471187,0.2042463,0.009145033,0.43464214,0.0,0.0,0.0,0.0,0.0,5.758951e-10,2.3556953e-05,0.0002803455,8.989408e-06,0.00017626943,0.00017622496,0.00020501208,0.040703155,0.040705495,0.11386604,0.015850838,0.015851192,0.13735928,4.0838284e-09,4.0837658e-09,5.4174465e-09,1.3636204e-06,1.363378e-06,1.7417373e-06,0.0,0.0,0.0,0.0,0.0,0.0,0.0,0.0,531,0.17805064,0.37062013,0.00957499,0.0,0.00044340466,0.012763325,0.0,0.0,0.0,0.0,0,0,0,165,24,0,0,0
5532000,0.978761,-0.00762061,-0.018646752,0.20401254,0.062000558,0.00966485,-0.17059523,0.02226366,0.0026265567,-0.092513844,-6.214514e-06,-1.8310851e-05,-1.3778466e-06,0.00032857645,-0.000105643805,-0.000372001,0.2042463,0.009145033,0.43464214,0.0,0.0,0.0,0.0,0.0,5.4630533e-10,2.3060677e-05,0.00028605826,8.972071e-06,0.00018214251,0.0001820986,0.00020425831,0.039247833,0.03925026,0.113449,0.016109385,0.01610974,0.13880926,3.8091086e-09,3.8090304e-09,5.283069e-09,1.3602829e-06,1.360062e-06,1.624433e-06,0.0,0.0,0.0,0.0,0.0,0.0,0.0,0.0,531,0.17949687,0.37257114,0.010793873,0.0,0.00043936263,0.016839555,0.0,0.0,0.0,0.0,0,0,0,165,24,0,0,0
5732000,0.9787945,-0.0077362694,-0.018402454,0.2038699,0.061075583,0.009239013,-0.16965562,0.021908503,0.002876565,-0.09793623,-6.8628465e-06,-2.055295e-05,-1.1095921e-06,0.00032824036,-0.00010487539,-0.00042383262,0.2042463,0.009145033,0.43464214,0.0,0.0,0.0,0.0,0.0,5.555365e-10,2.3625867e-05,0.00028083945,8.881511e-06,0.00018470969,0.00018466877,0.0002021996,0.03642475,0.036427088,0.11024023,0.015351703,0.015352042,0.13582256,3.500932e-09,3.5008398e-09,5.124085e-09,1.3599222e-06,1.3597328e-06,1.4884431e-06,0.0,0.0,0.0,0.0,0.0,0.0,0.0,0.0,531,0.17522484,0.36854112,0.007228033,0.0,0.00044191178,0.0064172167,0.0,0.0,0.0,0.0,0,0,0,165,24,0,0,0
5932000,0.97884053,-0.0077201463,-0.018265178,0.2036617,0.06197675,0.010325635,-0.1682944,0.023136465,0.003163492,-0.104007274,-7.4240315e-06,-2.258418e-05,-4.4095555e-07,0.0003225137,-0.000102611295,-0.00047414275,0.2042463,0.009145033,0.43464214,0.0,0.0,0.0,0.0,0.0,5.927349e-10,2.4227063e-05,0.00027205984,8.898693e-06,0.00018750814,0.0001874678,0.00020250696,0.035597216,0.03559984,0.10899123,0.015590058,0.015590431,0.13771942,3.2285248e-09,3.228421e-09,4.976976e-09,1.3583794e-06,1.35822e-06,1.3667435e-06,0.0,0.0,0.0,0.0,0.0,0.0,0.0,0.0,531,0.17657998,0.37110567,0.0016369739,0.0,0.0004568372,0.017915852,0.0,0.0,0.0,0.0,0,0,0,165,24,0,0,0
6132000,0.978832,-0.0076407683,-0.01796636,0.20373212,0.05932347,0.008488546,-0.15849477,0.022818131,0.0032796909,-0.1028516,-8.0566115e-06,-2.487409e-05,-4.977229e-07,0.0003104699,-9.845792e-05,-0.0005343877,0.2042463,0.009145033,0.43464214,0.0,0.0,0.0,0.0,0.0,6.5511835e-10,2.4497429e-05,0.00028421698,8.849654e-06,0.00018660902,0.0001865701,0.00020126323,0.033600867,0.03360327,0.104883656,0.014951986,0.014952358,0.13510804,2.9281393e-09,2.9280238e-09,4.80652e-09,1.3519531e-06,1.3518271e-06,1.2325763e-06,0.0,0.0,0.0,0.0,0.0,0.0,0.0,0.0,531,0.17292872,0.36757046,0.028475324,0.0,0.00046056576,0.005043624,0.0,0.0,0.0,0.0,0,0,0,165,24,0,0,0
6332000,0.97879213,-0.0074318587,-0.017700864,0.20395473,0.05137126,0.007232825,-0.1511138,0.02174634,0.0031421601,-0.10206014,-8.6790815e-06,-2.7141927e-05,-6.7376465e-07,0.0002935552,-9.3054885e-05,-0.0005912588,0.2042463,0.009145033,0.43464214,0.0,0.0,0.0,0.0,0.0,5.8298066e-10,2.4100007e-05,0.00029864538,8.81935e-06,0.00018369281,0.00018365342,0.0002002433,0.03189048,0.03189235,0.100288674,0.014370337,0.014370687,0.13247734,2.632977e-09,2.6328437e-09,4.6318527e-09,1.3382873e-06,1.3381916e-06,1.1031964e-06,0.0,0.0,0.0,0.0,0.0,0.0,0.0,0.0,531,0.16953178,0.36397436,0.01421845,0.0,0.0004479644,0.008849348,0.0,0.0,0.0,0.0,0,0,0,165,24,0,0,0
6532000,0.97877353,-0.0072555235,-0.017367791,0.20407854,0.051081043,0.0079489015,-0.13799533,0.02167432,0.0031675391,-0.09522595,-9.2115815e-06,-2.9064771e-05,-1.0139153e-06,0.00027515332,-8.717151e-05,-0.0006536014,0.2042463,0.009145033,0.43464214,0.0,0.0,0.0,0.0,0.0,6.3226985e-10,2.6277708e-05,0.00029561136,8.862237e-06,0.00018111862,0.00018107952,0.00020124196,0.031589597,0.031591643,0.09747479,0.01466098,0.014661346,0.13415435,2.376948e-09,2.376792e-09,4.474161e-09,1.3190803e-06,1.3190071e-06,9.939755e-07,0.0,0.0,0.0,0.0,0.0,0.0,0.0,0.0,531,0.17123763,0.36627087,0.009281004,0.0,0.00042959506,0.016261043,0.0,0.0,0.0,0.0,0,0,0,165,24,0,0,0
6732000,0.9787642,-0.007020138,-0.016980123,0.2041645,0.047376,0.011425042,-0.12347259,0.020270512,0.0034321574,-0.087751254,-9.743448e-06,-3.1110743e-05,-9.55704e-07,0.00025253638,-8.048722e-05,-0.0007103082,0.2042463,0.009145033,0.43464214,0.0,0.0,0.0,0.0,0.0,6.448909e-10,2.5812455e-05,0.00029090553,8.831984e-06,0.00017465715,0.00017461849,0.00020043351,0.030087493,0.030089794,0.09215903,0.014146133,0.014146491,0.13125405,2.1026547e-09,2.102468e-09,4.295638e-09,1.2899435e-06,1.2898905e-06,8.798709e-07,0.0,0.0,0.0,0.0,0.0,0.0,0.0,0.0,531,0.16820411,0.36229,0.004221682,0.0,0.00041733313,0.014199012,0.0,0.0,0.0,0.0,0,0,0,165,24,0,0,0
6932000,0.9787446,-0.006938545,-0.016707728,0.20428376,0.0433644,0.016551653,-0.113750525,0.020001477,0.0044155703,-0.08282823,-1.0131658e-05,-3.2819375e-05,-1.211933e-06,0.0002310548,-7.499635e-05,-0.0007565675,0.2042463,0.009145033,0.43464214,0.0,0.0,0.0,0.0,0.0,6.0664557e-10,2.5022806e-05,0.00027819982,8.879293e-06,0.0001692139,0.00016917611,0.00020151334,0.029855045,0.029857649,0.0887217,0.014479447,0.014479862,0.13255228,1.8730282e-09,1.8728166e-09,4.136863e-09,1.2580662e-06,1.258025e-06,7.867529e-07,0.0,0.0,0.0,0.0,0.0,0.0,0.0,0.0,531,0.17017435,0.3640773,0.0039790687,0.0,0.00039751414,0.0059046885,0.0,0.0,0.0,0.0,0,0,0,165,24,0,0,0
7132000,0.9787603,-0.0069225663,-0.016273983,0.20424369,0.04005591,0.020310668,-0.099857725,0.0184984,0.0056218132,-0.07182448,-1.0424494e-05,-3.4634602e-05,-1.6506128e-06,0.0002057008,-7.0220005e-05,-0.00080657715,0.2042463,0.009145033,0.43464214,0.0,0.0,0.0,0.0,0.0,5.5821414e-10,2.407083e-05,0.0002769948,8.82169e-06,0.00016017538,0.00016014076,0.0002006894,0.028359367,0.028362114,0.08310883,0.013982314,0.013982754,0.12925462,1.6317525e-09,1.6315204e-09,3.9590358e-09,1.2164878e-06,1.2164531e-06,6.914107e-07,0.0,0.0,0.0,0.0,0.0,0.0,0.0,0.0,531,0.1672276,0.35952,0.012706768,0.0,0.00037389956,0.023417119,0.0,0.0,0.0,0.0,0,0,0,165,24,0,0,0
7332000,0.9787762,-0.006859428,-0.015868561,0.20420168,0.039460666,0.023510369,-0.091329314,0.01814414,0.0071876696,-0.06857114,-1.0530567e-05,-3.616478e-05,-1.43175e-06,0.00018284522,-6.791963e-05,-0.00084045815,0.2042463,0.009145033,0.43464214,0.0,0.0,0.0,0.0,0.0,6.3551836e-10,2.4388599e-05,0.00028793415,8.86029e-06,0.00015269971,0.00015266774,0.00020164752,0.02794712,0.027950114,0.079355665,0.014281419,0.014281938,0.12997761,1.4349222e-09,1.4346785e-09,3.8026458e-09,1.1759008e-06,1.1758666e-06,6.151715e-07,0.0,0.0,0.0,0.0,0.0,0.0,0.0,0.0,531,0.16900697,0.3605241,0.0025881797,0.0,0.00036043744,0.013347504,0.0,0.0,0.0,0.0,0,0,0,165,24,0,0,0
7532000,0.97874707,-0.0069917957,-0.015600356,0.20435771,0.036227092,0.021184035,-0.08149006,0.01700698,0.0078039374,-0.06303197,-1.0554536e-05,-3.7747515e-05,-2.2915838e-06,0.00015717123,-6.7157984e-05,-0.0008729275,0.2042463,0.009145033,0.43464214,0.0,0.0,0.0,0.0,0.0,6.3684913e-10,2.4468001e-05,0.0002869886,8.8020415e-06,0.00014259871,0.0001425703,0.0002006467,0.02642831,0.02643097,0.07390864,0.013804211,0.013804743,0.1264362,1.2363336e-09,1.2360838e-09,3.6296839e-09,1.1283674e-06,1.1283288e-06,5.389415e-07,0.0,0.0,0.0,0.0,0.0,0.0,0.0,0.0,531,0.16615942,0.3555787,0.006257039,0.0,0.00034369127,0.01575109,0.0,0.0,0.0,0.0,0,0,0,165,24,0,0,0
7732000,0.9787349,-0.0071178162,-0.015216823,0.20444001,0.032593597,0.019718193,-0.07530014,0.015835052,0.007901243,-0.057719406,-1.0504439e-05,-3.9206818e-05,-2.6880607e-06,0.00013205573,-6.752793e-05,-0.0009016213,0.2042463,0.009145033,0.43464214,0.0,0.0,0.0,0.0,0.0,6.3873656e-10,2.5486866e-05,0.0002874455,8.744611e-06,0.00013242896,0.00013240473,0.00019952208,0.02492134,0.024923697,0.068683915,0.013330308,0.013330825,0.12284791,1.0601723e-09,1.0599175e-09,3.4604235e-09,1.0799936e-06,1.079948e-06,4.718013e-07,0.0,0.0,0.0,0.0,0.0,0.0,0.0,0.0,531,0.16328236,0.35049665,0.009439919,0.0,0.00032541447,0.014532909,0.0,0.0,0.0,0.0,0,0,0,165,24,0,0,0
7932000,0.9787752,-0.007082849,-0.014872468,0.20427379,0.029505745,0.016980162,-0.066806965,0.015259126,0.008217276,-0.04976205,-1.0413976e-05,-4.038348e-05,-2.509322e-06,0.00011067627,-6.8427005e-05,-0.00093057,0.2042463,0.009145033,0.43464214,0.0,0.0,0.0,0.0,0.0,5.575743e-10,2.3996326e-05,0.00027181112,8.756669e-06,0.0001243909,0.00012436915,0.00020012449,0.024331843,0.024333902,0.0651392,0.013570255,0.013570791,0.12295298,9.217355e-10,9.214756e-10,3.313626e-09,1.0373568e-06,1.0373036e-06,4.191034e-07,0.0,0.0,0.0,0.0,0.0,0.0,0.0,0.0,531,0.16474539,0.35064653,0.01551669,0.0,0.0003038169,0.0095902905,0.0,0.0,0.0,0.0,0,0,0,165,24,0,0,0
8131999,0.97878283,-0.0071552745,-0.014480836,0.20426309,0.022674438,0.015694967,-0.06767304,0.0136031415,0.007610049,-0.050299395,-1.0315663e-05,-4.1527866e-05,-2.8392956e-06,8.900299e-05,-7.0047514e-05,-0.00094657525,0.2042463,0.009145033,0.43464214,0.0,0.0,0.0,0.0,0.0,5.352898e-10,2.3823462e-05,0.0002791939,8.681614e-06,0.00011479895,0.000114780596,0.00019874328,0.022842448,0.022844108,0.06039412,0.013089674,0.01309015,0.11926416,7.866195e-10,7.8635193e-10,3.1533558e-09,9.9134e-07,9.912793e-07,3.671849e-07,0.0,0.0,0.0,0.0,0.0,0.0,0.0,0.0,531,0.1618018,0.34534645,0.008969339,0.0,0.00027942198,0.009213138,0.0,0.0,0.0,0.0,0,0,0,165,24,0,0,0
8339999,0.9787533,-0.0071746623,-0.014033623,0.20443471,0.021372247,0.013314923,-0.068008155,0.012047201,0.007162056,-0.058629565,-1.02156955e-05,-4.247746e-05,-3.4712602e-06,7.018715e-05,-7.2143084e-05,-0.0009531027,0.2042463,0.009145033,0.43464214,0.0,0.0,0.0,0.0,0.0,4.942971e-10,2.2460827e-05,0.00028010245,8.634227e-06,0.00010607105,0.00010605577,0.00019782306,0.02162603,0.021627503,0.056242976,0.012850068,0.012850502,0.11675364,6.709048e-10,6.70628e-10,2.998567e-09,9.479377e-07,9.478699e-07,3.220965e-07,0.0,0.0,0.0,0.0,0.0,0.0,0.0,0.0,531,0.16031396,0.34169233,0.0030729831,0.0,0.00024742624,0.006750468,0.0,0.0,0.0,0.0,0,0,0,165,24,0,0,0
8540000,0.97875553,-0.0071478593,-0.013689072,0.20444831,0.01812395,0.013789039,-0.058666084,0.010705893,0.006571123,-0.050252996,-1.0111305e-05,-4.3264008e-05,-3.4915304e-06,5.3665903e-05,-7.376713e-05,-0.00097648054,0.2042463,0.009145033,0.43464214,0.0,0.0,0.0,0.0,0.0,5.2357324e-10,2.2677345e-05,0.00028336726,8.56109e-06,9.795412e-05,9.794069e-05,0.00019620679,0.020306367,0.020307735,0.052208062,0.012444999,0.012445382,0.11335581,5.7368604e-10,5.7339994e-10,2.8500267e-09,9.0820043e-07,9.081265e-07,2.8330015e-07,0.0,0.0,0.0,0.0,0.0,0.0,0.0,0.0,531,0.15776686,0.33668354,0.0025281878,0.0,0.00021964093,0.0023674574,0.0,0.0,0.0,0.0,0,0,0,165,24,0,0,0
8740000,0.97873026,-0.0071412358,-0.0135481935,0.20457894,0.017225804,0.014881547,-0.048800655,0.009967826,0.006696618,-0.039535593,-1.002211e-05,-4.3852597e-05,-3.876284e-06,4.054647e-05,-7.5358046e-05,-0.000999378,0.2042463,0.009145033,0.43464214,0.0,0.0,0.0,0.0,0.0,5.416894e-10,2.3422299e-05,0.0002801786,8.561641e-06,9.1767746e-05,9.175496e-05,0.00019625553,0.01972736,0.01972877,0.0494711,0.012661069,0.012661449,0.113190696,4.9915805e-10,4.988658e-10,2.7230105e-09,8.753049e-07,8.7522596e-07,2.5309438e-07,0.0,0.0,0.0,0.0,0.0,0.0,0.0,0.0,531,0.1591305,0.33643824,0.008027032,0.0,0.00020165277,0.011736786,0.0,0.0,0.0,0.0,0,0,0,165,24,0,0,0
8940000,0.9787844,-0.0071978113,-0.013360317,0.2043306,0.016572183,0.016551912,-0.044962592,0.009000572,0.0068078814,-0.03843829,-9.881236e-06,-4.44499e-05,-3.164968e-06,2.7615404e-05,-7.780617e-05,-0.0010101083,0.2042463,0.009145033,0.43464214,0.0,0.0,0.0,0.0,0.0,5.452557e-10,2.3661494e-05,0.0002920124,8.478161e-06,8.480179e-05,8.479023e-05,0.00019439546,0.018451635,0.018453108,0.045933466,0.012227137,0.012227494,0.10980942,4.27445e-10,4.271503e-10,2.585874e-09,8.4136724e-07,8.412832e-07,2.233601e-07,0.0,0.0,0.0,0.0,0.0,0.0,0.0,0.0,531,0.15637976,0.33137503,0.014447778,0.0,0.00018462587,0.007538991,0.0,0.0,0.0,0.0,0,0,0,165,24,0,0,0
9140000,0.9788219,-0.0073608668,-0.013189784,0.204156,0.015648294,0.017889535,-0.046233974,0.008695458,0.0073015746,-0.040918887,-9.749087e-06,-4.4917495e-05,-2.7812707e-06,1.7139142e-05,-8.04223e-05,-0.001016432,0.2042463,0.009145033,0.43464214,0.0,0.0,0.0,0.0,0.0,6.1276345e-10,2.3933639e-05,0.00031074614,8.462969e-06,7.956918e-05,7.9559424e-05,0.00019417483,0.01787013,0.01787165,0.04351927,0.012387012,0.012387395,0.10944896,3.7295597e-10,3.726632e-10,2.4690745e-09,8.138223e-07,8.137343e-07,2.0019442e-07,0.0,0.0,0.0,0.0,0.0,0.0,0.0,0.0,531,0.15739888,0.33083072,0.005429352,0.0,0.00017315554,0.01085263,0.0,0.0,0.0,0.0,0,0,0,165,24,0,0,0
9340000,0.9788015,-0.007389947,-0.013101363,0.20425865,0.011720089,0.01718379,-0.047373313,0.007850094,0.0073736957,-0.04659906,-9.600238e-06,-4.537593e-05,-2.84684e-06,6.40561e-06,-8.3835606e-05,-0.001019857,0.2042463,0.009145033,0.43464214,0.0,0.0,0.0,0.0,0.0,5.82759e-10,2.2991058e-05,0.0003101313,8.37709e-06,7.3777504e-05,7.3768344e-05,0.0001920849,0.016679406,0.016680732,0.04043639,0.011926364,0.011926726,0.1060928,3.2070196e-10,3.2041506e-10,2.3434201e-09,7.857396e-07,7.856479e-07,1.7735425e-07,0.0,0.0,0.0,0.0,0.0,0.0,0.0,0.0,531,0.15444446,0.3257189,0.0060294056,0.0,0.00016086454,0.0038239886,0.0,0.0,0.0,0.0,0,0,0,165,24,0,0,0
9540000,0.9788112,-0.0073731435,-0.012868663,0.20422715,0.012996038,0.01761597,-0.04093153,0.0075148577,0.0079001505,-0.040078316,-9.4557845e-06,-4.573429e-05,-2.646338e-06,-2.3319733e-06,-8.6874454e-05,-0.0010333295,0.2042463,0.009145033,0.43464214,0.0,0.0,0.0,0.0,0.0,5.8629523e-10,2.3849168e-05,0.00030289893,8.358374e-06,6.9549766e-05,6.9542024e-05,0.00019162719,0.016150126,0.016151518,0.038358334,0.012068559,0.012068942,0.10566034,2.8159752e-10,2.813181e-10,2.2369862e-09,7.634813e-07,7.63387e-07,1.5964379e-07,0.0,0.0,0.0,0.0,0.0,0.0,0.0,0.0,531,0.15536249,0.32505438,0.0017951302,0.0,0.00015614954,0.011173956,0.0,0.0,0.0,0.0,0,0,0,165,24,0,0,0
9740000,0.9788255,-0.007530139,-0.012638904,0.2041672,0.01257965,0.019015277,-0.03582961,0.006951433,0.008302163,-0.03777179,-9.2870305e-06,-4.6096924e-05,-2.5414884e-06,-1.1333829e-05,-9.0760484e-05,-0.0010418677,0.2042463,0.009145033,0.43464214,0.0,0.0,0.0,0.0,0.0,6.251189e-10,2.4965268e-05,0.0002895044,8.256758e-06,6.4909065e-05,6.49035e-05,0.00018937846,0.015102517,0.015103845,0.03572082,0.011627896,0.01162827,0.10245967,2.440873e-10,2.4381858e-10,2.122819e-09,7.4094703e-07,7.4085017e-07,1.4213877e-07,0.0,0.0,0.0,0.0,0.0,0.0,0.0,0.0,531,0.15249972,0.3200932,0.0054430477,0.0,0.00016685967,0.0068238475,0.0,0.0,0.0,0.0,0,0,0,165,24,0,0,0
9940000,0.97886556,-0.0075522154,-0.012531778,0.20398115,0.008044046,0.016688354,-0.03408339,0.0062508653,0.008293729,-0.03653725,-9.100262e-06,-4.6433608e-05,-1.926266e-06,-1.96029e-05,-9.490991e-05,-0.0010484598,0.2042463,0.009145033,0.43464214,0.0,0.0,0.0,0.0,0.0,6.374443e-10,2.5014917e-05,0.00029664277,8.158127e-06,6.0792165e-05,6.0787315e-05,0.00018706865,0.014143365,0.014144351,0.033304367,0.011204084,0.011204439,0.09938508,2.1246786e-10,2.122116e-10,2.0144775e-09,7.208921e-07,7.207932e-07,1.2687698e-07,0.0,0.0,0.0,0.0,0.0,0.0,0.0,0.0,531,0.14969477,0.315254,0.011035411,0.0,0.0001697141,0.0042521995,0.0,0.0,0.0,0.0,0,0,0,165,24,0,0,0
10140000,0.97891194,-0.0077003706,-0.012579477,0.20374967,0.0066097677,0.016021581,-0.024980783,0.0055495393,0.00861789,-0.024278482,-8.940387e-06,-4.6685695e-05,-1.6032883e-06,-2.616014e-05,-9.8520766e-05,-0.0010624155,0.2042463,0.009145033,0.43464214,0.0,0.0,0.0,0.0,0.0,5.714114e-10,2.4490739e-05,0.00028769235,8.115707e-06,5.778038e-05,5.7776037e-05,0.00018633401,0.013706394,0.013707228,0.031664085,0.011308547,0.011308895,0.09887738,1.886166e-10,1.8837151e-10,1.9229953e-09,7.050073e-07,7.0490717e-07,1.1496463e-07,0.0,0.0,0.0,0.0,0.0,0.0,0.0,0.0,531,0.15039097,0.31444773,0.01093674,0.0,0.00017372334,0.0022937274,0.0,0.0,0.0,0.0,0,0,0,165,24,0,0,0
10340000,0.978959,-0.007883908,-0.012400336,0.20352733,0.0055501717,0.014073295,-0.022249825,0.004680931,0.008160462,-0.015276377,-8.768136e-06,-4.692458e-05,-1.2540099e-06,-3.241532e-05,-0.00010260081,-0.0010726333,0.2042463,0.009145033,0.43464214,0.0,0.0,0.0,0.0,0.0,5.862426e-10,2.4728044e-05,0.0002901193,8.001839e-06,5.4519493e-05,5.4517088e-05,0.00018392983,0.012891574,0.012892232,0.02960621,0.010914606,0.010914911,0.09598579,1.6577785e-10,1.6554506e-10,1.825297e-09,6.8909793e-07,6.889971e-07,1.0317361e-07,0.0,0.0,0.0,0.0,0.0,0.0,0.0,0.0,531,0.14774814,0.30981573,0.015765345,0.0,0.00016687915,0.007781508,0.0,0.0,0.0,0.0,0,0,0,165,24,0,0,0
10540000,0.979046,-0.007999511,-0.0123326965,0.20310795,0.0038016667,0.013480041,-0.017180465,0.003940514,0.007980471,-0.011173775,-8.608928e-06,-4.711741e-05,-2.1532048e-07,-3.707564e-05,-0.00010601888,-0.00107815,0.2042463,0.009145033,0.43464214,0.0,0.0,0.0,0.0,0.0,5.7460964e-10,2.4012601e-05,0.0003024517,7.959556e-06,5.212362e-05,5.212195e-05,0.00018303905,0.012517753,0.012518275,0.028203147,0.011009475,0.011009755,0.095461525,1.484049e-10,1.4818255e-10,1.7428943e-09,6.764457e-07,6.763443e-07,9.391967e-08,0.0,0.0,0.0,0.0,0.0,0.0,0.0,0.0,531,0.14838877,0.30896848,0.011988385,0.0,0.00015885927,0.0022888891,0.0,0.0,0.0,0.0,0,0,0,165,24,0,0,0
10740000,0.97914314,-0.007965293,-0.012178633,0.20265035,0.0066577415,0.010135936,-0.013652672,0.0035287077,0.0073776967,-0.010147249,-8.447508e-06,-4.729714e-05,7.2828726e-07,-4.148747e-05,-0.00010968981,-0.0010809501,0.2042463,0.009145033,0.43464214,0.0,0.0,0.0,0.0,0.0,6.0733185e-10,2.4714092e-05,0.00028990302,7.841513e-06,4.950664e-05,4.950538e-05,0.00018055634,0.011792858,0.011793336,0.026436433,0.010625548,0.010625788,0.092707396,1.3161605e-10,1.3140486e-10,1.6549729e-09,6.6371194e-07,6.636108e-07,8.471133e-08,0.0,0.0,0.0,0.0,0.0,0.0,0.0,0.0,531,0.14577837,0.30447888,0.0046961647,0.0,0.0001507924,0.00048560585,0.0,0.0,0.0,0.0,0,0,0,165,24,0,0,0
10940000,0.97916263,-0.008015071,-0.012219895,0.20255113,0.005167911,0.0069217384,-0.01219739,0.0035722977,0.006772835,-0.010954675,-8.340732e-06,-4.7424408e-05,8.8523075e-07,-4.4977434e-05,-0.00011253034,-0.0010820231,0.2042463,0.009145033,0.43464214,0.0,0.0,0.0,0.0,0.0,6.112022e-10,2.3704133e-05,0.00028759323,7.792089e-06,4.7618592e-05,4.761707e-05,0.00017955848,0.011494613,0.011494891,0.025245752,0.0107262125,0.010726433,0.09221629,1.1890014e-10,1.1869834e-10,1.5810161e-09,6.53679e-07,6.5357864e-07,7.748983e-08,0.0,0.0,0.0,0.0,0.0,0.0,0.0,0.0,531,0.14646722,0.30367136,0.0075710462,0.0,0.00013608724,0.0033064985,0.0,0.0,0.0,0.0,0,0,0,165,24,0,0,0
11140000,0.9791775,-0.008130991,-0.012218641,0.20247513,0.004663627,0.0035033242,-0.009364583,0.0032412398,0.005461767,-0.01100151,-8.24853e-06,-4.7543374e-05,9.699487e-07,-4.8322083e-05,-0.000115072035,-0.0010832867,0.2042463,0.009145033,0.43464214,0.0,0.0,0.0,0.0,0.0,5.4732086e-10,2.311223e-05,0.00028725195,7.675449e-06,4.5540884e-05,4.5537727e-05,0.00017703405,0.010880968,0.010881111,0.023738716,0.010373665,0.010373847,0.089648664,1.065227e-10,1.06320334e-10,1.5021561e-09,6.4354987e-07,6.43448e-07,7.0269536e-08,0.0,0.0,0.0,0.0,0.0,0.0,0.0,0.0,531,0.14403997,0.29941386,0.0037843906,0.0,0.000110944165,0.0041582617,0.0,0.0,0.0,0.0,0,0,0,165,24,0,0,0
11340000,0.9801009,-0.008274637,-0.011994226,0.19796446,0.004912662,-0.001537088,-0.0059258677,0.0029555373,0.0038636166,-0.007984871,-8.192273e-06,-4.7632326e-05,7.8787866e-07,-5.1012612e-05,-0.00011681189,-0.0010859984,0.2064798,0.009245049,0.4363592,0.0,0.0,0.0,0.0,0.0,6.100194e-10,2.3924536e-05,0.0002815368,7.7890865e-05,4.4724777e-05,4.4576453e-05,0.0018985845,0.009756583,0.00975672,0.02235553,0.01003197,0.010032114,0.087198995,9.5912035e-11,9.570892e-11,1.4520672e-09,6.345357e-07,6.3443383e-07,6.389073e-08,0.0,0.0,0.0,0.0,0.0,0.0,0.0,0.0,531,0.14164774,0.29529476,0.00360086,0.0,7.8883626e-05,0.0075246487,0.0,0.0,0.0,0.0,0,0,0,165,24,0,0,0
11540000,0.9795688,-0.008261875,-0.012176587,0.20057078,-0.0091855,-0.004747295,-0.037340276,-0.0017179148,-0.00037225324,-0.01349808,-8.192779e-06,-4.763189e-05,7.690399e-07,-5.1014646e-05,-0.00011679537,-0.0010869717,0.2064798,0.009245049,0.4363592,0.0,0.0,0.0,0.0,0.0,5.917517e-10,2.4817964e-05,0.0002832085,4.5745463e-05,4.4728367e-05,4.4626315e-05,0.0011151528,0.051089216,0.05108906,0.056376044,0.50170165,0.50170165,0.07691769,9.601436e-11,9.581125e-11,1.4521256e-09,6.345371e-07,6.344332e-07,5.9360964e-08,0.0,0.0,0.0,0.0,0.0,0.0,0.0,0.0,535,1.0017002,0.27734038,0.010728972,0.0,0.0,0.003916949,0.0,0.0,0.0,0.0,0,0,0,831,24,0,0,0
11740000,0.9794257,-0.008301833,-0.012134959,0.20126896,-0.007767515,-0.0046010246,-0.0330784,-0.001958513,-0.00087296835,-0.011253571,-8.194056e-06,-4.7636382e-05,7.599115e-07,-5.2043742e-05,-0.0001165253,-0.0010915895,0.2064798,0.009245049,0.4363592,0.0,0.0,0.0,0.0,0.0,5.5337546e-10,2.469118e-05,0.0002830841,3.123895e-05,4.4717377e-05,4.4641143e-05,0.0007619409,0.04521644,0.04521631,0.050993428,0.3376537,0.3376537,0.07034583,9.609839e-11,9.5895195e-11,1.4520377e-09,6.337146e-07,6.3360915e-07,5.5662152e-08,0.0,0.0,0.0,0.0,0.0,0.0,0.0,0.0,535,0.8217709,0.26522788,0.016594306,0.009716533,0.00030402816,0.012147613,0.0,0.0,0.0,0.0,0,0,0,831,24,0,0,0
11940000,0.9794333,-0.008258939,-0.011978669,0.20124297,-0.010353809,-0.005109999,-0.02760335,-0.006229029,-0.0012494165,-0.008496651,-8.192269e-06,-4.7635876e-05,7.5061905e-07,-5.2008378e-05,-0.00011693163,-0.0010951805,0.2064798,0.009245049,0.4363592,0.0,0.0,0.0,0.0,0.0,5.3672616e-10,2.463399e-05,0.00027306608,2.4358307e-05,4.4528326e-05,4.446527e-05,0.0005950201,0.04250703,0.04250683,0.04610882,0.25708854,0.25708854,0.068532534,9.6142705e-11,9.59392e-11,1.451781e-09,6.309391e-07,6.308331e-07,5.3211608e-08,0.0,0.0,0.0,0.0,0.0,0.0,0.0,0.0,535,0.7170614,0.2617872,0.007329189,0.0134818675,0.0015621185,0.0126236165,0.0,0.0,0.0,0.0,0,0,0,831,24,0,0,0
12140000,0.9795164,-0.008197233,-0.011929049,0.20084381,-0.0061501716,-0.009438918,-0.02355181,-0.005803861,-0.0026551643,-0.006758163,-8.196838e-06,-4.7641148e-05,7.796408e-07,-5.306823e-05,-0.00011570927,-0.0010977631,0.2064798,0.009245049,0.4363592,0.0,0.0,0.0,0.0,0.0,6.040885e-10,2.5477113e-05,0.00028743784,1.9566809e-05,4.4072218e-05,4.4016644e-05,0.0004777287,0.041721452,0.041721385,0.04138432,0.21001141,0.21001136,0.06739419,9.6140824e-11,9.5936745e-11,1.4511972e-09,6.2561804e-07,6.255121e-07,5.1132243e-08,0.0,0.0,0.0,0.0,0.0,0.0,0.0,0.0,535,0.6480917,0.25960392,0.0048414576,0.0068982593,0.0011406855,0.0057402076,0.0,0.0,0.0,0.0,0,0,0,831,24,0,0,0
12340000,0.97954035,-0.008171057,-0.012130521,0.2007161,-0.0035526636,-0.010451665,-0.01894056,-0.005237542,-0.0033385914,-0.0019817918,-8.191889e-06,-4.7648635e-05,7.928934e-07,-5.4771714e-05,-0.00011675837,-0.0011004092,0.2064798,0.009245049,0.4363592,0.0,0.0,0.0,0.0,0.0,6.348859e-10,2.5434847e-05,0.00028106663,1.6670754e-05,4.3327927e-05,4.327437e-05,0.0004070635,0.04207643,0.042076614,0.037163805,0.17978185,0.17978181,0.06835031,9.6096874e-11,9.5891926e-11,1.4503917e-09,6.175897e-07,6.1748443e-07,5.000007e-08,0.0,0.0,0.0,0.0,0.0,0.0,0.0,0.0,535,0.59963626,0.2614389,0.01232034,0.011274478,0.0010734212,0.0013223359,0.0,0.0,0.0,0.0,0,0,0,831,24,0,0,0
12540000,0.979509,-0.008265424,-0.012220741,0.20085977,-0.0002189952,-0.0036263305,-0.011214204,-0.003560303,-0.0032242008,0.003465022,-8.1894295e-06,-4.7660407e-05,7.5601037e-07,-5.785073e-05,-0.000117547985,-0.0011022479,0.2064798,0.009245049,0.4363592,0.0,0.0,0.0,0.0,0.0,6.571402e-10,2.4942252e-05,0.00028593384,1.430819e-05,4.230963e-05,4.226026e-05,0.00034938115,0.042997494,0.04299797,0.033038653,0.15925704,0.15925701,0.068487726,9.6022225e-11,9.581616e-11,1.449062e-09,6.070773e-07,6.0697295e-07,5.0000036e-08,0.0,0.0,0.0,0.0,0.0,0.0,0.0,0.0,535,0.5643705,0.26170158,0.01499926,0.012535446,0.0009738894,0.00798485,0.0,0.0,0.0,0.0,0,0,0,831,24,0,0,0
12740000,0.9794608,-0.008269154,-0.012300112,0.20108959,0.0018604571,-0.00059727725,-0.0073660845,-0.0028530175,-0.002763122,0.0049345186,-8.189305e-06,-4.765952e-05,6.7454766e-07,-5.8081085e-05,-0.000118084565,-0.0011028503,0.2064798,0.009245049,0.4363592,0.0,0.0,0.0,0.0,0.0,6.533909e-10,2.5577348e-05,0.0002874909,1.2535398e-05,4.1079413e-05,4.1032956e-05,0.00030653822,0.044081807,0.044082586,0.02925196,0.14483723,0.14483722,0.06861594,9.5932554e-11,9.572518e-11,1.4472306e-09,5.946073e-07,5.9450366e-07,5e-08,0.0,0.0,0.0,0.0,0.0,0.0,0.0,0.0,535,0.53821415,0.26194644,0.0058700945,0.005519591,0.0006610552,0.0019484024,0.0,0.0,0.0,0.0,0,0,0,831,24,0,0,0
12940000,0.9794686,-0.008133547,-0.012268098,0.20105879,0.00040340354,-0.00051963504,-0.008506276,-0.0024093948,-0.0024343652,0.0012656035,-8.187921e-06,-4.765841e-05,6.669983e-07,-5.7818987e-05,-0.00011850847,-0.0011027005,0.2064798,0.009245049,0.4363592,0.0,0.0,0.0,0.0,0.0,6.7023936e-10,2.643264e-05,0.00028479093,1.1327958e-05,3.9716524e-05,3.967269e-05,0.00027706154,0.045046072,0.045046926,0.026086653,0.13448785,0.1344879,0.06977826,9.584434e-11,9.563557e-11,1.4451419e-09,5.808855e-07,5.807823e-07,5.0000036e-08,0.0,0.0,0.0,0.0,0.0,0.0,0.0,0.0,535,0.5186287,0.26415575,0.011286367,0.005913715,0.0005269627,0.004834293,0.0,0.0,0.0,0.0,0,0,0,831,24,0,0,0
13140000,0.9794752,-0.008166042,-0.01222776,0.2010276,0.004525573,-0.002435087,-0.0010678389,-0.0016536022,-0.0035329377,0.009803923,-8.193424e-06,-4.765549e-05,6.6407694e-07,-5.69924e-05,-0.00011693699,-0.0011044528,0.2064798,0.009245049,0.4363592,0.0,0.0,0.0,0.0,0.0,6.0610805e-10,2.447034e-05,0.00026392654,1.0236008e-05,3.830473e-05,3.8264086e-05,0.00025035458,0.045704197,0.04570562,0.023049578,0.12695597,0.12695612,0.06948205,9.577128e-11,9.5561205e-11,1.4421924e-09,5.666595e-07,5.66556e-07,5e-08,0.0,0.0,0.0,0.0,0.0,0.0,0.0,0.0,535,0.5038969,0.26359448,0.017157637,0.004919218,0.00045979166,0.015086355,0.0,0.0,0.0,0.0,0,0,0,831,24,0,0,0
13340000,0.97953457,-0.008241854,-0.0122607695,0.20073326,0.0061629126,0.00090224267,-0.0005373359,-0.0010905152,-0.0015339138,0.009726357,-8.184438e-06,-4.766327e-05,7.3720275e-07,-5.8952082e-05,-0.00011911514,-0.0011045893,0.2064798,0.009245049,0.4363592,0.0,0.0,0.0,0.0,0.0,6.3215594e-10,2.4215053e-05,0.00028104655,9.453181e-06,3.692308e-05,3.688509e-05,0.00023131439,0.045991525,0.045993082,0.020602882,0.12142089,0.121421106,0.07011958,9.572338e-11,9.551212e-11,1.4390006e-09,5.525957e-07,5.5249177e-07,5.000007e-08,0.0,0.0,0.0,0.0,0.0,0.0,0.0,0.0,535,0.49279,0.26480103,0.015679661,0.0046599708,0.0017965906,0.0051641096,0.0,0.0,0.0,0.0,0,0,0,831,24,0,0,0
13540000,0.9794907,-0.008300739,-0.012299523,0.20094262,0.008776709,0.0049341554,1.5736297e-05,-0.0004068318,0.00051127217,0.011337853,-8.179731e-06,-4.7659778e-05,6.606079e-07,-5.834015e-05,-0.00012135338,-0.0011048464,0.2064798,0.009245049,0.4363592,0.0,0.0,0.0,0.0,0.0,6.3175365e-10,2.4801155e-05,0.0002826614,8.728957e-06,3.5629564e-05,3.5593894e-05,0.00021335785,0.04589258,0.045894533,0.018275127,0.11732087,0.11732121,0.06926209,9.570527e-11,9.549307e-11,1.4346901e-09,5.392198e-07,5.39115e-07,5e-08,0.0,0.0,0.0,0.0,0.0,0.0,0.0,0.0,535,0.4843987,0.26317692,0.0031732984,0.0031360083,0.00028591944,0.0001875637,0.0,0.0,0.0,0.0,0,0,0,831,24,0,0,0
13740000,0.97945076,-0.008211012,-0.012278093,0.20114198,0.008230672,0.0024928274,0.0016706511,0.00030590245,0.0005212543,0.014660755,-8.183597e-06,-4.7651247e-05,5.161681e-07,-5.6282835e-05,-0.00012124602,-0.0011053265,0.2064798,0.009245049,0.4363592,0.0,0.0,0.0,0.0,0.0,6.122176e-10,2.4309918e-05,0.00027963467,8.196407e-06,3.4465713e-05,3.4431854e-05,0.00020035316,0.045438778,0.04544087,0.01646892,0.11426113,0.11426158,0.06939548,9.5718114e-11,9.550518e-11,1.4302179e-09,5.26884e-07,5.267779e-07,5.000007e-08,0.0,0.0,0.0,0.0,0.0,0.0,0.0,0.0,535,0.4780405,0.26343024,0.012890468,0.003432956,0.00011093162,0.0016579762,0.0,0.0,0.0,0.0,0,0,0,831,24,0,0,0
13940000,0.97945136,-0.008309591,-0.012300328,0.20113388,0.011822972,-0.0023179576,0.0052011088,0.0024474536,-0.0013373254,0.015775159,-8.189911e-06,-4.76485e-05,4.584618e-07,-5.5599703e-05,-0.00011902725,-0.0011053231,0.2064798,0.009245049,0.4363592,0.0,0.0,0.0,0.0,0.0,6.26581e-10,2.4801082e-05,0.00027853408,7.677248e-06,3.345373e-05,3.3421882e-05,0.0001877194,0.044683836,0.044686332,0.01476177,0.11195919,0.111959726,0.06812663,9.575849e-11,9.554522e-11,1.4243671e-09,5.157877e-07,5.1568014e-07,5.0000036e-08,0.0,0.0,0.0,0.0,0.0,0.0,0.0,0.0,535,0.4732007,0.26101077,0.00061662175,0.0051371953,0.000106202555,0.00083815114,0.0,0.0,0.0,0.0,0,0,0,831,24,0,0,0
14140000,0.97940767,-0.008294938,-0.01226878,0.20134936,0.016826794,-0.006934679,0.0053657386,0.006170065,-0.0055199256,0.018776365,-8.199109e-06,-4.76457e-05,3.44451e-07,-5.551148e-05,-0.000115454764,-0.0011054447,0.2064798,0.009245049,0.4363592,0.0,0.0,0.0,0.0,0.0,5.67206e-10,2.3807468e-05,0.00027039263,7.251601e-06,3.260384e-05,3.257385e-05,0.00017707005,0.04371386,0.043716636,0.0133282365,0.11021181,0.11021248,0.066727914,9.5821524e-11,9.560824e-11,1.4176186e-09,5.059952e-07,5.058859e-07,5e-08,0.0,0.0,0.0,0.0,0.0,0.0,0.0,0.0,535,0.46949366,0.25831747,0.0033851934,0.006655447,0.0011668791,0.0013859977,0.0,0.0,0.0,0.0,0,0,0,831,24,0,0,0
14340000,0.9794735,-0.00832544,-0.012124408,0.201036,0.01718778,-0.007411745,0.007454589,0.006385534,-0.0051606204,0.02283897,-8.192755e-06,-4.7645663e-05,4.732803e-07,-5.331481e-05,-0.00011784829,-0.001105815,0.2064798,0.009245049,0.4363592,0.0,0.0,0.0,0.0,0.0,5.4337024e-10,2.42671e-05,0.0002832397,6.9322064e-06,3.1912747e-05,3.1884978e-05,0.00016937664,0.042577643,0.042580545,0.012276033,0.108870976,0.10887175,0.066346176,9.590147e-11,9.56884e-11,1.4108525e-09,4.9749747e-07,4.973863e-07,5.0000036e-08,0.0,0.0,0.0,0.0,0.0,0.0,0.0,0.0,535,0.46662912,0.2575775,0.01138607,0.0063672964,0.0012221057,0.0041644447,0.0,0.0,0.0,0.0,0,0,0,831,24,0,0,0
14540000,0.9795328,-0.008345601,-0.011979252,0.20075431,0.01747924,-0.005507159,0.00954979,0.0066008996,-0.007071993,0.026448853,-8.1889875e-06,-4.7646914e-05,6.165547e-07,-5.071562e-05,-0.0001184302,-0.001106065,0.2064798,0.009245049,0.4363592,0.0,0.0,0.0,0.0,0.0,5.504204e-10,2.4009241e-05,0.00029613118,6.611604e-06,3.1372834e-05,3.1347063e-05,0.00016158311,0.04133681,0.04133968,0.011291448,0.10782847,0.10782932,0.06479303,9.5990126e-11,9.5777705e-11,1.4023226e-09,4.902185e-07,4.901053e-07,5e-08,0.0,0.0,0.0,0.0,0.0,0.0,0.0,0.0,535,0.46438968,0.25454473,0.0037534013,0.0060631265,0.0012632677,0.00258198,0.0,0.0,0.0,0.0,0,0,0,831,24,0,0,0
14740000,0.97952336,-0.008310359,-0.011875018,0.20080835,0.016510572,-0.0051546777,0.0065910295,0.006782564,-0.0066216653,0.025169583,-8.189194e-06,-4.7646598e-05,5.964792e-07,-4.8638078e-05,-0.00012037085,-0.0011058192,0.2064798,0.009245049,0.4363592,0.0,0.0,0.0,0.0,0.0,5.7223587e-10,2.3456521e-05,0.00030133672,6.393477e-06,3.09721e-05,3.0947816e-05,0.00015603409,0.040046256,0.04004907,0.010608523,0.10700508,0.10700603,0.06425003,9.6081226e-11,9.5869646e-11,1.3939091e-09,4.8405565e-07,4.8394065e-07,5.000007e-08,0.0,0.0,0.0,0.0,0.0,0.0,0.0,0.0,535,0.46261334,0.2534759,0.0059198425,0.0067295283,0.0013595403,0.010968301,0.0,0.0,0.0,0.0,0,0,0,831,24,0,0,0
14940000,0.9795047,-0.008273251,-0.012026909,0.20089202,0.017196527,-0.0026869797,0.005420722,0.010032082,-0.0059788795,0.022571044,-8.19277e-06,-4.764233e-05,4.457879e-07,-4.9135135e-05,-0.00012111352,-0.0011054141,0.2064798,0.009245049,0.4363592,0.0,0.0,0.0,0.0,0.0,5.7588156e-10,2.4715071e-05,0.00029705645,6.159354e-06,3.069702e-05,3.0672953e-05,0.00015024583,0.03873184,0.038734473,0.009970592,0.10634169,0.106342696,0.06265994,9.616608e-11,9.5955785e-11,1.3834635e-09,4.7889273e-07,4.787759e-07,5e-08,0.0,0.0,0.0,0.0,0.0,0.0,0.0,0.0,535,0.46117717,0.2503197,0.0017241534,0.0020415976,0.001339333,0.005386386,0.0,0.0,0.0,0.0,0,0,0,831,24,0,0,0
15140000,0.97948873,-0.008197817,-0.011946234,0.20097785,0.020979807,-0.0035010593,0.0072881132,0.014878729,-0.0040361723,0.018645765,-8.1953995e-06,-4.7636197e-05,3.832145e-07,-5.0871226e-05,-0.0001221558,-0.0011047072,0.2064798,0.009245049,0.4363592,0.0,0.0,0.0,0.0,0.0,5.4890936e-10,2.4051511e-05,0.00029971087,6.004798e-06,3.0532592e-05,3.0509786e-05,0.00014626421,0.03742118,0.03742386,0.009574782,0.105794184,0.105795294,0.06208182,9.623882e-11,9.602995e-11,1.3733481e-09,4.7460577e-07,4.7448694e-07,5.000007e-08,0.0,0.0,0.0,0.0,0.0,0.0,0.0,0.0,535,0.45998856,0.24916224,0.0043253056,0.004815508,0.0019588408,0.0007873373,0.0,0.0,0.0,0.0,0,0,0,831,24,0,0,0
15340000,0.9795059,-0.0081277015,-0.011836883,0.20090339,0.02181686,-0.0032101988,0.008159824,0.014522574,-0.005408295,0.019434767,-8.1968055e-06,-4.7642752e-05,3.4640954e-07,-4.8372312e-05,-0.00012263739,-0.0011048232,0.2064798,0.009245049,0.4363592,0.0,0.0,0.0,0.0,0.0,5.183019e-10,2.4096607e-05,0.0002917378,5.828535e-06,3.0466254e-05,3.0444382e-05,0.0001419527,0.036148455,0.036151215,0.00920479,0.105330884,0.10533211,0.06057038,9.629077e-11,9.6083766e-11,1.360962e-09,4.7107966e-07,4.7095867e-07,5.0000036e-08,0.0,0.0,0.0,0.0,0.0,0.0,0.0,0.0,535,0.45898038,0.24611051,0.011202028,0.007862524,0.002891606,0.009846231,0.0,0.0,0.0,0.0,0,0,0,831,24,0,0,0
15540000,0.979472,-0.008149789,-0.011627031,0.20107967,0.02283046,-0.004638619,0.009663059,0.01585168,-0.0048212414,0.020994531,-8.204579e-06,-4.764301e-05,1.6457714e-07,-4.7227524e-05,-0.0001236252,-0.0011045268,0.2064798,0.009245049,0.4363592,0.0,0.0,0.0,0.0,0.0,5.4150656e-10,2.4645266e-05,0.00028180509,5.6858307e-06,3.0484727e-05,3.0464527e-05,0.00013824439,0.034922924,0.034925725,0.008945157,0.104927845,0.104929164,0.05913845,9.6315615e-11,9.6110835e-11,1.3475289e-09,4.6820819e-07,4.6808512e-07,5e-08,0.0,0.0,0.0,0.0,0.0,0.0,0.0,0.0,535,0.45810154,0.24318399,0.027986515,0.0076015387,0.0028283573,0.009550798,0.0,0.0,0.0,0.0,0,0,0,831,24,0,0,0
15740000,0.9794115,-0.008106744,-0.011513531,0.20138259,0.019505031,-0.006211899,0.012232989,0.016325528,-0.006203253,0.0289315,-8.210963e-06,-4.7644586e-05,-1.2302279e-07,-4.5905283e-05,-0.00012385771,-0.0011051757,0.2064798,0.009245049,0.4363592,0.0,0.0,0.0,0.0,0.0,5.2410587e-10,2.3730101e-05,0.00028307567,5.6028025e-06,3.0487274e-05,3.0467956e-05,0.000135912,0.0332601,0.033262543,0.008849997,0.10358655,0.10358787,0.058649927,9.627811e-11,9.607585e-11,1.3347384e-09,4.657687e-07,4.6564344e-07,5.0000036e-08,0.0,0.0,0.0,0.0,0.0,0.0,0.0,0.0,535,0.45516416,0.24217747,0.0006548076,0.004131613,0.003445293,0.0024114095,0.0,0.0,0.0,0.0,0,0,0,831,24,0,0,0
15940000,0.97940075,-0.008211628,-0.011346392,0.20144005,0.017345857,-0.007210113,0.015992122,0.013390384,-0.0073101865,0.034746874,-8.221274e-06,-4.7666963e-05,-2.2286235e-07,-4.3342654e-05,-0.00012485406,-0.0011058467,0.2064798,0.009245049,0.4363592,0.0,0.0,0.0,0.0,0.0,5.370895e-10,2.3970457e-05,0.00028102202,5.4965144e-06,3.0579333e-05,3.056125e-05,0.00013315692,0.03180005,0.031802405,0.008756628,0.102424875,0.10242619,0.057378363,9.619691e-11,9.599762e-11,1.3193838e-09,4.6389388e-07,4.6376667e-07,5e-08,0.0,0.0,0.0,0.0,0.0,0.0,0.0,0.0,535,0.45260474,0.2395378,0.016696228,0.012540643,0.0035666088,0.010158888,0.0,0.0,0.0,0.0,0,0,0,831,24,0,0,0
16139999,0.9793992,-0.008298074,-0.0112352595,0.20145029,0.01752606,-0.00056155823,0.015243217,0.012452355,-0.0018666832,0.0317884,-8.258642e-06,-4.7668673e-05,-2.92909e-07,-4.2896743e-05,-0.00012758421,-0.0011052747,0.2064798,0.009245049,0.4363592,0.0,0.0,0.0,0.0,0.0,5.662245e-10,2.4698198e-05,0.0002923094,5.437909e-06,3.0743628e-05,3.072657e-05,0.00013159882,0.03051811,0.030520402,0.008800669,0.10140903,0.101410344,0.057017438,9.606806e-11,9.587187e-11,1.3049007e-09,4.624641e-07,4.6233515e-07,5.000007e-08,0.0,0.0,0.0,0.0,0.0,0.0,0.0,0.0,535,0.45035473,0.23878324,0.0059280945,0.013436521,0.0029258134,0.0033573876,0.0,0.0,0.0,0.0,0,0,0,831,24,0,0,0
16340000,0.97943515,-0.008310968,-0.011192548,0.20127748,0.01700072,-0.004359146,0.017297387,0.011674745,-0.0034103796,0.037704866,-8.253744e-06,-4.7694182e-05,-1.1509324e-07,-4.1568328e-05,-0.00012766174,-0.00110528,0.2064798,0.009245049,0.4363592,0.0,0.0,0.0,0.0,0.0,5.6510674e-10,2.4586598e-05,0.0002909556,5.358707e-06,3.0964424e-05,3.0947664e-05,0.00012957076,0.029385036,0.029387273,0.008832635,0.1005125,0.100513846,0.055951353,9.588247e-11,9.568984e-11,1.2877325e-09,4.6139047e-07,4.6126002e-07,5.0000036e-08,0.0,0.0,0.0,0.0,0.0,0.0,0.0,0.0,535,0.4483596,0.23654038,0.010819102,0.009291517,0.002751315,0.0013546062,0.0,0.0,0.0,0.0,0,0,0,831,24,0,0,0
16540000,0.97944945,-0.008312371,-0.0112173185,0.20120649,0.016383523,-0.003969331,0.023075804,0.011107045,-0.0033099672,0.04179385,-8.26375e-06,-4.7713133e-05,4.3270236e-09,-4.0770945e-05,-0.00012828391,-0.0011051643,0.2064798,0.009245049,0.4363592,0.0,0.0,0.0,0.0,0.0,5.5622174e-10,2.3636738e-05,0.00028252322,5.2953596e-06,3.122405e-05,3.1207343e-05,0.00012784607,0.02834613,0.028348297,0.0089127915,0.09964399,0.09964535,0.05501228,9.562998e-11,9.544113e-11,1.2696812e-09,4.6059404e-07,4.604624e-07,5e-08,0.0,0.0,0.0,0.0,0.0,0.0,0.0,0.0,535,0.44641834,0.23454696,0.003985183,0.0068478533,0.0026216907,0.009889172,0.0,0.0,0.0,0.0,0,0,0,831,24,0,0,0
16747999,0.9794564,-0.008451428,-0.011243249,0.20116523,0.014781507,-0.0059268186,0.025646597,0.010769955,-0.0031771963,0.04447937,-8.2770675e-06,-4.7729245e-05,2.2972767e-08,-4.0207837e-05,-0.00012880893,-0.0011042145,0.2064798,0.009245049,0.4363592,0.0,0.0,0.0,0.0,0.0,5.688627e-10,2.3487815e-05,0.00029684446,5.2500236e-06,3.1557618e-05,3.1541134e-05,0.00012660226,0.027575687,0.027577767,0.009066015,0.09943907,0.099440485,0.05445249,9.5313535e-11,9.512863e-11,1.2507934e-09,4.6001756e-07,4.5988486e-07,5e-08,0.0,0.0,0.0,0.0,0.0,0.0,0.0,0.0,535,0.44595915,0.23335057,0.008173609,0.0065741944,0.0024810382,0.0075894105,0.0,0.0,0.0,0.0,0,0,0,831,24,0,0,0
16948000,0.979426,-0.008637004,-0.011258824,0.20130387,0.016347583,-0.0090509625,0.026848033,0.013317418,-0.0078012054,0.04383507,-8.2453735e-06,-4.773791e-05,-2.826683e-08,-3.9931914e-05,-0.00012836802,-0.0011025202,0.2064798,0.009245049,0.4363592,0.0,0.0,0.0,0.0,0.0,5.2869026e-10,2.3809745e-05,0.00029724953,5.242161e-06,3.187981e-05,3.1863558e-05,0.00012609521,0.026771517,0.02677349,0.00927692,0.09873146,0.09873291,0.05447135,9.491951e-11,9.473863e-11,1.2332824e-09,4.5960851e-07,4.5947502e-07,5.000007e-08,0.0,0.0,0.0,0.0,0.0,0.0,0.0,0.0,535,0.44436964,0.23339099,0.020997785,0.009848121,0.002386934,0.011336331,0.0,0.0,0.0,0.0,0,0,0,831,24,0,0,0
17148000,0.9794373,-0.008588364,-0.0112143215,0.20125407,0.017995117,-0.010107522,0.026667163,0.012877072,-0.0075840876,0.04548206,-8.264298e-06,-4.7759528e-05,8.9767205e-08,-3.9602994e-05,-0.00012882844,-0.0011011286,0.2064798,0.009245049,0.4363592,0.0,0.0,0.0,0.0,0.0,5.776072e-10,2.377607e-05,0.00030397088,5.206388e-06,3.221923e-05,3.220302e-05,0.00012504015,0.026069429,0.026071478,0.009442588,0.098090865,0.098092325,0.053845372,9.444274e-11,9.4266324e-11,1.2128263e-09,4.593222e-07,4.5918807e-07,5.0000036e-08,0.0,0.0,0.0,0.0,0.0,0.0,0.0,0.0,535,0.44292572,0.23204605,0.0015211592,0.0070821247,0.0029167242,0.0056350874,0.0,0.0,0.0,0.0,0,0,0,831,24,0,0,0
17348000,0.97944427,-0.0086674495,-0.011249779,0.20121504,0.015607314,-0.0088153165,0.024750367,0.012352477,-0.0073193214,0.040837273,-8.288865e-06,-4.7781017e-05,2.069009e-07,-3.946308e-05,-0.00012923614,-0.001097424,0.2064798,0.009245049,0.4363592,0.0,0.0,0.0,0.0,0.0,5.854866e-10,2.3979892e-05,0.00030202584,5.2073137e-06,3.256884e-05,3.2552547e-05,0.00012486755,0.025456186,0.025458006,0.009686767,0.097507924,0.0975094,0.05404349,9.3880057e-11,9.370801e-11,1.194045e-09,4.591191e-07,4.589846e-07,5.000007e-08,0.0,0.0,0.0,0.0,0.0,0.0,0.0,0.0,535,0.44160765,0.23247255,0.017585423,0.0151232695,0.002838745,0.011794678,0.0,0.0,0.0,0.0,0,0,0,831,24,0,0,0
17548000,0.9794536,-0.008448972,-0.01122649,0.20117961,0.013002017,-0.008416219,0.020762019,0.010362235,-0.0069972957,0.039439462,-8.325591e-06,-4.781025e-05,-1.6370896e-08,-3.937811e-05,-0.00012949067,-0.0010953264,0.2064798,0.009245049,0.4363592,0.0,0.0,0.0,0.0,0.0,5.899605e-10,2.4902338e-05,0.00030176176,5.174347e-06,3.2921074e-05,3.2904336e-05,0.00012411791,0.024928909,0.024930587,0.009871574,0.09697536,0.09697685,0.053605583,9.3222784e-11,9.305562e-11,1.1722785e-09,4.5896425e-07,4.5882982e-07,5.0000036e-08,0.0,0.0,0.0,0.0,0.0,0.0,0.0,0.0,535,0.44040003,0.23152879,0.00907229,0.009993264,0.0026919546,0.007593508,0.0,0.0,0.0,0.0,0,0,0,831,24,0,0,0
17748000,0.9794297,-0.008435,-0.011113428,0.20130286,0.012075182,-0.008184313,0.019264238,0.011506497,-0.0068382695,0.041178655,-8.346054e-06,-4.7803034e-05,-2.6165296e-07,-3.9321723e-05,-0.000129628,-0.0010942426,0.2064798,0.009245049,0.4363592,0.0,0.0,0.0,0.0,0.0,5.8127597e-10,2.5314917e-05,0.00029521267,5.1539055e-06,3.3269218e-05,3.325293e-05,0.00012347585,0.024472812,0.024474332,0.010055321,0.0964875,0.09648899,0.053250413,9.246749e-11,9.230545e-11,1.1498993e-09,4.58827e-07,4.5869282e-07,5e-08,0.0,0.0,0.0,0.0,0.0,0.0,0.0,0.0,535,0.43929088,0.23076051,0.0047174618,0.0054971627,0.0022441503,0.00024857288,0.0,0.0,0.0,0.0,0,0,0,831,24,0,0,0
17948000,0.9794258,-0.008475928,-0.011000375,0.20132658,0.013580564,-0.00929385,0.021910362,0.01110602,-0.0066754664,0.04324884,-8.370113e-06,-4.7821846e-05,-2.0877587e-07,-3.9367427e-05,-0.00012959995,-0.0010933906,0.2064798,0.009245049,0.4363592,0.0,0.0,0.0,0.0,0.0,5.8166644e-10,2.405885e-05,0.0002921818,5.1697034e-06,3.36086e-05,3.3592733e-05,0.00012363003,0.024077507,0.024079084,0.010303529,0.096039556,0.09604103,0.053682227,9.16122e-11,9.145528e-11,1.1295519e-09,4.5868035e-07,4.5854665e-07,5.0000036e-08,0.0,0.0,0.0,0.0,0.0,0.0,0.0,0.0,535,0.43827,0.23169425,0.007583528,0.005187468,0.0024721848,0.007887478,0.0,0.0,0.0,0.0,0,0,0,831,24,0,0,0
18148000,0.9794284,-0.0085402215,-0.010989265,0.20131151,0.017800573,-0.011525467,0.02625025,0.010778893,-0.006625637,0.047893252,-8.401617e-06,-4.7847578e-05,-1.5202592e-07,-3.952951e-05,-0.00012940897,-0.0010927998,0.2064798,0.009245049,0.4363592,0.0,0.0,0.0,0.0,0.0,5.606902e-10,2.2750397e-05,0.0002888992,5.1573106e-06,3.3934815e-05,3.3918986e-05,0.000123157,0.023741605,0.023743453,0.01047393,0.09562789,0.09562937,0.0534704,9.065221e-11,9.05009e-11,1.106242e-09,4.5850118e-07,4.583683e-07,5e-08,0.0,0.0,0.0,0.0,0.0,0.0,0.0,0.0,535,0.4373297,0.23123667,0.008082894,0.0069316374,0.002441079,0.011752319,0.0,0.0,0.0,0.0,0,0,0,831,24,0,0,0
18348000,0.97945917,-0.008407915,-0.01100797,0.20116636,0.019518355,-0.0126427375,0.026181858,0.01345865,-0.007385764,0.048792545,-8.423304e-06,-4.784507e-05,6.541502e-08,-3.9371695e-05,-0.00012914778,-0.0010912393,0.2064798,0.009245049,0.4363592,0.0,0.0,0.0,0.0,0.0,5.8212335e-10,2.304822e-05,0.00028987735,5.173942e-06,3.4241693e-05,3.4225493e-05,0.00012345069,0.023465881,0.023467664,0.010705201,0.09524935,0.09525083,0.054035544,8.9586755e-11,8.944094e-11,1.0851914e-09,4.582671e-07,4.581353e-07,5.000007e-08,0.0,0.0,0.0,0.0,0.0,0.0,0.0,0.0,535,0.43646324,0.23245546,0.009591502,0.0051381076,0.0024712286,0.0011943273,0.0,0.0,0.0,0.0,0,0,0,831,24,0,0,0
18548000,0.97945684,-0.008552481,-0.010944553,0.20117527,0.021157175,-0.017422361,0.028947953,0.013676747,-0.010940054,0.05166028,-8.421476e-06,-4.7875663e-05,1.3432432e-07,-3.9619954e-05,-0.00012927229,-0.0010897892,0.2064798,0.009245049,0.4363592,0.0,0.0,0.0,0.0,0.0,5.6772975e-10,2.319193e-05,0.00028463642,5.1666284e-06,3.452508e-05,3.4509223e-05,0.00012308104,0.023236122,0.023237918,0.010845514,0.09490221,0.09490364,0.053918973,8.8413936e-11,8.827392e-11,1.061179e-09,4.579612e-07,4.5783096e-07,5.0000036e-08,0.0,0.0,0.0,0.0,0.0,0.0,0.0,0.0,535,0.43566713,0.23220459,0.00831791,0.007259753,0.0051072114,0.0023522323,0.0,0.0,0.0,0.0,0,0,0,831,24,0,0,0
18748000,0.9793868,-0.008596606,-0.010922633,0.20151491,0.02313454,-0.017701386,0.02833248,0.01633704,-0.00941049,0.051354736,-8.498713e-06,-4.7846595e-05,-3.300711e-07,-3.9315677e-05,-0.00012844315,-0.0010871126,0.2064798,0.009245049,0.4363592,0.0,0.0,0.0,0.0,0.0,5.967033e-10,2.3537257e-05,0.00028547583,5.193128e-06,3.478141e-05,3.4765722e-05,0.00012344679,0.023054972,0.023056744,0.011047226,0.094584785,0.09458617,0.054576304,8.713706e-11,8.700262e-11,1.0396365e-09,4.5756838e-07,4.5744005e-07,5.000007e-08,0.0,0.0,0.0,0.0,0.0,0.0,0.0,0.0,535,0.43493786,0.23361571,0.011216276,0.01147032,0.0030805678,0.0025582372,0.0,0.0,0.0,0.0,0,0,0,831,24,0,0,0
18948000,0.9794178,-0.008556891,-0.010850716,0.20137,0.014727768,-0.021196883,0.027322773,0.013280074,-0.0094901025,0.0478604,-8.5851525e-06,-4.791375e-05,-2.7699713e-07,-4.0515893e-05,-0.00012706092,-0.0010833552,0.2064798,0.009245049,0.4363592,0.0,0.0,0.0,0.0,0.0,5.637236e-10,2.27563e-05,0.00028347396,5.1795446e-06,3.5006662e-05,3.4990877e-05,0.00012314433,0.0229124,0.022913653,0.011150883,0.09429538,0.09429675,0.054526504,8.5754945e-11,8.562609e-11,1.0152216e-09,4.5707517e-07,4.5694904e-07,5.0000036e-08,0.0,0.0,0.0,0.0,0.0,0.0,0.0,0.0,535,0.43427196,0.23350911,0.013908993,0.01541193,0.0035865877,0.011896664,0.0,0.0,0.0,0.0,0,0,0,831,24,0,0,0
19148000,0.9794283,-0.008640565,-0.010774602,0.20131958,0.01435729,-0.018376622,0.027936343,0.013255473,-0.008465435,0.050689936,-8.663768e-06,-4.789908e-05,-3.5661233e-07,-4.0146726e-05,-0.00012574397,-0.0010821753,0.2064798,0.009245049,0.4363592,0.0,0.0,0.0,0.0,0.0,5.9766264e-10,2.3688599e-05,0.00027412112,5.1679617e-06,3.5197256e-05,3.518185e-05,0.0001228534,0.022805316,0.022806447,0.011232726,0.09403296,0.09403428,0.05448855,8.4271895e-11,8.414882e-11,9.906806e-10,4.5647096e-07,4.563473e-07,5e-08,0.0,0.0,0.0,0.0,0.0,0.0,0.0,0.0,535,0.43366718,0.23342782,0.004166039,0.011860222,0.00497185,0.0041341484,0.0,0.0,0.0,0.0,0,0,0,831,24,0,0,0
19348000,0.97947943,-0.0085947,-0.01076516,0.20107305,0.017401848,-0.019016601,0.02783367,0.012897309,-0.0048228307,0.05397318,-8.792742e-06,-4.7892194e-05,-2.6247892e-07,-3.990554e-05,-0.00012310359,-0.0010812465,0.2064798,0.009245049,0.4363592,0.0,0.0,0.0,0.0,0.0,5.9991523e-10,2.3630482e-05,0.0002829021,5.180243e-06,3.5351357e-05,3.5335805e-05,0.00012327345,0.022729471,0.022730794,0.011378974,0.093796395,0.09379765,0.0552086,8.269394e-11,8.257657e-11,9.688197e-10,4.5574828e-07,4.5562732e-07,5.0000036e-08,0.0,0.0,0.0,0.0,0.0,0.0,0.0,0.0,535,0.43312126,0.2349651,0.0020424167,0.019169431,0.0028389033,0.008607296,0.0,0.0,0.0,0.0,0,0,0,831,24,0,0,0
19548000,0.97947997,-0.008601011,-0.010728336,0.20107204,0.017524129,-0.01817909,0.026096722,0.014118282,-0.0054589375,0.059880238,-8.845008e-06,-4.7893576e-05,-2.4177342e-07,-3.9847644e-05,-0.00012200636,-0.0010811642,0.2064798,0.009245049,0.4363592,0.0,0.0,0.0,0.0,0.0,6.085142e-10,2.3949598e-05,0.00028811756,5.1735683e-06,3.5465913e-05,3.545041e-05,0.00012298141,0.022682823,0.022684013,0.011421423,0.09358498,0.093586184,0.05518317,8.1023584e-11,8.09122e-11,9.442531e-10,4.5490066e-07,4.5478274e-07,5e-08,0.0,0.0,0.0,0.0,0.0,0.0,0.0,0.0,535,0.43263283,0.23491098,0.00645849,0.007137897,0.002823497,0.008607001,0.0,0.0,0.0,0.0,0,0,0,831,24,0,0,0
19748000,0.97950953,-0.008705237,-0.010770631,0.20092152,0.018904306,-0.018306747,0.026305918,0.016413953,-0.0060295593,0.056108914,-8.882394e-06,-4.7879264e-05,1.04811676e-07,-3.9358507e-05,-0.00012105433,-0.0010773992,0.2064798,0.009245049,0.4363592,0.0,0.0,0.0,0.0,0.0,6.1277833e-10,2.422878e-05,0.00028379232,5.19628e-06,3.5541016e-05,3.5525445e-05,0.0001233822,0.022647487,0.022648606,0.011533823,0.093397334,0.09339849,0.055920932,7.927252e-11,7.916693e-11,9.2247704e-10,4.5392926e-07,4.5381455e-07,5.000007e-08,0.0,0.0,0.0,0.0,0.0,0.0,0.0,0.0,535,0.43219882,0.23647608,0.0050306576,0.007231193,0.0030487112,0.014571046,0.0,0.0,0.0,0.0,0,0,0,831,24,0,0,0
