timestamp,lat,lon,alt,alt_ellipsoid,delta_alt,vel_n,vel_e,vel_d,yaw,eph,epv,terrain_alt,lat_lon_reset_counter,alt_reset_counter,terrain_alt_valid,dead_reckoning
11700000,47.397750698027984,8.545607314485808,488.10608,0.01272583,-0.0,-0.018916875,-0.008168296,-0.029797835,0.4031105,1.2935427,1.0351106,0.0,2,0,0,0
11900000,47.39775067402844,8.545607299585901,488.10867,0.015014648,-0.0,-0.016638307,-0.011263304,-0.024748469,0.40533105,1.2294775,1.033356,0.0,2,0,0,0
12100000,47.397750668589104,8.54560727965827,488.10638,0.012481689,-0.0,-0.011444658,-0.014790738,-0.020183964,0.4053737,1.1903869,1.0331997,0.0,2,0,0,0
12300000,47.39775067828401,8.5456072660858,488.10336,0.009277344,-0.0,-0.008844151,-0.0106425285,-0.01449442,0.40496114,1.1645344,1.0330173,0.0,2,0,0,0
12500000,47.3977506989153,8.545607275576893,488.0984,0.004211426,-0.0,-0.005468881,-0.0048620966,-0.007896173,0.40416574,1.1465926,1.0336086,0.0,2,0,0,0
12700000,47.397750720232814,8.54560729384196,488.09308,-0.0010681152,-0.0,-0.0030695528,-0.0039335773,-0.0034898736,0.40431508,1.133767,1.0336761,0.0,2,0,0,0
12900000,47.397750737757065,8.545607308639063,488.09048,-0.0036010742,-0.0,-0.00010983589,-0.0045291684,3.0104798e-05,0.40470257,1.1244289,1.0342656,0.0,2,0,0,0
13100000,47.39775075562845,8.54560731594753,488.08893,-0.005065918,-0.0,0.0013612008,-0.0023915072,0.0027801448,0.40500864,1.1175503,1.0341562,0.0,2,0,0,0
13300000,47.39775077199626,8.545607335227837,488.08444,-0.0093688965,-0.0,0.0056744586,0.0007418957,0.004091058,0.40483916,1.1124431,1.0339115,0.0,2,0,0,0
13500000,47.397750791283855,8.545607364250758,488.08194,-0.011627197,-0.0,0.009351767,0.00044682773,0.0054964256,0.40464857,1.1086277,1.0341234,0.0,2,0,0,0
13700000,47.39775080576007,8.545607381160472,488.08002,-0.0132751465,-0.0,0.009337704,-0.001937328,0.0066755316,0.40455326,1.1057615,1.0336406,0.0,2,0,0,0
13900000,47.39775082469805,8.54560737496002,488.07648,-0.016479492,-0.0,0.013007654,-0.003642155,0.011340062,0.40513834,1.1035955,1.0336263,0.0,2,0,0,0
14100000,47.39775085691789,8.545607339132403,488.07507,-0.01751709,-0.0,0.01619823,-0.0057456554,0.011227191,0.40522826,1.1019477,1.0329672,0.0,2,0,0,0
14300000,47.39775088108287,8.545607312099094,488.07245,-0.019744873,-0.0,0.018626692,-0.006521874,0.012947914,0.40509894,1.100684,1.0328028,0.0,2,0,0,0
14500000,47.39775089847117,8.545607289670752,488.06943,-0.02230835,-0.0,0.019855715,-0.0064080516,0.0117834,0.4050396,1.0997055,1.0320579,0.0,2,0,0,0
14700000,47.397750905252835,8.545607279437233,488.0676,-0.023651123,-0.0,0.01885295,-0.0069028176,0.01054937,0.40456778,1.098938,1.0313028,0.0,2,0,0,0
14900000,47.3977509177082,8.545607282617741,488.06818,-0.022613525,-0.0,0.018562999,-0.006488404,0.013190068,0.4045632,1.0983266,1.0310341,0.0,2,0,0,0
15100000,47.397750947764095,8.54560729483095,488.07013,-0.020233154,-0.0,0.02206565,-0.00561766,0.013380522,0.404575,1.0978296,1.0302873,0.0,2,0,0,0
15300000,47.397750970455974,8.545607303999168,488.07288,-0.017150879,-0.0,0.02548287,-0.0026199196,0.013035007,0.40489513,1.0974162,1.0300132,0.0,2,0,0,0
15500000,47.397750984115476,8.54560730683328,488.07333,-0.016693115,-0.0,0.02071488,-0.006093335,0.015595335,0.40500292,1.0970633,1.0293094,0.0,2,0,0,0
15700000,47.39775100110687,8.545607301086626,488.07187,-0.01763916,-0.0,0.024177471,-0.00694136,0.013161973,0.40530428,1.0959096,1.0290692,0.0,2,0,0,0
15900000,47.39775100535588,8.545607288875381,488.0665,-0.022613525,-0.0,0.023709564,-0.0055564176,0.016697118,0.40555596,1.094911,1.02844,0.0,2,0,0,0
16100000,47.397750992944026,8.545607295413822,488.0626,-0.026031494,-0.0,0.023687728,-0.005483783,0.016920878,0.40568614,1.0940387,1.0278611,0.0,2,0,0,0
16299999,47.39775097943833,8.54560732036233,488.06036,-0.027740479,-0.0,0.020919148,-0.0060088034,0.02250542,0.40579736,1.0932697,1.0277239,0.0,2,0,0,0
16500000,47.39775096512992,8.545607325286927,488.0558,-0.031707764,-0.0,0.01827353,-0.006388348,0.026311737,0.40554088,1.0925248,1.0272545,0.0,2,0,0,0
16700000,47.39775095179208,8.545607328963262,488.05,-0.0368042,-0.0,0.018302007,-0.0048573725,0.030260714,0.4056018,1.0918597,1.0268455,0.0,2,0,0,0
16900000,47.397750945704374,8.54560732098041,488.04654,-0.03945923,-0.0,0.01737909,-0.007151226,0.031081451,0.40573213,1.0912613,1.0268424,0.0,2,0,0,0
17100000,47.39775095263836,8.545607283965891,488.04538,-0.03982544,-0.0,0.018257046,-0.011038892,0.032085318,0.40563565,1.0907195,1.026526,0.0,2,0,0,0
17300000,47.39775095120375,8.545607265890213,488.04504,-0.039367676,-0.0,0.016437491,-0.010728205,0.029302144,0.4054533,1.0902264,1.0266129,0.0,2,0,0,0
17500000,47.39775094102556,8.545607261228625,488.0491,-0.0345459,-0.0,0.013836389,-0.009289521,0.025010472,0.40510264,1.0897753,1.0263884,0.0,2,0,0,0
17700000,47.397750926351286,8.54560726303141,488.05164,-0.031341553,-0.0,0.013889047,-0.0101991035,0.024258908,0.40549725,1.0893617,1.0262047,0.0,2,0,0,0
17900000,47.39775092517098,8.545607262380239,488.05234,-0.030029297,-0.0,0.017554723,-0.01175059,0.028354403,0.4055878,1.0889814,1.0264064,0.0,2,0,0,0
18100000,47.397750931291796,8.545607256085912,488.05017,-0.031585693,-0.0,0.0220405,-0.0148846805,0.026699502,0.4055946,1.088631,1.0262942,0.0,2,0,0,0
18300000,47.39775093935021,8.545607248152994,488.0474,-0.033691406,-0.0,0.019631166,-0.015817735,0.029910022,0.40567213,1.0883079,1.0265588,0.0,2,0,0,0
18508000,47.397750955918546,8.545607225332379,488.0447,-0.03567505,-0.0,0.022171784,-0.02010304,0.03168549,0.4056264,1.0884646,1.0266309,0.0,2,0,0,0
18700000,47.39775096899601,8.545607190781093,488.043,-0.03665161,-0.0,0.019403743,-0.025266938,0.032807183,0.4053997,1.0877376,1.0268098,0.0,2,0,0,0
18900000,47.39775097255058,8.545607174198395,488.0428,-0.036132812,-0.0,0.017737811,-0.024190405,0.031896796,0.40563232,1.0874877,1.0267807,0.0,2,0,0,0
19100000,47.39775095879948,8.545607171722189,488.04367,-0.0345459,-0.0,0.01817349,-0.024656123,0.030418891,0.40519655,1.08726,1.0267587,0.0,2,0,0,0
19300000,47.39775095392438,8.545607184535692,488.0426,-0.03491211,-0.0,0.018732352,-0.024343032,0.02764794,0.40529817,1.0870535,1.0271071,0.0,2,0,0,0
19500000,47.39775095165858,8.54560721485644,488.04065,-0.03616333,-0.0,0.017322585,-0.022575386,0.029423058,0.40516895,1.0868678,1.0270932,0.0,2,0,0,0
19700000,47.397750957660385,8.545607230527569,488.0381,-0.037963867,-0.0,0.017790256,-0.02181672,0.02950547,0.40528476,1.0867022,1.027448,0.0,2,0,0,0
19900000,47.39775097119994,8.545607236651366,488.0384,-0.036895752,-0.0,0.019285878,-0.02247922,0.028208554,0.4051798,1.0865554,1.0274225,0.0,2,0,0,0
20100000,47.397750977205334,8.545607237734627,488.03873,-0.035827637,-0.0,0.017943148,-0.023055919,0.027944788,0.4051377,1.086427,1.0277756,0.0,2,0,0,0
20300000,47.3977509783457,8.545607233372401,488.03958,-0.03427124,-0.0,0.0155395055,-0.023732811,0.026603378,0.4052477,1.0863156,1.0277351,0.0,2,0,0,0
20500000,47.39775096962821,8.5456072245573,488.04,-0.033172607,-0.0,0.011822237,-0.024770826,0.027739298,0.40526918,1.0862206,1.0276811,0.0,2,0,0,0
20700000,47.3977509602884,8.545607209558565,488.0401,-0.032073975,-0.0,0.009266379,-0.02332147,0.029351495,0.40515736,1.0982034,1.0283389,0.0,2,0,0,0
20900000,47.39775094776783,8.545607208885256,488.04095,-0.03060913,-0.0,0.0064262217,-0.023908675,0.029774616,0.40546072,1.0973879,1.0282514,0.0,2,0,0,0
21100000,47.39775093633046,8.545607203281586,488.04288,-0.02810669,-0.0,0.0034870056,-0.021246454,0.028724862,0.40549952,1.0966718,1.028553,0.0,2,0,0,0
21300000,47.39775092972408,8.545607205508073,488.04742,-0.023101807,-0.0,0.003525855,-0.02261195,0.025812743,0.40539846,1.0960437,1.0284352,0.0,2,0,0,0
21500000,47.39775092922958,8.545607212155522,488.0513,-0.018829346,-0.0,0.0044504437,-0.021716114,0.023039812,0.40528643,1.0954931,1.0287191,0.0,2,0,0,0
21700000,47.39775092145953,8.545607223281744,488.0539,-0.015899658,-0.0,0.0005214357,-0.021754013,0.021768715,0.40539464,1.0950114,1.02858,0.0,2,0,0,0
21900000,47.39775090520738,8.545607232651282,488.0552,-0.014282227,-0.0,-0.0013985935,-0.023004528,0.02260709,0.40525123,1.0945907,1.0284292,0.0,2,0,0,0
22100000,47.39775088831056,8.545607238875935,488.05545,-0.013763428,-0.0,-0.0053229146,-0.023097724,0.023922352,0.40496638,1.0942236,1.0286801,0.0,2,0,0,0
22300000,47.39775086949345,8.545607242183294,488.0554,-0.013549805,-0.0,-0.0061627836,-0.020900367,0.024451954,0.40488517,1.0939039,1.0285141,0.0,2,0,0,0
22500000,47.39775085695691,8.545607240813899,488.0563,-0.012390137,-0.0,-0.004512787,-0.022101954,0.027412998,0.4049686,1.0936258,1.02875,0.0,2,0,0,0
22700000,47.39775085198466,8.545607238168179,488.05692,-0.0115356445,-0.0,-0.0027474253,-0.022390593,0.02961175,0.4048327,1.0933837,1.0285664,0.0,2,0,0,0
22900000,47.3977508551149,8.545607235456878,488.05667,-0.0115356445,-0.0,0.001139406,-0.020333609,0.028784487,0.40494078,1.0931734,1.0287949,0.0,2,0,0,0
23100000,47.39775087463925,8.545607237695789,488.0529,-0.015014648,-0.0,-1.3598186e-05,-0.017708685,0.031971026,0.40495464,1.0929906,1.028605,0.0,2,0,0,0
23300000,47.39775088618143,8.545607244257601,488.05,-0.017547607,-0.0,0.0019053073,-0.016587542,0.03041809,0.4047756,1.0928311,1.0284113,0.0,2,0,0,0
23500000,47.39775088969216,8.545607255999224,488.04962,-0.017547607,-0.0,0.0034678613,-0.012890322,0.031465795,0.40461755,1.0926921,1.0286257,0.0,2,0,0,0
23700000,47.3977508908105,8.545607257724862,488.04926,-0.017547607,-0.0,0.003920055,-0.012220968,0.031622887,0.40433174,1.0925698,1.0284309,0.0,2,0,0,0
23900000,47.39775089560026,8.545607250818586,488.04816,-0.01828003,-0.0,0.0044238856,-0.015117174,0.029477123,0.4041498,1.0924616,1.0286417,0.0,2,0,0,0
24100000,47.39775088747763,8.545607240361022,488.04807,-0.018005371,-0.0,0.0019358436,-0.01713162,0.027829072,0.40444678,1.092365,1.0284419,0.0,2,0,0,0
24300000,47.397750869778854,8.545607227256536,488.0504,-0.015350342,-0.0,-0.00039558322,-0.020487653,0.026496809,0.404624,1.0922775,1.0286555,0.0,2,0,0,0
24500000,47.39775084915349,8.54560719696546,488.0527,-0.012786865,-0.0,-0.0011223955,-0.020320501,0.027106546,0.40474597,1.0921973,1.0284593,0.0,2,0,0,0
24700000,47.39775083351405,8.545607185817719,488.05453,-0.0107421875,-0.0,-0.0022762776,-0.022809604,0.02694017,0.40485585,1.0921223,1.0282638,0.0,2,0,0,0
24900000,47.39775081039387,8.545607155102966,488.05414,-0.010925293,-0.0,-0.00265315,-0.022191418,0.02876307,0.40501925,1.0920514,1.0284754,0.0,2,0,0,0
25100000,47.39775079831672,8.545607136622566,488.04886,-0.01586914,-0.0,-0.0051082387,-0.02109669,0.030214544,0.40550297,1.0919825,1.0282851,0.0,2,0,0,0
25300000,47.39775079626068,8.54560713462041,488.04562,-0.018707275,-0.0,-0.004820269,-0.019555775,0.02969991,0.40558738,1.0919155,1.0284988,0.0,2,0,0,0
25500000,47.39775079893057,8.545607114443523,488.04364,-0.020263672,-0.0,-0.008237354,-0.019282602,0.029398913,0.4055841,1.0918494,1.0283078,0.0,2,0,0,0
25700000,47.39775079671107,8.54560710761113,488.04257,-0.021331787,-0.0,-0.009755921,-0.016596446,0.03097562,0.40536165,1.0917834,1.028528,0.0,2,0,0,0
25900000,47.397750785718614,8.54560710559405,488.04242,-0.020843506,-0.0,-0.011825414,-0.013173369,0.033217266,0.40537778,1.0910147,1.0283333,0.0,2,0,0,0
26100000,47.3977507737582,8.545607129125921,488.0425,-0.020324707,-0.0,-0.012149269,-0.011654563,0.0332446,0.40506363,1.0903277,1.02814,0.0,2,0,0,0
26300000,47.397750759690005,8.545607154323568,488.0436,-0.018829346,-0.0,-0.014126407,-0.010650863,0.035390154,0.40489545,1.0897121,1.0283505,0.0,2,0,0,0
26500000,47.39775074904299,8.545607187294356,488.04196,-0.020080566,-0.0,-0.015834779,-0.0067418735,0.0385798,0.40468106,1.089159,1.0281627,0.0,2,0,0,0
26700000,47.39775074336698,8.545607224625096,488.0409,-0.020721436,-0.0,-0.018027807,-0.0043013203,0.037743345,0.40482762,1.088661,1.0283753,0.0,2,0,0,0
26900000,47.39775073302491,8.545607273825754,488.03976,-0.02142334,-0.0,-0.019434154,-0.0021381252,0.04117789,0.40496343,1.0882114,1.0281867,0.0,2,0,0,0
27100000,47.39775072629312,8.545607317878677,488.03793,-0.02279663,-0.0,-0.02028594,0.0026289148,0.040883888,0.4049743,1.0878052,1.0284054,0.0,2,0,0,0
27300000,47.39775071509521,8.545607366135862,488.0356,-0.024627686,-0.0,-0.02196849,0.006869185,0.04436133,0.40512738,1.087437,1.0282221,0.0,2,0,0,0
27500000,47.39775069974422,8.545607406054478,488.0334,-0.02633667,-0.0,-0.02452395,0.009343921,0.051087126,0.4055069,1.0871028,1.0280396,0.0,2,0,0,0
27700000,47.39775068572066,8.545607426659053,488.03162,-0.027557373,-0.0,-0.025968377,0.010873936,0.052352764,0.4055008,1.0867984,1.0282578,0.0,2,0,0,0
27900000,47.39775066481755,8.545607439470304,488.02676,-0.031829834,-0.0,-0.025803424,0.013012436,0.054368343,0.4056931,1.0865206,1.02808,0.0,2,0,0,0
28100000,47.397750659471306,8.545607444091152,488.02112,-0.03677368,-0.0,-0.026070653,0.011995035,0.05741794,0.40570337,1.086267,1.0282997,0.0,2,0,0,0
28300000,47.39775065155433,8.545607438355592,488.0174,-0.03970337,-0.0,-0.02872459,0.011337063,0.055971123,0.4059538,1.086035,1.0281198,0.0,2,0,0,0
28500000,47.39775063961214,8.545607439422506,488.0125,-0.04373169,-0.0,-0.031853925,0.010594195,0.05951494,0.40622574,1.085822,1.0283449,0.0,2,0,0,0
28700000,47.39775062451814,8.545607445218666,488.00958,-0.04574585,-0.0,-0.03194963,0.010107357,0.064718306,0.40624872,1.0856262,1.028169,0.0,2,0,0,0
28900000,47.397750626501875,8.545607469557162,488.00607,-0.048309326,-0.0,-0.028993791,0.013958224,0.064612135,0.4062685,1.0854455,1.0279933,0.0,2,0,0,0
29100000,47.39775062746986,8.545607484060042,488.0034,-0.05001831,-0.0,-0.026650025,0.0095093865,0.0652662,0.40624693,1.0852779,1.0282165,0.0,2,0,0,0
29300000,47.397750629958466,8.545607489394468,487.99957,-0.05279541,-0.0,-0.02515286,0.011859729,0.06689448,0.40637174,1.0851226,1.0280442,0.0,2,0,0,0
29500000,47.397750627493195,8.545607489593362,487.99814,-0.05316162,-0.0,-0.025124025,0.0070398706,0.06628525,0.40643233,1.0849777,1.0282681,0.0,2,0,0,0
29700000,47.397750611949874,8.545607485213127,487.9989,-0.051330566,-0.0,-0.030673502,0.0064725163,0.064120136,0.4066326,1.0848428,1.0280927,0.0,2,0,0,0
29900000,47.397750594574,8.545607480090439,487.99985,-0.04937744,-0.0,-0.02914922,0.0052956957,0.06358428,0.40649125,1.0847164,1.0283213,0.0,2,0,0,0
30100000,47.39775058155757,8.545607454894649,488.00027,-0.047973633,-0.0,-0.026656555,0.0019495277,0.06096518,0.40661767,1.0845978,1.028149,0.0,2,0,0,0
30300000,47.397750578040416,8.54560744149891,488.0001,-0.047180176,-0.0,-0.026399182,-0.0034243595,0.06221063,0.4067329,1.0844861,1.0279765,0.0,2,0,0,0
30500000,47.39775057824777,8.545607420445746,488.00003,-0.046295166,-0.0,-0.02632224,-0.005997305,0.0625212,0.40647852,1.0843806,1.028202,0.0,2,0,0,0
30700000,47.39775058576792,8.545607408162937,488.00323,-0.04220581,-0.0,-0.024026562,-0.004257111,0.05995929,0.40655744,1.0842801,1.0280323,0.0,2,0,0,0
30900000,47.397750587339566,8.545607398844268,488.0046,-0.039611816,-0.0,-0.02230393,-0.0048770476,0.060908966,0.40649834,1.0951214,1.0285809,0.0,2,0,0,0
31100000,47.39775058612044,8.545607376654075,488.003,-0.040405273,-0.0,-0.023455773,-0.010461018,0.062661126,0.40618786,1.094376,1.0283942,0.0,2,0,0,0
31300000,47.39775058862061,8.54560734839531,487.99875,-0.043762207,-0.0,-0.02255957,-0.0137838125,0.06259401,0.4057217,1.0937045,1.0286196,0.0,2,0,0,0
31500000,47.39775059470576,8.545607308205625,487.99597,-0.04559326,-0.0,-0.02136577,-0.015943738,0.06228662,0.40505177,1.0930989,1.0284357,0.0,2,0,0,0
31700000,47.397750604672126,8.545607282098779,487.99533,-0.045318604,-0.0,-0.018243345,-0.01861789,0.06156506,0.40535846,1.0925522,1.0282514,0.0,2,0,0,0
31900000,47.397750622899366,8.545607262303264,487.9963,-0.04345703,-0.0,-0.020191006,-0.018593319,0.061529696,0.4056121,1.0920581,1.0284731,0.0,2,0,0,0
32100000,47.39775063854287,8.545607244463037,487.99747,-0.042297363,-0.0,-0.014516033,-0.02331875,0.06157169,0.4051557,1.0916109,1.0282921,0.0,2,0,0,0
32307999,47.39775064909905,8.545607232499412,487.99747,-0.041412354,-0.0,-0.011408315,-0.027164247,0.059799064,0.4048972,1.0915943,1.028258,0.0,2,0,0,0
32508000,47.39775066483828,8.545607212569685,487.9961,-0.041931152,-0.0,-0.009669111,-0.02704191,0.06054357,0.4054076,1.0911356,1.0284761,0.0,2,0,0,0
32708000,47.39775067343255,8.545607190737517,487.9946,-0.04257202,-0.0,-0.0064023044,-0.030690983,0.06234404,0.4054945,1.090721,1.0282938,0.0,2,0,0,0
32908000,47.397750674585104,8.545607156391998,487.99554,-0.040740967,-0.0,-0.008011784,-0.033540975,0.059343796,0.40556186,1.0903002,1.028514,0.0,2,0,0,0
33115999,47.39775067162571,8.545607124050594,487.9964,-0.0390625,-0.0,-0.008387267,-0.037764113,0.055929612,0.40530145,1.0903001,1.0284826,0.0,2,0,0,0
33316000,47.3977506821711,8.545607113771107,487.9987,-0.035980225,-0.0,-0.0048113526,-0.03684154,0.050709743,0.4054293,1.0899137,1.0282909,0.0,2,0,0,0
33516000,47.39775069294524,8.54560710466048,488.00256,-0.03137207,-0.0,-0.0052601197,-0.039490633,0.049475107,0.40537754,1.0895203,1.0285023,0.0,2,0,0,0
33716000,47.397750696719086,8.545607100104883,488.00717,-0.026123047,-0.0,-0.0052661286,-0.039527643,0.046066787,0.40536192,1.089121,1.0283208,0.0,2,0,0,0
33916000,47.39775069991574,8.545607091634874,488.00928,-0.023498535,-0.0,-0.0043312456,-0.041456003,0.042857952,0.40547004,1.0887607,1.0281394,0.0,2,0,0,0
34116000,47.3977507016634,8.54560707881974,488.0118,-0.020507812,-0.0,-0.0067353696,-0.04243031,0.036848832,0.4057106,1.0884361,1.0283629,0.0,2,0,0,0
34316000,47.397750705159744,8.545607065687056,488.01715,-0.014770508,-0.0,-0.0062455437,-0.043590378,0.03225167,0.4058,1.0881438,1.0281848,0.0,2,0,0,0
34516000,47.39775070569525,8.545607048755802,488.0249,-0.0067443848,-0.0,-0.008649949,-0.043867003,0.027290307,0.40595362,1.0878804,1.0284066,0.0,2,0,0,0
34716000,47.39775070282552,8.545607046803335,488.0303,-0.0012207031,-0.0,-0.011259503,-0.03946404,0.022039318,0.4058947,1.0876431,1.0282276,0.0,2,0,0,0
34916000,47.39775069882811,8.545607051975596,488.03503,0.0035095215,-0.0,-0.011290973,-0.039764468,0.020094495,0.40594372,1.0874296,1.0284541,0.0,2,0,0,0
35116000,47.3977506921821,8.545607049204754,488.03964,0.008026123,-0.0,-0.016266847,-0.0397966,0.018305521,0.40584344,1.0872372,1.0282763,0.0,2,0,0,0
35316000,47.39775068696132,8.545607057903894,488.045,0.013214111,-0.0,-0.01619527,-0.03710865,0.014812037,0.40596783,1.087064,1.0280985,0.0,2,0,0,0
35516000,47.39775068273927,8.545607067669193,488.0501,0.018035889,-0.0,-0.018899051,-0.03743706,0.012192656,0.40619203,1.0869079,1.0283246,0.0,2,0,0,0
35716000,47.39775067851489,8.545607077121844,488.0549,0.022460938,-0.0,-0.017830197,-0.036081634,0.010924548,0.40615934,1.0867673,1.0281501,0.0,2,0,0,0
35916000,47.39775067477737,8.545607074719408,488.05817,0.025268555,-0.0,-0.017589236,-0.03869357,0.007895395,0.40621865,1.0866407,1.0283744,0.0,2,0,0,0
36116000,47.39775066488792,8.545607056236658,488.06238,0.028961182,-0.0,-0.023073116,-0.03817737,0.005868436,0.4057921,1.0865265,1.0281987,0.0,2,0,0,0
36316000,47.39775065185599,8.545607026294693,488.06595,0.031921387,-0.0,-0.025851408,-0.03754409,0.0029216465,0.40582034,1.0864236,1.0284278,0.0,2,0,0,0
36516000,47.39775063314695,8.545607000000274,488.07092,0.036254883,-0.0,-0.02910825,-0.036375046,-5.94108e-05,0.4055927,1.0863307,1.0282532,0.0,2,0,0,0
36716000,47.39775060720757,8.545606997214165,488.0741,0.03869629,-0.0,-0.031228377,-0.035863776,0.0010616618,0.40572995,1.0862467,1.0280783,0.0,2,0,0,0
36916000,47.39775057722422,8.54560699653081,488.07553,0.03933716,-0.0,-0.033733368,-0.0355106,0.00078387186,0.405671,1.0861706,1.0283066,0.0,2,0,0,0
37116000,47.39775055364774,8.545606992064002,488.075,0.038024902,-0.0,-0.03374389,-0.034259424,-0.0005741757,0.40572697,1.0861014,1.0281346,0.0,2,0,0,0
37316000,47.39775054108468,8.545606993251448,488.07358,0.035827637,-0.0,-0.033635102,-0.033715278,0.0037557492,0.40596986,1.0860387,1.028361,0.0,2,0,0,0
37516000,47.3977505326722,8.545606998036051,488.07303,0.034576416,-0.0,-0.03478015,-0.033267852,0.007301104,0.40617797,1.0859814,1.0281874,0.0,2,0,0,0
37716000,47.397750527578964,8.54560699451425,488.07327,0.034118652,-0.0,-0.03360638,-0.032430083,0.008558913,0.40618882,1.0859287,1.0284182,0.0,2,0,0,0
37916000,47.39775052304439,8.545607010995386,488.07492,0.035064697,-0.0,-0.033730455,-0.028955908,0.013507997,0.40631962,1.0858803,1.0282453,0.0,2,0,0,0
38116000,47.397750521591895,8.545607029446462,488.07593,0.035369873,-0.0,-0.030691737,-0.026031656,0.014035701,0.40642932,1.0858355,1.028072,0.0,2,0,0,0
38316000,47.397750526792514,8.545607030910451,488.07376,0.03250122,-0.0,-0.031084718,-0.027389312,0.01737229,0.40652603,1.0857939,1.0283015,0.0,2,0,0,0
38516000,47.39775051612964,8.545607000020146,488.07217,0.029968262,-0.0,-0.032508425,-0.03220709,0.019403981,0.40641132,1.0852668,1.0281218,0.0,2,0,0,0
38716000,47.39775051260178,8.54560698057544,488.07065,0.027862549,-0.0,-0.03144797,-0.032709952,0.02574863,0.4063976,1.0847893,1.02834,0.0,2,0,0,0
38916000,47.397750514788775,8.545606966323215,488.06772,0.024414062,-0.0,-0.029659728,-0.036044776,0.032574374,0.40642783,1.0843565,1.0281584,0.0,2,0,0,0
39116000,47.39775052666056,8.545606950426421,488.064,0.020263672,-0.0,-0.028375326,-0.03689302,0.036424764,0.4064839,1.083964,1.0283803,0.0,2,0,0,0
39316000,47.39775053209116,8.545606945598783,488.061,0.016906738,-0.0,-0.03162905,-0.0368889,0.038244348,0.40655208,1.0836084,1.0281994,0.0,2,0,0,0
39516000,47.39775053540191,8.545606958628571,488.05756,0.013153076,-0.0,-0.028567366,-0.033264503,0.045008715,0.4065986,1.0832866,1.0280184,0.0,2,0,0,0
39716000,47.397750542486015,8.545606978539924,488.05173,0.0071411133,-0.0,-0.026187662,-0.030407898,0.051652126,0.40667778,1.0829958,1.0282387,0.0,2,0,0,0
39916000,47.397750550159145,8.545606985247742,488.04596,0.0013122559,-0.0,-0.025409855,-0.029920898,0.05508894,0.4068674,1.0827329,1.0280606,0.0,2,0,0,0
40116000,47.397750565902676,8.54560698906809,488.03964,-0.0049438477,-0.0,-0.024308562,-0.028580604,0.059667505,0.40753773,1.0824956,1.0282787,0.0,2,0,0,0
40316000,47.39775057729782,8.545606999764164,488.03445,-0.009979248,-0.0,-0.023274787,-0.02958876,0.06448463,0.4076569,1.0822818,1.0280995,0.0,2,0,0,0
40516000,47.39775058695272,8.545607016213378,488.02814,-0.016021729,-0.0,-0.022280734,-0.026138363,0.07103162,0.40753862,1.0820897,1.0283222,0.0,2,0,0,0
40716000,47.397750600023755,8.545607029162023,488.0223,-0.021453857,-0.0,-0.026814396,-0.026833573,0.07350941,0.40764272,1.0819167,1.0281441,0.0,2,0,0,0
40916000,47.39775060669454,8.545607040672287,488.01752,-0.025756836,-0.0,-0.025637457,-0.026530094,0.078169726,0.40780506,1.0817617,1.0279661,0.0,2,0,0,0
41116000,47.39775061093122,8.545607055316378,488.01077,-0.031921387,-0.0,-0.027850155,-0.023738172,0.084124565,0.40794054,1.0816232,1.028188,0.0,2,0,0,0
41316000,47.39775061123742,8.545607072971203,488.0037,-0.038269043,-0.0,-0.026688723,-0.021490946,0.08757069,0.40782452,1.0814991,1.0280132,0.0,2,0,0,0
41516000,47.397750609385234,8.545607106435291,487.99933,-0.041809082,-0.0,-0.02852146,-0.015926622,0.08826977,0.40800273,1.0813882,1.0282336,0.0,2,0,0,0
41716000,47.3977506042183,8.54560713175145,487.99472,-0.045532227,-0.0,-0.027291846,-0.01361644,0.08892621,0.4080302,1.0812898,1.0280578,0.0,2,0,0,0
41916000,47.397750596704206,8.545607170047779,487.98798,-0.05130005,-0.0,-0.026620667,-0.009380567,0.09094511,0.40812266,1.0812024,1.0282829,0.0,2,0,0,0
42116000,47.39775059447046,8.545607201174356,487.9812,-0.0569458,-0.0,-0.023734346,-0.0071414076,0.09106219,0.40837774,1.0811251,1.0281084,0.0,2,0,0,0
42316000,47.39775058956729,8.545607225090556,487.9768,-0.060150146,-0.0,-0.026444199,-0.0040252097,0.0903231,0.40865484,1.0810568,1.0279336,0.0,2,0,0,0
42516000,47.39775059459415,8.545607250566876,487.97333,-0.06237793,-0.0,-0.024132384,-0.0003014281,0.09140028,0.40908417,1.0809966,1.0281581,0.0,2,0,0,0
42716000,47.3977505983741,8.54560727993516,487.97028,-0.06414795,-0.0,-0.023817183,0.0042944737,0.091520794,0.4092463,1.0809438,1.0279865,0.0,2,0,0,0
42916000,47.397750607871394,8.545607310257209,487.9678,-0.06530762,-0.0,-0.020966602,0.0058618956,0.094001874,0.40947145,1.0808973,1.0282093,0.0,2,0,0,0
43116000,47.39775062054521,8.545607336054907,487.96683,-0.064971924,-0.0,-0.018011842,0.008395892,0.09354871,0.40981597,1.0808566,1.0280365,0.0,2,0,0,0
43316000,47.397750632378276,8.545607363691294,487.96704,-0.0647583,-0.0,-0.0126551185,0.013383017,0.09468566,0.40996253,1.0906594,1.0285884,0.0,2,0,0,0
43516000,47.39775063834574,8.545607391522374,487.96506,-0.06478882,-0.0,-0.012186423,0.014170377,0.09303105,0.4102601,1.09005,1.0284024,0.0,2,0,0,0
43716000,47.39775064449127,8.545607429174208,487.96277,-0.06576538,-0.0,-0.013004806,0.020966783,0.093947105,0.41039783,1.0895008,1.0282165,0.0,2,0,0,0
43916000,47.39775064158655,8.545607479106621,487.9616,-0.06561279,-0.0,-0.01564617,0.024228701,0.09620343,0.410372,1.089006,1.0284375,0.0,2,0,0,0
44116000,47.39775063980864,8.54560752748071,487.96094,-0.064971924,-0.0,-0.01630259,0.02628221,0.0937381,0.41066548,1.08856,1.0282545,0.0,2,0,0,0
44316000,47.39775064503614,8.545607567401884,487.96024,-0.06436157,-0.0,-0.014603306,0.028390542,0.0926001,0.41074827,1.0881587,1.0284734,0.0,2,0,0,0
44516000,47.39775064544981,8.5456075972362,487.959,-0.06427002,-0.0,-0.014295364,0.030525705,0.08934055,0.4109419,1.0877978,1.0282892,0.0,2,0,0,0
44716000,47.3977506452355,8.545607621807532,487.9601,-0.06188965,-0.0,-0.014385622,0.03146701,0.088217646,0.41106015,1.0874739,1.0285126,0.0,2,0,0,0
44916000,47.39775064777826,8.545607641073218,487.96463,-0.056152344,-0.0,-0.01172517,0.032010652,0.08486627,0.41136885,1.0871834,1.0283298,0.0,2,0,0,0
45116000,47.39775066064544,8.545607653223756,487.96716,-0.052520752,-0.0,-0.008707765,0.035451807,0.08575376,0.41135857,1.0869232,1.0281471,0.0,2,0,0,0
45316000,47.39775067151016,8.545607679357076,487.96732,-0.051330566,-0.0,-0.009750884,0.034294702,0.083120614,0.41158164,1.0866907,1.0283697,0.0,2,0,0,0
45516000,47.39775067704914,8.545607710579015,487.96863,-0.04901123,-0.0,-0.011198399,0.03505473,0.07967973,0.41177538,1.0864831,1.0281905,0.0,2,0,0,0
45716000,47.39775068276901,8.545607739960936,487.97067,-0.04598999,-0.0,-0.007496837,0.034319133,0.0779297,0.41199535,1.0862987,1.0284114,0.0,2,0,0,0
45916000,47.39775069220574,8.545607750034382,487.97156,-0.044189453,-0.0,-0.0066270535,0.030973144,0.073439494,0.4121208,1.0861349,1.0282314,0.0,2,0,0,0
46116000,47.39775069258473,8.545607751720128,487.9727,-0.042175293,-0.0,-0.0037071009,0.031285837,0.07714529,0.411878,1.0859898,1.0284572,0.0,2,0,0,0
46316000,47.39775070685662,8.545607749260032,487.9707,-0.043304443,-0.0,-0.0021979408,0.027290963,0.07749096,0.4120228,1.0858614,1.0282786,0.0,2,0,0,0
46516000,47.397750733988204,8.545607748688754,487.97,-0.043121338,-0.0,0.0021353203,0.022004407,0.07596341,0.41222686,1.0857481,1.0281,0.0,2,0,0,0
46716000,47.39775076129283,8.545607742310363,487.97128,-0.040985107,-0.0,0.0021004125,0.019441245,0.069143705,0.41248485,1.0856484,1.0283254,0.0,2,0,0,0
46916000,47.39775077563612,8.54560773196374,487.97223,-0.039215088,-0.0,0.0011896358,0.01869115,0.064726375,0.41277075,1.0855614,1.0281503,0.0,2,0,0,0
47116000,47.39775078802882,8.545607724223116,487.97525,-0.03543091,-0.0,0.00581228,0.02045534,0.062606946,0.41281128,1.0854853,1.0283742,0.0,2,0,0,0
47316000,47.397750798447944,8.545607720828015,487.97775,-0.032226562,-0.0,0.0037642478,0.021218408,0.060225092,0.41259137,1.0854193,1.028198,0.0,2,0,0,0
47516000,47.39775080042372,8.545607711568612,487.9806,-0.028747559,-0.0,0.0005741878,0.020911377,0.060923364,0.41285756,1.0853618,1.0284268,0.0,2,0,0,0
47716000,47.39775079632295,8.545607702380774,487.98535,-0.0234375,-0.0,0.00027571578,0.018514093,0.06115074,0.41321898,1.0853119,1.0282518,0.0,2,0,0,0
47916000,47.39775078845225,8.545607696429858,487.98953,-0.018798828,-0.0,-4.865626e-05,0.016969154,0.059709206,0.41340333,1.0852684,1.0280765,0.0,2,0,0,0
48124000,47.3977507814958,8.545607696827638,487.99417,-0.013793945,-0.0,0.0005310543,0.017343633,0.05774434,0.41343647,1.0856206,1.0284553,0.0,2,0,0,0
48316000,47.39775077282798,8.545607690531654,488.00055,-0.0071411133,-0.0,-0.004877775,0.014859833,0.057234794,0.41351795,1.0851983,1.0281323,0.0,2,0,0,0
48516000,47.39775075158779,8.545607675426979,488.00525,-0.002319336,-0.0,-0.007848875,0.012681752,0.05734249,0.41382122,1.0851703,1.0283583,0.0,2,0,0,0
48716000,47.397750722408986,8.545607671232633,488.00784,0.00030517578,-0.0,-0.011204218,0.016047604,0.05646365,0.4140535,1.0846729,1.028176,0.0,2,0,0,0
48916000,47.39775069684801,8.545607663155032,488.00916,0.0015869141,-0.0,-0.009508894,0.01646986,0.05796548,0.4144089,1.0842224,1.0283972,0.0,2,0,0,0
49116000,47.39775069231174,8.545607653801369,488.00665,-0.00091552734,-0.0,-0.010258172,0.014085517,0.06302981,0.41456112,1.0838147,1.0282154,0.0,2,0,0,0
49316000,47.39775068929681,8.545607646280224,488.0044,-0.003112793,-0.0,-0.012401969,0.016032208,0.064993046,0.41451827,1.0834458,1.0280335,0.0,2,0,0,0
49516000,47.397750682874566,8.545607645420722,488.0038,-0.0036315918,-0.0,-0.01683354,0.01860853,0.06656537,0.41459295,1.0831121,1.0282532,0.0,2,0,0,0
49716000,47.397750672760374,8.54560764835625,488.00192,-0.005432129,-0.0,-0.017954234,0.024208093,0.065142535,0.41444266,1.0828106,1.0280741,0.0,2,0,0,0
49916000,47.397750661701956,8.545607669908138,487.99786,-0.009338379,-0.0,-0.017903842,0.028114602,0.066526204,0.4143857,1.082539,1.028292,0.0,2,0,0,0
50116000,47.397750655031665,8.545607685227393,487.99332,-0.013641357,-0.0,-0.018387506,0.031376425,0.067170456,0.41439137,1.0822942,1.0281117,0.0,2,0,0,0
50316000,47.39775064662021,8.54560769189777,487.9914,-0.015258789,-0.0,-0.022067983,0.03438372,0.067513116,0.41435504,1.0820745,1.0283338,0.0,2,0,0,0
50516000,47.39775063377475,8.545607708630408,487.99176,-0.014587402,-0.0,-0.025779866,0.03290997,0.066534646,0.41438904,1.0818774,1.0281549,0.0,2,0,0,0
50716000,47.397750613250466,8.545607732823834,487.9908,-0.0152282715,-0.0,-0.02669994,0.033856798,0.06968431,0.4145163,1.0817008,1.0279758,0.0,2,0,0,0
50916000,47.397750589335736,8.54560777410291,487.9926,-0.013122559,-0.0,-0.027606826,0.037650567,0.0676854,0.41472402,1.0815433,1.0281972,0.0,2,0,0,0
51116000,47.39775057737105,8.54560780440437,487.9937,-0.011779785,-0.0,-0.027368562,0.03467854,0.06513992,0.414854,1.0814027,1.0280216,0.0,2,0,0,0
51316000,47.397750565483165,8.545607811215628,487.99234,-0.012908936,-0.0,-0.02499278,0.036261387,0.06642808,0.41493857,1.0812778,1.0282413,0.0,2,0,0,0
51516000,47.397750552170486,8.545607809396078,487.99136,-0.01361084,-0.0,-0.026265077,0.034850117,0.065894075,0.41485438,1.0811671,1.0280646,0.0,2,0,0,0
51716000,47.397750551334475,8.545607810740938,487.9908,-0.013885498,-0.0,-0.026697611,0.0351609,0.06650355,0.4149443,1.0810692,1.028289,0.0,2,0,0,0
51916000,47.39775055076445,8.545607814532778,487.99127,-0.013153076,-0.0,-0.025347354,0.03535429,0.06689538,0.41515547,1.080983,1.0281137,0.0,2,0,0,0
52116000,47.39775055397827,8.545607813084624,487.9904,-0.013763428,-0.0,-0.022605205,0.034332838,0.06347504,0.41534337,1.080907,1.0279382,0.0,2,0,0,0
52316000,47.39775056298149,8.545607826978541,487.98914,-0.01473999,-0.0,-0.019992802,0.03359426,0.06467536,0.41559952,1.0808405,1.0281621,0.0,2,0,0,0
52516000,47.39775057517825,8.545607837463427,487.9881,-0.015472412,-0.0,-0.019507,0.033409797,0.068590574,0.41587868,1.0807824,1.02799,0.0,2,0,0,0
52716000,47.39775057699848,8.545607854128061,487.98605,-0.017181396,-0.0,-0.016072392,0.035746947,0.06781319,0.4163288,1.0807319,1.0282122,0.0,2,0,0,0
52916000,47.39775058586633,8.545607869888698,487.98618,-0.016723633,-0.0,-0.01497055,0.03807898,0.06719083,0.41676855,1.0806878,1.0280389,0.0,2,0,0,0
53116000,47.39775059783268,8.545607884466294,487.98694,-0.015625,-0.0,-0.010459599,0.038651235,0.06699081,0.41691044,1.0806497,1.0282656,0.0,2,0,0,0
53316000,47.39775060431594,8.545607899337435,487.98538,-0.01687622,-0.0,-0.011498265,0.03608918,0.065020084,0.41724777,1.0806167,1.0280932,0.0,2,0,0,0
53516000,47.397750597713376,8.545607920088246,487.98062,-0.021636963,-0.0,-0.010732715,0.03625806,0.069425434,0.4173738,1.0903397,1.0282372,0.0,2,0,0,0
53716000,47.39775059915804,8.54560794963597,487.97968,-0.021911621,-0.0,-0.009932535,0.040654458,0.06851711,0.41723764,1.0897481,1.0284584,0.0,2,0,0,0
53916000,47.39775061586423,8.54560796287556,487.97986,-0.02130127,-0.0,-0.007446861,0.040454783,0.068583764,0.4174902,1.0892147,1.0282747,0.0,2,0,0,0
54116000,47.39775063987856,8.545607966164102,487.98227,-0.018463135,-0.0,-0.00621944,0.039292812,0.06761999,0.41763783,1.0887337,1.0284933,0.0,2,0,0,0
54316000,47.39775065298287,8.545607967955615,487.98593,-0.014434814,-0.0,-0.0073229116,0.04369031,0.06811216,0.41781285,1.0883003,1.0283084,0.0,2,0,0,0
54516000,47.39775066440643,8.545607976529213,487.9893,-0.010803223,-0.0,-0.0038451815,0.042036884,0.06448622,0.41812444,1.08791,1.0285313,0.0,2,0,0,0
54716000,47.39775068166083,8.5456079788706,487.99048,-0.009399414,-0.0,-0.0032564243,0.045460705,0.0632392,0.41829947,1.0875592,1.0283475,0.0,2,0,0,0
54916000,47.39775069675368,8.54560798894548,487.99026,-0.009429932,-0.0,-0.0041277725,0.046630755,0.06404203,0.4182986,1.0872442,1.0281638,0.0,2,0,0,0
55116000,47.39775069641167,8.545607998905835,487.99173,-0.0077819824,-0.0,-0.0036637299,0.046428315,0.062971815,0.41876134,1.0869617,1.0283856,0.0,2,0,0,0
55316000,47.39775069244768,8.545608001280925,487.993,-0.0063476562,-0.0,-0.0032030183,0.044172473,0.06126352,0.41917068,1.086709,1.0282054,0.0,2,0,0,0
55516000,47.39775069392157,8.545608012583095,487.99548,-0.003753662,-0.0,-0.0018145149,0.04481282,0.06102868,0.41943905,1.0864834,1.0284256,0.0,2,0,0,0
55716000,47.397750698852754,8.545608022855157,487.9973,-0.0018615723,-0.0,-0.0008062368,0.04243018,0.063043885,0.41935566,1.0862823,1.0282444,0.0,2,0,0,0
55916000,47.39775070082893,8.545608023554797,487.99823,-0.00091552734,-0.0,-0.002863755,0.043242626,0.05890505,0.41913468,1.0861031,1.0284693,0.0,2,0,0,0
56116000,47.397750700306574,8.545608023447496,487.9995,0.00036621094,-0.0,-0.0027588776,0.040357403,0.057550117,0.41901916,1.0859445,1.0282896,0.0,2,0,0,0
56316000,47.39775069665502,8.545608018121806,487.9992,6.1035156e-05,-0.0,-0.004043589,0.039855678,0.058403783,0.41926223,1.0858043,1.0281098,0.0,2,0,0,0
56516000,47.39775069650515,8.545608013155684,487.99905,-9.1552734e-05,-0.0,-0.0026084716,0.041466314,0.05706335,0.41961432,1.0856806,1.0283344,0.0,2,0,0,0
56716000,47.39775070041978,8.545608008824713,487.99997,0.0008239746,-0.0,-0.0034139408,0.04182277,0.0564775,0.41983938,1.0855719,1.0281581,0.0,2,0,0,0
56916000,47.397750705772054,8.545608000103478,488.0024,0.0032348633,-0.0,-0.0032587128,0.038731564,0.05542658,0.42006296,1.0854765,1.0283811,0.0,2,0,0,0
57116000,47.39775070530254,8.54560798433789,488.0008,0.0015563965,-0.0,-0.0011948698,0.038615957,0.05459818,0.42026338,1.0853933,1.028204,0.0,2,0,0,0
57316000,47.39775071575747,8.545607967264539,487.9971,-0.002166748,-0.0,0.0007933326,0.03746789,0.055797007,0.42025608,1.0853208,1.0284318,0.0,2,0,0,0
57516000,47.397750733429696,8.54560795890134,487.99506,-0.0041503906,-0.0,0.003463447,0.03702762,0.057403788,0.42055336,1.0852579,1.0282559,0.0,2,0,0,0
57716000,47.397750746117275,8.545607951658718,487.99408,-0.0050354004,-0.0,0.0038516691,0.03644416,0.05569696,0.42046356,1.0852035,1.0280799,0.0,2,0,0,0
57916000,47.39775075821931,8.545607956921751,487.9942,-0.0048217773,-0.0,0.0070396475,0.037536938,0.053891756,0.42058927,1.0851567,1.0283072,0.0,2,0,0,0
58116000,47.39775076225123,8.545607954751711,487.99655,-0.002380371,-0.0,0.007573891,0.03705488,0.051865313,0.4205984,1.0851166,1.0281342,0.0,2,0,0,0
58316000,47.39775077664344,8.545607949239628,487.99768,-0.0012207031,-0.0,0.010038391,0.03773178,0.050163493,0.42098665,1.0850824,1.0283598,0.0,2,0,0,0
58516000,47.39775079479001,8.545607947819414,487.99884,-3.0517578e-05,-0.0,0.0083925985,0.03789041,0.0465047,0.42121235,1.0850534,1.0281855,0.0,2,0,0,0
58716000,47.397750806385076,8.545607977557093,487.9999,0.0010070801,-0.0,0.007579223,0.03930133,0.041673284,0.42130673,1.0845592,1.0284066,0.0,2,0,0,0
58916000,47.397750812309965,8.54560799913603,487.99957,0.00064086914,-0.0,0.0066031157,0.041376185,0.041119087,0.42157474,1.0841118,1.0282243,0.0,2,0,0,0
59116000,47.397750816072815,8.5456080014788,487.99988,0.0009460449,-0.0,0.008207646,0.038060855,0.04204807,0.42150941,1.0837075,1.0280418,0.0,2,0,0,0
59316000,47.39775081467205,8.54560799828098,488.00488,0.0058898926,-0.0,0.010561617,0.038986843,0.038298294,0.42157584,1.0833418,1.0282613,0.0,2,0,0,0
59516000,47.39775082258231,8.545608002788349,488.01212,0.012908936,-0.0,0.012508354,0.036280956,0.034557942,0.42152345,1.0830116,1.0280817,0.0,2,0,0,0
59716000,47.39775083270912,8.545607998784527,488.01596,0.016418457,-0.0,0.014642954,0.036528733,0.03404832,0.42140973,1.0827136,1.0282991,0.0,2,0,0,0
59916000,47.39775084940242,8.545607980878847,488.01965,0.019744873,-0.0,0.018839339,0.032022607,0.029054081,0.42160964,1.0824451,1.0281184,0.0,2,0,0,0
60116000,47.39775087121078,8.545607945752273,488.02112,0.02078247,-0.0,0.01965649,0.026829636,0.02679723,0.42155814,1.0822039,1.02834,0.0,2,0,0,0
60316000,47.39775089381694,8.545607902617714,488.02423,0.0234375,-0.0,0.026710639,0.02249356,0.028353624,0.42151988,1.0819874,1.0281605,0.0,2,0,0,0
60516000,47.39775091908053,8.545607861390978,488.02734,0.026031494,-0.0,0.028718416,0.019111274,0.028554775,0.4213211,1.0817933,1.0279809,0.0,2,0,0,0
60716000,47.39775094816909,8.545607837107424,488.02765,0.025817871,-0.0,0.03331068,0.020767668,0.029219348,0.4215944,1.0816199,1.0282018,0.0,2,0,0,0
60916000,47.397750974474185,8.54560782452961,488.02823,0.025878906,-0.0,0.033133652,0.016520798,0.0337387,0.4217487,1.0814649,1.0280256,0.0,2,0,0,0
61116000,47.39775099908902,8.545607799907968,488.02835,0.025482178,-0.0,0.035528533,0.010368676,0.033321135,0.42195296,1.081327,1.0282449,0.0,2,0,0,0
61316000,47.39775102074054,8.545607761082726,488.02856,0.02520752,-0.0,0.03693708,0.004628055,0.034330126,0.42191422,1.0812044,1.0280677,0.0,2,0,0,0
61516000,47.39775103620804,8.545607724905407,488.0285,0.024627686,-0.0,0.038723134,0.0010154127,0.037315797,0.42199278,1.0810958,1.0282917,0.0,2,0,0,0
61716000,47.3977510426715,8.545607697907041,488.0274,0.023071289,-0.0,0.03928484,-0.0048182914,0.03898398,0.42194408,1.0809999,1.0281159,0.0,2,0,0,0
61916000,47.39775105580614,8.545607671516775,488.02826,0.023468018,-0.0,0.041498438,-0.009335554,0.0380004,0.42203066,1.0809152,1.0279399,0.0,2,0,0,0
62116000,47.39775108440388,8.545607630185557,488.03046,0.025177002,-0.0,0.04557077,-0.013402504,0.037400626,0.42186052,1.0808411,1.0281633,0.0,2,0,0,0
62324000,47.397751115166635,8.54560758945659,488.0332,0.027404785,-0.0,0.046222646,-0.018281402,0.033177797,0.42212257,1.0811392,1.0281392,0.0,2,0,0,0
62516000,47.39775113623223,8.545607556780313,488.03665,0.03024292,-0.0,0.04950627,-0.02135264,0.035353333,0.42212394,1.0807196,1.0282125,0.0,2,0,0,0
62716000,47.39775115898451,8.545607494610767,488.03833,0.031311035,-0.0,0.05108092,-0.023996398,0.037194103,0.42196396,1.0806708,1.0280389,0.0,2,0,0,0
62916000,47.39775118088328,8.545607432385765,488.03998,0.032318115,-0.0,0.050318085,-0.029110316,0.038135305,0.42215097,1.0806283,1.0282652,0.0,2,0,0,0
63116000,47.397751191232594,8.545607382676682,488.03998,0.031677246,-0.0,0.051036518,-0.030316968,0.038809557,0.42222363,1.0805916,1.0280925,0.0,2,0,0,0
63316000,47.39775119583156,8.545607337386194,488.03818,0.029266357,-0.0,0.048181176,-0.02957415,0.039374076,0.42204997,1.08056,1.0279195,0.0,2,0,0,0
63516000,47.39775118684391,8.545607288137816,488.03574,0.026275635,-0.0,0.04745482,-0.033936307,0.040621664,0.42205292,1.080533,1.0281452,0.0,2,0,0,0
63716000,47.397751181691895,8.545607243902955,488.0355,0.025512695,-0.0,0.044857055,-0.03386167,0.04105035,0.42198312,1.08051,1.0279752,0.0,2,0,0,0
63924000,47.39775118515892,8.545607198459813,488.03412,0.024139404,-0.0,0.04429796,-0.0355332,0.041345634,0.42217803,1.0906285,1.0282692,0.0,2,0,0,0
64116000,47.39775120036733,8.545607148106647,488.03204,0.021362305,-0.0,0.04339081,-0.03914686,0.0400383,0.42227253,1.0896326,1.0283365,0.0,2,0,0,0
64315999,47.39775121032414,8.545607101180693,488.032,0.020904541,-0.0,0.045461394,-0.040124394,0.0397055,0.4222902,1.0891097,1.0285509,0.0,2,0,0,0
64515999,47.397751214329276,8.545607070161456,488.03207,0.02053833,-0.0,0.04425535,-0.041907813,0.041684806,0.42214206,1.0885956,1.0283519,0.0,2,0,0,0
64723999,47.39775121063289,8.545607045078683,488.03345,0.021484375,-0.0,0.039760772,-0.041665044,0.038552642,0.42199168,1.0884924,1.028304,0.0,2,0,0,0
64924000,47.39775119414955,8.545607019026606,488.0348,0.02218628,-0.0,0.037121505,-0.04340407,0.037359092,0.42186797,1.0787423,1.0281885,0.0,2,0,0,0
65124000,47.39775117076058,8.545607000913844,488.03558,0.022491455,-0.0,0.03709824,-0.043481275,0.03627436,0.42169654,1.088112,1.028327,0.0,2,0,0,0
65324000,47.39775115835621,8.545606982845253,488.03488,0.02178955,-0.0,0.0347041,-0.043070905,0.034083523,0.42179394,1.0881493,1.0285473,0.0,2,0,0,0
65524000,47.39775116599518,8.545606944540708,488.03516,0.0211792,-0.0,0.03696264,-0.045844942,0.029639594,0.42202172,1.0876544,1.0283517,0.0,2,0,0,0
65723999,47.397751150754324,8.545606930663642,488.03622,0.02178955,-0.0,0.030350886,-0.047412716,0.030347092,0.4220344,1.0876964,1.0285753,0.0,2,0,0,0
65924000,47.397751148495665,8.54560691459367,488.03598,0.021118164,-0.0,0.031175151,-0.048235063,0.030458486,0.4220103,1.0877002,1.0283808,0.0,2,0,0,0
66131999,47.39775115307222,8.545606897226675,488.03867,0.02331543,-0.0,0.03232996,-0.047862675,0.026095893,0.42175826,1.0881101,1.028337,0.0,2,0,0,0
66332000,47.39775115818324,8.54560688443985,488.04218,0.026275635,-0.0,0.033244792,-0.047149684,0.022700906,0.421802,1.0880815,1.0285474,0.0,2,0,0,0
66532000,47.39775115779776,8.545606858535436,488.0459,0.029388428,-0.0,0.032590125,-0.04416578,0.016846323,0.421884,1.0880182,1.0283561,0.0,2,0,0,0
66732000,47.39775116201885,8.545606855085696,488.04968,0.03250122,-0.0,0.03281171,-0.040219806,0.014468376,0.42213225,1.0879635,1.0285738,0.0,2,0,0,0
66932000,47.397751165512176,8.54560686382188,488.05182,0.033935547,-0.0,0.030360643,-0.03648303,0.014033417,0.42214102,1.0878755,1.0283842,0.0,2,0,0,0
67132000,47.397751168751924,8.545606885640264,488.0541,0.035491943,-0.0,0.029442886,-0.031863887,0.012315004,0.42219934,1.0877564,1.0286009,0.0,2,0,0,0
67332000,47.397751165845655,8.545606923779898,488.05637,0.036987305,-0.0,0.029833723,-0.02914432,0.0055888165,0.42193928,1.0876497,1.0284064,0.0,2,0,0,0
67532000,47.39775116158231,8.545606960647403,488.05878,0.039398193,-0.0,0.030045934,-0.026477363,0.0023615367,0.42203048,1.0875547,1.028616,0.0,2,0,0,0
67732000,47.39775117374524,8.545606975561949,488.06244,0.0418396,-0.0,0.03259469,-0.024289673,0.0009746558,0.42214406,1.086977,1.02841,0.0,2,0,0,0
67932000,47.39775117370219,8.545607014780515,488.06454,0.04309082,-0.0,0.034464587,-0.020723095,0.0024562585,0.42197096,1.0864557,1.028612,0.0,2,0,0,0
68132000,47.397751172243595,8.545607048866712,488.06467,0.0423584,-0.0,0.037292227,-0.016562471,0.00077987654,0.4223774,1.0859854,1.0284139,0.0,2,0,0,0
68332000,47.3977511699914,8.545607067137507,488.06674,0.0435791,-0.0,0.038903326,-0.016272195,-0.0027195467,0.42237717,1.0855614,1.0282177,0.0,2,0,0,0
68532000,47.39775116857235,8.545607080027303,488.0705,0.046447754,-0.0,0.039186973,-0.015551627,-0.0069595054,0.4223671,1.0851794,1.028424,0.0,2,0,0,0
68732000,47.39775117286885,8.54560709332203,488.07648,0.051452637,-0.0,0.039482333,-0.0143748,-0.011870961,0.42277858,1.0848359,1.0282325,0.0,2,0,0,0
68932000,47.397751177885226,8.545607112602019,488.07986,0.053771973,-0.0,0.039724827,-0.015447833,-0.014376448,0.42276326,1.0845276,1.0284457,0.0,2,0,0,0
69132000,47.39775117678012,8.545607124942165,488.0831,0.055908203,-0.0,0.038898267,-0.013334658,-0.019739514,0.422903,1.084251,1.0282563,0.0,2,0,0,0
69332000,47.397751172641236,8.545607147661729,488.08746,0.05911255,-0.0,0.03952715,-0.009519751,-0.02285223,0.42319852,1.0840037,1.0284697,0.0,2,0,0,0
69532000,47.39775116774859,8.545607163494749,488.09113,0.061553955,-0.0,0.03633779,-0.00975461,-0.027953494,0.42306647,1.0837828,1.0282859,0.0,2,0,0,0
69732000,47.397751157816856,8.545607173530184,488.09784,0.066986084,-0.0,0.030257216,-0.006533433,-0.03313508,0.4234107,1.0835861,1.028103,0.0,2,0,0,0
69932000,47.39775114204536,8.545607192681256,488.1035,0.07122803,-0.0,0.029186038,-0.0047959248,-0.03398004,0.42309403,1.0834113,1.0283186,0.0,2,0,0,0
70132000,47.3977511296955,8.545607215917256,488.10736,0.073638916,-0.0,0.027897941,-0.0018804291,-0.039556213,0.42331022,1.0832565,1.0281385,0.0,2,0,0,0
70332000,47.39775111351225,8.545607231777574,488.11234,0.0770874,-0.0,0.025561718,0.00022052482,-0.040997587,0.4233603,1.0831194,1.02836,0.0,2,0,0,0
70532000,47.397751094480206,8.545607255369495,488.1163,0.07946777,-0.0,0.02449998,0.004713396,-0.04459876,0.42352638,1.0829986,1.0281804,0.0,2,0,0,0
70732000,47.39775109028823,8.545607288764007,488.1211,0.082611084,-0.0,0.026537003,0.004547807,-0.04750896,0.42372322,1.0828925,1.0284009,0.0,2,0,0,0
70932000,47.39775109506021,8.545607312115173,488.12393,0.08377075,-0.0,0.025389299,0.0055834963,-0.048118748,0.42366487,1.0827997,1.0282255,0.0,2,0,0,0
71132000,47.39775109338559,8.545607322196979,488.1283,0.08642578,-0.0,0.022845542,0.0077607376,-0.048833318,0.4235795,1.0827185,1.0280503,0.0,2,0,0,0
71332000,47.397751082381646,8.545607341946296,488.1337,0.090026855,-0.0,0.021443035,0.008131098,-0.051449277,0.4234364,1.0826478,1.0282716,0.0,2,0,0,0
71532000,47.39775106251578,8.54560736768676,488.13766,0.092163086,-0.0,0.01631484,0.010461346,-0.047227386,0.42367446,1.0825865,1.0280979,0.0,2,0,0,0
71732000,47.39775104603617,8.545607389854368,488.13962,0.09225464,-0.0,0.0141558945,0.01257799,-0.044725005,0.4238965,1.0825334,1.028324,0.0,2,0,0,0
71932000,47.39775103479199,8.5456074071432,488.14026,0.091033936,-0.0,0.010561807,0.013545398,-0.0413502,0.42400494,1.0824873,1.0281497,0.0,2,0,0,0
72132000,47.39775101769685,8.545607433936095,488.1395,0.08843994,-0.0,0.009783678,0.012864877,-0.038948208,0.4241755,1.0824478,1.0283742,0.0,2,0,0,0
72332000,47.397750998957484,8.545607459143802,488.1398,0.0869751,-0.0,0.00784525,0.015720228,-0.037880603,0.4242836,1.0824137,1.0282031,0.0,2,0,0,0
72532000,47.397750978783705,8.545607471215174,488.138,0.083465576,-0.0,0.0065552383,0.016232975,-0.038268264,0.42421585,1.0823846,1.0280317,0.0,2,0,0,0
72732000,47.397750954983934,8.54560748910503,488.13718,0.08099365,-0.0,0.007475849,0.01756836,-0.037263967,0.42419398,1.0823601,1.0282558,0.0,2,0,0,0
72932000,47.39775093859426,8.545607507488286,488.13766,0.07904053,-0.0,0.0035730584,0.015387471,-0.037922,0.42426994,1.0923368,1.028403,0.0,2,0,0,0
73132000,47.39775092328357,8.54560753322368,488.1367,0.07650757,-0.0,0.0016579874,0.014791559,-0.038868614,0.42423037,1.0917351,1.0286266,0.0,2,0,0,0
73332000,47.39775090880617,8.545607541568607,488.1339,0.072265625,-0.0,0.0019374506,0.013165212,-0.03403815,0.42423004,1.0911928,1.0284404,0.0,2,0,0,0
73540000,47.39775088400907,8.545607533180188,488.12906,0.06607056,-0.0,0.002128358,0.013361743,-0.03375057,0.42395645,1.0911208,1.0284052,0.0,2,0,0,0
73732000,47.39775086936381,8.545607537324223,488.12408,0.05987549,-0.0,-0.00082480867,0.013024431,-0.028625624,0.42386466,1.0902635,1.0284781,0.0,2,0,0,0
73932000,47.397750851748484,8.545607523469974,488.12057,0.055236816,-0.0,-0.0010023265,0.011232917,-0.030538684,0.42381603,1.089867,1.0282949,0.0,2,0,0,0
74132000,47.397750837890925,8.545607507744304,488.11972,0.05328369,-0.0,-0.002008404,0.0084978,-0.030728929,0.42352647,1.089511,1.0285146,0.0,2,0,0,0
74332000,47.39775081955943,8.545607494474474,488.11752,0.050048828,-0.0,-0.0031196808,0.004640493,-0.029787468,0.4234963,1.0891917,1.0283324,0.0,2,0,0,0
74532000,47.39775080287536,8.54560747703061,488.11792,0.049438477,-0.0,-0.0054944633,-0.0020085294,-0.029743243,0.42352274,1.0889055,1.0285566,0.0,2,0,0,0
74732000,47.397750792775405,8.545607449586862,488.11957,0.050079346,-0.0,-0.004003728,-0.0046775127,-0.030274998,0.42347854,1.0886496,1.0283735,0.0,2,0,0,0
74932000,47.397750783812505,8.545607418535292,488.1215,0.050964355,-0.0,-0.0051245876,-0.0060459157,-0.02752425,0.4236895,1.0884212,1.0285956,0.0,2,0,0,0
75132000,47.39775077056424,8.545607388669849,488.12228,0.050720215,-0.0,-0.005766655,-0.009798168,-0.024434473,0.42362183,1.0882176,1.0284159,0.0,2,0,0,0
75332000,47.39775075904905,8.5456073829191,488.12158,0.04901123,-0.0,-0.008446668,-0.007052044,-0.021923577,0.42332873,1.0880365,1.0282363,0.0,2,0,0,0
75532000,47.39775075612278,8.545607385607086,488.11917,0.045654297,-0.0,-0.0078560775,-0.006027886,-0.018441001,0.4234974,1.0878761,1.0284581,0.0,2,0,0,0
75732000,47.397750751104,8.545607383155588,488.1147,0.04034424,-0.0,-0.006733071,-0.0063991724,-0.016172798,0.42350718,1.0877341,1.0282798,0.0,2,0,0,0
75932000,47.397750744227956,8.545607375010194,488.1121,0.036987305,-0.0,-0.009068438,-0.0066205016,-0.014392729,0.423613,1.087609,1.0285064,0.0,2,0,0,0
76132000,47.397750739330846,8.545607370525383,488.11172,0.035888672,-0.0,-0.010289336,-0.0038762193,-0.012397093,0.42387682,1.0874991,1.0283272,0.0,2,0,0,0
76332000,47.397750723949926,8.545607370543786,488.1126,0.03604126,-0.0,-0.01157781,-0.0022753244,-0.011433431,0.42373896,1.0874029,1.028552,0.0,2,0,0,0
76532000,47.39775071064591,8.545607377691523,488.1152,0.037872314,-0.0,-0.013571196,-0.0006638444,-0.008964757,0.42401785,1.0873189,1.0283763,0.0,2,0,0,0
76732000,47.39775070700128,8.545607400911662,488.11435,0.0362854,-0.0,-0.01418405,0.0026331674,-0.0044467743,0.42392465,1.0872457,1.0282005,0.0,2,0,0,0
76932000,47.39775070057864,8.545607418329379,488.11063,0.03189087,-0.0,-0.016788358,0.0062523987,-0.0034035076,0.42411804,1.087182,1.0284252,0.0,2,0,0,0
77132000,47.397750698021056,8.54560744934079,488.10745,0.028137207,-0.0,-0.017394722,0.008620187,-0.0027062874,0.42421317,1.0871272,1.0282505,0.0,2,0,0,0
77332000,47.39775069261277,8.545607464448507,488.10434,0.024505615,-0.0,-0.01861013,0.012214895,-0.00037673555,0.42432305,1.0870801,1.0284798,0.0,2,0,0,0
77532000,47.3977506841279,8.5456074781172,488.0993,0.019073486,-0.0,-0.020350827,0.01821765,0.0017794783,0.42409647,1.0870398,1.0283039,0.0,2,0,0,0
77732000,47.39775068609869,8.545607500847613,488.0971,0.01687622,-0.0,-0.01888827,0.020314243,0.0026215462,0.42430818,1.0870055,1.0285313,0.0,2,0,0,0
77932000,47.39775068098474,8.545607534451166,488.09814,0.01739502,-0.0,-0.02103087,0.024566233,0.004087596,0.42413598,1.0864897,1.0283495,0.0,2,0,0,0
78132000,47.397750667614204,8.545607564790561,488.09662,0.015533447,-0.0,-0.019411964,0.025210598,0.0070426473,0.42397135,1.0860234,1.0281675,0.0,2,0,0,0
78340000,47.39775064827153,8.545607595510933,488.09338,0.012023926,-0.0,-0.018231682,0.031125056,0.010045365,0.42422092,1.0859909,1.0281343,0.0,2,0,0,0
78532000,47.39775063891128,8.545607635428098,488.0872,0.005645752,-0.0,-0.01763407,0.03435383,0.014912407,0.42416018,1.0852218,1.0282034,0.0,2,0,0,0
78732000,47.39775063353382,8.545607680317447,488.08197,0.00036621094,-0.0,-0.019284772,0.038942903,0.017966611,0.42427456,1.0848786,1.0284246,0.0,2,0,0,0
78932000,47.39775063380743,8.54560772222645,488.07874,-0.0028381348,-0.0,-0.01734838,0.041158542,0.020072743,0.4242815,1.0845695,1.0282423,0.0,2,0,0,0
79140000,47.39775064026913,8.545607756384237,488.07666,-0.004852295,-0.0,-0.013865368,0.043991607,0.020191116,0.42449737,1.0846721,1.0282093,0.0,2,0,0,0
79332000,47.39775064982517,8.54560778051951,488.07562,-0.0057678223,-0.0,-0.010822027,0.04709835,0.01465039,0.42447388,1.0840417,1.0282826,0.0,2,0,0,0
79532000,47.39775066006791,8.545607802833498,488.07825,-0.0030517578,-0.0,-0.008471249,0.047540534,0.010511187,0.42463672,1.0838182,1.0281036,0.0,2,0,0,0
79732000,47.39775066676021,8.545607826806455,488.08167,0.00039672852,-0.0,-0.008794748,0.04787672,0.010591279,0.4248234,1.0836185,1.0283222,0.0,2,0,0,0
79932000,47.397750673497,8.54560784697364,488.0827,0.0014038086,-0.0,-0.005723977,0.047384974,0.0124749085,0.42487106,1.0834407,1.0281445,0.0,2,0,0,0
80132000,47.39775068091055,8.545607867101674,488.08102,-0.00030517578,-0.0,-0.0027804174,0.045781374,0.014002429,0.42495018,1.0832822,1.0283676,0.0,2,0,0,0
80332000,47.39775069509326,8.545607879111156,488.0798,-0.0014953613,-0.0,0.0008707472,0.04168186,0.015596612,0.42504716,1.0831414,1.0281892,0.0,2,0,0,0
80532000,47.39775071491406,8.5456078848956,488.07953,-0.001739502,-0.0,0.0062395614,0.039435036,0.01799412,0.4247894,1.0830169,1.0284107,0.0,2,0,0,0
80732000,47.39775073734125,8.5456078879684,488.0772,-0.0039978027,-0.0,0.008544025,0.034963064,0.019986266,0.424765,1.0829067,1.0282356,0.0,2,0,0,0
80932000,47.39775075920364,8.545607894029613,488.07385,-0.007232666,-0.0,0.010108929,0.031462923,0.022212872,0.42457598,1.0828097,1.0280602,0.0,2,0,0,0
81132000,47.397750783838866,8.54560788352884,488.06903,-0.011871338,-0.0,0.014034697,0.024307463,0.024839716,0.4243637,1.0827245,1.0282815,0.0,2,0,0,0
81332000,47.39775081316899,8.545607855309818,488.06348,-0.017120361,-0.0,0.014953489,0.019890592,0.02735707,0.42441586,1.0826501,1.0281074,0.0,2,0,0,0
81532000,47.39775083632305,8.545607833681638,488.0616,-0.018615723,-0.0,0.019471293,0.016278964,0.029507227,0.42460594,1.0825851,1.0283332,0.0,2,0,0,0
81732000,47.39775085442167,8.545607818495668,488.0597,-0.020141602,-0.0,0.022239927,0.015436166,0.03317007,0.42456323,1.0825286,1.0281583,0.0,2,0,0,0
81932000,47.397750875427896,8.54560780496998,488.05728,-0.022125244,-0.0,0.024679227,0.014286932,0.033269912,0.42489916,1.0824797,1.0283823,0.0,2,0,0,0
82132000,47.39775089594545,8.545607792888191,488.05518,-0.023773193,-0.0,0.025787592,0.013170819,0.033568796,0.4247569,1.0824375,1.0282105,0.0,2,0,0,0
82332000,47.39775091147562,8.5456077762511,488.05023,-0.028198242,-0.0,0.025696835,0.012983011,0.034290683,0.42457008,1.0824015,1.0280383,0.0,2,0,0,0
82532000,47.397750915973134,8.545607751868658,488.04544,-0.03237915,-0.0,0.026978623,0.011616629,0.03302132,0.42475092,1.0823706,1.0282618,0.0,2,0,0,0
82732000,47.3977509197337,8.545607717749945,488.04437,-0.03277588,-0.0,0.028875759,0.010171374,0.03163441,0.42462522,1.0823447,1.0280904,0.0,2,0,0,0
82932000,47.39775093873079,8.545607697679817,488.0426,-0.0335083,-0.0,0.030051643,0.0073716803,0.031199172,0.4246091,1.0923121,1.0286416,0.0,2,0,0,0
83132000,47.3977509582236,8.545607687704218,488.0411,-0.034301758,-0.0,0.033408042,0.008107318,0.029210214,0.42423397,1.0917102,1.0284548,0.0,2,0,0,0
83332000,47.39775097922591,8.545607685954353,488.0405,-0.034210205,-0.0,0.036875315,0.0088442005,0.027320482,0.4243609,1.0911678,1.0286753,0.0,2,0,0,0
83532000,47.39775099996488,8.545607670203369,488.04248,-0.031585693,-0.0,0.037581872,0.010088853,0.029630203,0.42437002,1.0906793,1.0284915,0.0,2,0,0,0
83732000,47.39775100567066,8.545607667471034,488.04575,-0.027740479,-0.0,0.034553234,0.012545807,0.027843326,0.42423823,1.090239,1.0283076,0.0,2,0,0,0
83932000,47.39775101833738,8.5456076730604,488.04623,-0.02670288,-0.0,0.036174707,0.0121641,0.030138208,0.42434138,1.089843,1.0285268,0.0,2,0,0,0
84132000,47.3977510197641,8.545607671519175,488.0457,-0.02670288,-0.0,0.03360275,0.010859412,0.030174233,0.42445117,1.0894872,1.0283438,0.0,2,0,0,0
84332000,47.397751019264554,8.545607661231125,488.04556,-0.026275635,-0.0,0.032088194,0.010732756,0.02756996,0.4245706,1.0891678,1.0285676,0.0,2,0,0,0
84532000,47.39775101247784,8.54560764933934,488.0452,-0.026123047,-0.0,0.02902811,0.008180179,0.029442122,0.4245384,1.088882,1.0283836,0.0,2,0,0,0
84732000,47.39775100239161,8.545607625863422,488.04413,-0.026641846,-0.0,0.024821803,0.0069126654,0.033317257,0.42438945,1.0886263,1.0286053,0.0,2,0,0,0
84932000,47.397750995144285,8.545607605699873,488.04126,-0.028930664,-0.0,0.021380775,0.00943889,0.033984985,0.4243859,1.0883979,1.028425,0.0,2,0,0,0
85132000,47.397750994725236,8.545607600678641,488.03986,-0.029724121,-0.0,0.019669037,0.011116931,0.033510864,0.42425454,1.0881946,1.0282445,0.0,2,0,0,0
85332000,47.39775099699439,8.545607604646195,488.0383,-0.030670166,-0.0,0.018782113,0.012100852,0.033989597,0.42407507,1.0880144,1.0284659,0.0,2,0,0,0
85532000,47.39775100022055,8.545607607036692,488.03683,-0.03149414,-0.0,0.017686844,0.008669764,0.03430244,0.4239963,1.0878546,1.0282868,0.0,2,0,0,0
85732000,47.39775098489035,8.545607591492749,488.03696,-0.030731201,-0.0,0.016559834,0.005722174,0.033402167,0.42400664,1.0877135,1.028513,0.0,2,0,0,0
85932000,47.39775096744431,8.545607566434064,488.03503,-0.03201294,-0.0,0.015803177,0.0005680722,0.036357768,0.42398235,1.0875893,1.0283332,0.0,2,0,0,0
86132000,47.397750960338236,8.545607523978074,488.02985,-0.036468506,-0.0,0.019029288,-0.005255622,0.03988729,0.42405128,1.0874801,1.0285575,0.0,2,0,0,0
86332000,47.39775096134595,8.545607474229566,488.02774,-0.03781128,-0.0,0.018992841,-0.009041908,0.040366177,0.42366767,1.0873845,1.0283812,0.0,2,0,0,0
86532000,47.39775095888731,8.545607431916135,488.0239,-0.04083252,-0.0,0.020658104,-0.011484772,0.039449,0.42379773,1.0873011,1.0282049,0.0,2,0,0,0
86732000,47.39775097006938,8.545607398265874,488.0232,-0.04071045,-0.0,0.021410275,-0.012046924,0.04159158,0.42361572,1.087229,1.0284292,0.0,2,0,0,0
86932000,47.39775097583992,8.545607372331622,488.02213,-0.04095459,-0.0,0.021451123,-0.014407901,0.04359261,0.42370993,1.0871664,1.0282539,0.0,2,0,0,0
87132000,47.39775098794516,8.54560734149973,488.01965,-0.04257202,-0.0,0.019741971,-0.017594082,0.046431985,0.4238187,1.0871124,1.0284829,0.0,2,0,0,0
87332000,47.39775099364976,8.54560731914022,488.0153,-0.04598999,-0.0,0.0201868,-0.015619751,0.04736534,0.42387825,1.0870659,1.0283067,0.0,2,0,0,0
87532000,47.39775099044358,8.545607309371219,488.01385,-0.04647827,-0.0,0.018723471,-0.01275025,0.046752542,0.423879,1.0870262,1.0285337,0.0,2,0,0,0
87732000,47.39775098053716,8.545607298734298,488.01266,-0.046722412,-0.0,0.01695116,-0.015279403,0.04368511,0.4236983,1.0869926,1.0283606,0.0,2,0,0,0
87932000,47.39775096868874,8.545607285478388,488.01413,-0.04525757,-0.0,0.017240044,-0.016426546,0.042892724,0.42355832,1.0869644,1.0281873,0.0,2,0,0,0
88132000,47.397750971525866,8.54560726293558,488.01553,-0.042510986,-0.0,0.017130667,-0.020093516,0.043676533,0.4236082,1.0864543,1.0284046,0.0,2,0,0,0
88332000,47.39775097892265,8.545607247148798,488.01804,-0.03918457,-0.0,0.022269916,-0.022524768,0.043447226,0.42367518,1.0859929,1.0282229,0.0,2,0,0,0
88532000,47.39775098417454,8.545607237852993,488.02225,-0.034240723,-0.0,0.024433361,-0.022915592,0.04073297,0.4236764,1.085576,1.0284442,0.0,2,0,0,0
88732000,47.39775099289881,8.545607229146764,488.02493,-0.030883789,-0.0,0.024716234,-0.021930754,0.040335357,0.42343912,1.0851994,1.0282612,0.0,2,0,0,0
88940000,47.397750999973496,8.545607221177084,488.02768,-0.027557373,-0.0,0.026150143,-0.02182799,0.038161583,0.42344385,1.0852439,1.0282276,0.0,2,0,0,0
89132000,47.39775100618486,8.545607218966634,488.0289,-0.025787354,-0.0,0.029316753,-0.022008803,0.035615545,0.42365474,1.0845535,1.0283003,0.0,2,0,0,0
89332000,47.397751016458805,8.545607223554873,488.02975,-0.024414062,-0.0,0.030457668,-0.021683533,0.035485845,0.42369416,1.0842781,1.0281203,0.0,2,0,0,0
89532000,47.397751026528034,8.545607218643651,488.02963,-0.024047852,-0.0,0.03205601,-0.02315508,0.03395342,0.42379585,1.0840309,1.0283384,0.0,2,0,0,0
89732000,47.39775103479926,8.54560721419819,488.0308,-0.02243042,-0.0,0.03254367,-0.021522185,0.03390389,0.42386016,1.0838093,1.0281596,0.0,2,0,0,0
89932000,47.397751042662776,8.545607217950495,488.03076,-0.022003174,-0.0,0.03239854,-0.021957617,0.03396747,0.4239622,1.0836111,1.0283822,0.0,2,0,0,0
90132000,47.39775105330287,8.545607215362992,488.0313,-0.021026611,-0.0,0.036001146,-0.02414919,0.03680044,0.42365545,1.0834341,1.0282025,0.0,2,0,0,0
90332000,47.39775106922122,8.545607195978139,488.0332,-0.018737793,-0.0,0.035423715,-0.028057346,0.035017338,0.4236327,1.0832765,1.0284232,0.0,2,0,0,0
90532000,47.3977510748988,8.545607163275072,488.0336,-0.017974854,-0.0,0.034769055,-0.03136449,0.028695596,0.42348737,1.0831364,1.028247,0.0,2,0,0,0
