timestamp,roll_body,pitch_body,yaw_body,yaw_sp_move_rate,q_d[0],q_d[1],q_d[2],q_d[3],thrust_body[0],thrust_body[1],thrust_body[2],q_d_valid,roll_reset_integral,pitch_reset_integral,yaw_reset_integral,fw_control_yaw,apply_flaps
1988000,0.0,0.0,0.41114545,0.0,0.97894424,0.0,0.0,0.20412786,0.0,0.0,-0.08,1,0,0,0,0,0
2088000,0.0,0.0,0.41106832,0.0,0.9789521,0.0,0.0,0.2040901,0.0,0.0,-0.08,1,0,0,0,0,0
2192000,0.0,0.0,0.41097763,0.0,0.97896135,0.0,0.0,0.20404571,0.0,0.0,-0.08,1,0,0,0,0,0
2292000,0.0,0.0,0.4107848,0.0,0.978981,0.0,0.0,0.20395133,0.0,0.0,-0.08,1,0,0,0,0,0
2388000,0.0,0.0,0.4108143,0.0,0.97897804,0.0,0.0,0.20396575,0.0,0.0,-0.08,1,0,0,0,0,0
2492000,0.0,0.0,0.4112392,0.0,0.97893465,0.0,0.0,0.20417374,0.0,0.0,-0.08,1,0,0,0,0,0
2588000,0.0,0.0,0.4115984,0.0,0.978898,0.0,0.0,0.20434956,0.0,0.0,-0.08,1,0,0,0,0,0
2688000,0.0,0.0,0.41173112,0.0,0.9788844,0.0,0.0,0.20441452,0.0,0.0,-0.08,1,0,0,0,0,0
2788000,0.0,0.0,0.41152275,0.0,0.97890574,0.0,0.0,0.20431253,0.0,0.0,-0.08,1,0,0,0,0,0
2884000,0.0,0.0,0.4110517,0.0,0.9789538,0.0,0.0,0.20408197,0.0,0.0,-0.08,1,0,0,0,0,0
2988000,0.0,0.0,0.41068175,0.0,0.9789915,0.0,0.0,0.20390089,0.0,0.0,-0.08,1,0,0,0,0,0
3088000,0.0,0.0,0.410331,0.0,0.9790273,0.0,0.0,0.2037292,0.0,0.0,-0.08,1,0,0,0,0,0
3192000,0.0,0.0,0.41017064,0.0,0.9790436,0.0,0.0,0.2036507,0.0,0.0,-0.08,1,0,0,0,0,0
3288000,0.0,0.0,0.41019654,0.0,0.979041,0.0,0.0,0.20366338,0.0,0.0,-0.08,1,0,0,0,0,0
3388000,0.0,0.0,0.41018924,0.0,0.9790417,0.0,0.0,0.2036598,0.0,0.0,-0.08,1,0,0,0,0,0
3492000,0.0,0.0,0.41005245,0.0,0.97905564,0.0,0.0,0.20359284,0.0,0.0,-0.08,1,0,0,0,0,0
3588000,0.0,0.0,0.41004416,0.0,0.9790565,0.0,0.0,0.20358878,0.0,0.0,-0.08,1,0,0,0,0,0
3688000,0.0,0.0,0.41014382,0.0,0.97904634,0.0,0.0,0.20363757,0.0,0.0,-0.08,1,0,0,0,0,0
3788000,0.0,0.0,0.41020364,0.0,0.97904027,0.0,0.0,0.20366685,0.0,0.0,-0.08,1,0,0,0,0,0
3888000,0.0,0.0,0.40994757,0.0,0.9790663,0.0,0.0,0.2035415,0.0,0.0,-0.08,1,0,0,0,0,0
3988000,0.0,0.0,0.4099119,0.0,0.97906995,0.0,0.0,0.20352404,0.0,0.0,-0.08,1,0,0,0,0,0
4092000,0.0,0.0,0.4096631,0.0,0.9790953,0.0,0.0,0.20340224,0.0,0.0,-0.08,1,0,0,0,0,0
4188000,0.0,0.0,0.40937424,0.0,0.9791246,0.0,0.0,0.20326082,0.0,0.0,-0.08,1,0,0,0,0,0
4284000,0.0,0.0,0.40923393,0.0,0.9791389,0.0,0.0,0.20319213,0.0,0.0,-0.08,1,0,0,0,0,0
4392000,0.0,0.0,0.40948072,0.0,0.9791138,0.0,0.0,0.20331295,0.0,0.0,-0.08,1,0,0,0,0,0
4488000,0.0,0.0,0.40953407,0.0,0.9791084,0.0,0.0,0.20333907,0.0,0.0,-0.08,1,0,0,0,0,0
4588000,0.0,0.0,0.40961632,0.0,0.9791,0.0,0.0,0.20337933,0.0,0.0,-0.08,1,0,0,0,0,0
4688000,0.0,0.0,0.40961343,0.0,0.9791003,0.0,0.0,0.20337792,0.0,0.0,-0.08,1,0,0,0,0,0
4788000,0.0,0.0,0.40975982,0.0,0.97908545,0.0,0.0,0.20344958,0.0,0.0,-0.08,1,0,0,0,0,0
4888000,0.0,0.0,0.40974882,0.0,0.9790865,0.0,0.0,0.2034442,0.0,0.0,-0.08,1,0,0,0,0,0
4988000,0.0,0.0,0.40994498,0.0,0.9790666,0.0,0.0,0.20354022,0.0,0.0,-0.08,1,0,0,0,0,0
5088000,0.0,0.0,0.41018242,0.0,0.9790424,0.0,0.0,0.20365646,0.0,0.0,-0.08,1,0,0,0,0,0
5188000,0.0,0.0,0.41046098,0.0,0.97901404,0.0,0.0,0.20379281,0.0,0.0,-0.08,1,0,0,0,0,0
5288000,0.0,0.0,0.4107385,0.0,0.9789857,0.0,0.0,0.20392866,0.0,0.0,-0.08,1,0,0,0,0,0
5388000,0.0,0.0,0.41087863,0.0,0.9789715,0.0,0.0,0.20399725,0.0,0.0,-0.08,1,0,0,0,0,0
5488000,0.0,0.0,0.41086382,0.0,0.978973,0.0,0.0,0.20399001,0.0,0.0,-0.08,1,0,0,0,0,0
5588000,0.0,0.0,0.4110562,0.0,0.97895336,0.0,0.0,0.20408417,0.0,0.0,-0.08,1,0,0,0,0,0
5688000,0.0,0.0,0.41112792,0.0,0.97894603,0.0,0.0,0.20411928,0.0,0.0,-0.08,1,0,0,0,0,0
5788000,0.0,0.0,0.4113015,0.0,0.9789283,0.0,0.0,0.20420423,0.0,0.0,-0.08,1,0,0,0,0,0
5888000,0.0,0.0,0.4113387,0.0,0.9789245,0.0,0.0,0.20422244,0.0,0.0,-0.08,1,0,0,0,0,0
5988000,0.0,0.0,0.41113546,0.0,0.97894526,0.0,0.0,0.20412298,0.0,0.0,-0.08,1,0,0,0,0,0
6092000,0.0,0.0,0.41121572,0.0,0.9789371,0.0,0.0,0.20416225,0.0,0.0,-0.08,1,0,0,0,0,0
6188000,0.0,0.0,0.4113026,0.0,0.9789282,0.0,0.0,0.20420478,0.0,0.0,-0.08,1,0,0,0,0,0
6288000,0.0,0.0,0.4113254,0.0,0.9789259,0.0,0.0,0.20421594,0.0,0.0,-0.08,1,0,0,0,0,0
6388000,0.0,0.0,0.41138604,0.0,0.9789197,0.0,0.0,0.20424563,0.0,0.0,-0.08,1,0,0,0,0,0
6488000,0.0,0.0,0.41155884,0.0,0.97890204,0.0,0.0,0.20433019,0.0,0.0,-0.08,1,0,0,0,0,0
6588000,0.0,0.0,0.41168138,0.0,0.9788895,0.0,0.0,0.20439018,0.0,0.0,-0.08,1,0,0,0,0,0
6692000,0.0,0.0,0.41173,0.0,0.9788845,0.0,0.0,0.20441397,0.0,0.0,-0.08,1,0,0,0,0,0
6788000,0.0,0.0,0.41173962,0.0,0.97888356,0.0,0.0,0.20441867,0.0,0.0,-0.08,1,0,0,0,0,0
6884000,0.0,0.0,0.41167477,0.0,0.9788902,0.0,0.0,0.20438693,0.0,0.0,-0.08,1,0,0,0,0,0
6988000,0.0,0.0,0.4115337,0.0,0.9789046,0.0,0.0,0.2043179,0.0,0.0,-0.08,1,0,0,0,0,0
7084000,0.0,0.0,0.4113719,0.0,0.9789211,0.0,0.0,0.2042387,0.0,0.0,-0.08,1,0,0,0,0,0
7188000,0.0,0.0,0.41155857,0.0,0.97890204,0.0,0.0,0.20433007,0.0,0.0,-0.08,1,0,0,0,0,0
7288000,0.0,0.0,0.4115762,0.0,0.97890025,0.0,0.0,0.2043387,0.0,0.0,-0.08,1,0,0,0,0,0
7388000,0.0,0.0,0.41127357,0.0,0.9789311,0.0,0.0,0.20419057,0.0,0.0,-0.08,1,0,0,0,0,0
7492000,0.0,0.0,0.411296,0.0,0.97892886,0.0,0.0,0.20420155,0.0,0.0,-0.08,1,0,0,0,0,0
7588000,0.0,0.0,0.41152683,0.0,0.9789053,0.0,0.0,0.20431453,0.0,0.0,-0.08,1,0,0,0,0,0
7688000,0.0,0.0,0.41173697,0.0,0.9788838,0.0,0.0,0.20441738,0.0,0.0,-0.08,1,0,0,0,0,0
7788000,0.0,0.0,0.4117337,0.0,0.97888416,0.0,0.0,0.20441578,0.0,0.0,-0.08,1,0,0,0,0,0
7884000,0.0,0.0,0.41165417,0.0,0.97889227,0.0,0.0,0.20437686,0.0,0.0,-0.08,1,0,0,0,0,0
7988000,0.0,0.0,0.41160545,0.0,0.9788973,0.0,0.0,0.204353,0.0,0.0,-0.08,1,0,0,0,0,0
8083999,0.0,0.0,0.4115914,0.0,0.9788987,0.0,0.0,0.20434614,0.0,0.0,-0.08,1,0,0,0,0,0
8188000,0.0,0.0,0.41159675,0.0,0.97889817,0.0,0.0,0.20434876,0.0,0.0,-0.08,1,0,0,0,0,0
8288000,0.0,0.0,0.41168687,0.0,0.9788889,0.0,0.0,0.20439287,0.0,0.0,-0.08,1,0,0,0,0,0
8392000,0.0,0.0,0.4118854,0.0,0.97886866,0.0,0.0,0.20449004,0.0,0.0,-0.08,1,0,0,0,0,0
8492000,0.0,0.0,0.41203073,0.0,0.97885376,0.0,0.0,0.20456116,0.0,0.0,-0.08,1,0,0,0,0,0
8592000,0.0,0.0,0.41204926,0.0,0.9788519,0.0,0.0,0.20457023,0.0,0.0,-0.08,1,0,0,0,0,0
8692000,0.0,0.0,0.41202074,0.0,0.97885484,0.0,0.0,0.20455627,0.0,0.0,-0.08,1,0,0,0,0,0
8792000,0.0,0.0,0.41220906,0.0,0.9788355,0.0,0.0,0.20464844,0.0,0.0,-0.08,1,0,0,0,0,0
8892000,0.0,0.0,0.41216612,0.0,0.97883993,0.0,0.0,0.20462742,0.0,0.0,-0.08,1,0,0,0,0,0
8992000,0.0,0.0,0.4120007,0.0,0.97885686,0.0,0.0,0.20454645,0.0,0.0,-0.08,1,0,0,0,0,0
9092000,0.0,0.0,0.41188446,0.0,0.9788687,0.0,0.0,0.20448957,0.0,0.0,-0.08,1,0,0,0,0,0
9196000,0.0,0.0,0.41187793,0.0,0.97886944,0.0,0.0,0.20448637,0.0,0.0,-0.08,1,0,0,0,0,0
9292000,0.0,0.0,0.41192096,0.0,0.978865,0.0,0.0,0.20450744,0.0,0.0,-0.08,1,0,0,0,0,0
9392000,0.0,0.0,0.41177192,0.0,0.9788802,0.0,0.0,0.20443448,0.0,0.0,-0.08,1,0,0,0,0,0
9492000,0.0,0.0,0.41173047,0.0,0.97888446,0.0,0.0,0.2044142,0.0,0.0,-0.08,1,0,0,0,0,0
9592000,0.0,0.0,0.4115781,0.0,0.9789001,0.0,0.0,0.20433962,0.0,0.0,-0.08,1,0,0,0,0,0
9696000,0.0,0.0,0.41160303,0.0,0.9788975,0.0,0.0,0.20435183,0.0,0.0,-0.08,1,0,0,0,0,0
9792000,0.0,0.0,0.4116092,0.0,0.97889686,0.0,0.0,0.20435485,0.0,0.0,-0.08,1,0,0,0,0,0
9892000,0.0,0.0,0.41143438,0.0,0.97891474,0.0,0.0,0.20426928,0.0,0.0,-0.08,1,0,0,0,0,0
9992000,0.0,0.0,0.41119638,0.0,0.97893906,0.0,0.0,0.2041528,0.0,0.0,-0.08,1,0,0,0,0,0
10088000,0.0,0.0,0.41093904,0.0,0.9789653,0.0,0.0,0.20402682,0.0,0.0,-0.08,1,0,0,0,0,0
10192000,0.0,0.0,0.410699,0.0,0.9789898,0.0,0.0,0.20390934,0.0,0.0,-0.08,1,0,0,0,0,0
10296000,0.0,0.0,0.41060135,0.0,0.97899973,0.0,0.0,0.20386153,0.0,0.0,-0.08,1,0,0,0,0,0
10396000,0.0,0.0,0.4103303,0.0,0.97902733,0.0,0.0,0.20372884,0.0,0.0,-0.08,1,0,0,0,0,0
10488000,0.0,0.0,0.410054,0.0,0.97905546,0.0,0.0,0.2035936,0.0,0.0,-0.08,1,0,0,0,0,0
10592000,0.0,0.0,0.40970215,0.0,0.9790913,0.0,0.0,0.20342135,0.0,0.0,-0.08,1,0,0,0,0,0
10692000,0.0,0.0,0.4092915,0.0,0.979133,0.0,0.0,0.20322032,0.0,0.0,-0.08,1,0,0,0,0,0
10792000,0.0,0.0,0.40878934,0.0,0.97918403,0.0,0.0,0.20297447,0.0,0.0,-0.08,1,0,0,0,0,0
10892000,0.0,0.0,0.40857124,0.0,0.97920614,0.0,0.0,0.20286769,0.0,0.0,-0.08,1,0,0,0,0,0
10992000,0.0,0.0,0.4081823,0.0,0.9792456,0.0,0.0,0.20267725,0.0,0.0,-0.08,1,0,0,0,0,0
11092000,0.0,0.0,0.40793177,0.0,0.979271,0.0,0.0,0.2025546,0.0,0.0,-0.08,1,0,0,0,0,0
11192000,0.0,0.0,0.4079108,0.0,0.9792731,0.0,0.0,0.20254432,0.0,0.0,-0.08,1,0,0,0,0,0
11288000,0.0,0.0,0.4079498,0.0,0.97926915,0.0,0.0,0.20256342,0.0,0.0,-0.08,1,0,0,0,0,0
11388000,0.0,0.0,0.39891806,0.0,0.9801739,0.0,0.0,0.19813912,0.0,0.0,-0.08,1,0,0,0,0,0
11496000,0.0,0.0,0.39966694,0.0,0.9800997,0.0,0.0,0.19850612,0.0,0.0,-0.08,1,0,0,0,0,0
11592000,0.0,0.0,0.4010278,0.0,0.9799644,0.0,0.0,0.19917296,0.0,0.0,-0.08,1,0,0,0,0,0
11692000,0.0,0.0,0.40290204,0.0,0.9797773,0.0,0.0,0.20009121,0.0,0.0,-0.08,1,0,0,0,0,0
11796000,0.0,0.0,0.4043279,0.0,0.97963434,0.0,0.0,0.20078968,0.0,0.0,-0.08,1,0,0,0,0,0
11888000,0.0,0.0,0.405239,0.0,0.9795428,0.0,0.0,0.20123592,0.0,0.0,-0.08,1,0,0,0,0,0
11996000,0.0,0.0,0.4055294,0.0,0.9795136,0.0,0.0,0.20137817,0.0,0.0,-0.08,1,0,0,0,0,0
12092000,0.0,0.0,0.40540615,0.0,0.979526,0.0,0.0,0.20131779,0.0,0.0,-0.08,1,0,0,0,0,0
12196000,0.0,0.0,0.40525416,0.0,0.9795413,0.0,0.0,0.20124336,0.0,0.0,-0.08,1,0,0,0,0,0
12296000,0.0,0.0,0.40494314,0.0,0.97957253,0.0,0.0,0.20109102,0.0,0.0,-0.08,1,0,0,0,0,0
12364000,0.0,0.0,0.40483916,0.0,0.979583,0.0,0.0,0.20104009,0.0,0.0,-0.08,1,0,0,0,0,0
92344000,0.0,0.0,0.42312032,0.0,0.9777045,0.0,0.0,0.20998555,0.0,0.0,-0.0,1,0,0,0,0,0
92444000,0.021199735,0.0018105742,0.42313436,0.0,0.97764975,0.010173231,0.003110901,0.20997113,0.0,0.0,-0.49889684,1,0,0,0,0,0
92540000,0.03378466,0.0072907554,0.42301333,0.0,0.97758263,0.015749827,0.0071096965,0.20984171,0.0,0.0,-0.51352507,1,0,0,0,0,0
92636000,0.029808952,0.0055041937,0.4232302,0.0,0.97758925,0.0139934225,0.0058208006,0.20997505,0.0,0.0,-0.5570853,1,0,0,0,0,0
92732000,0.023761122,0.0033004638,0.42299417,0.0,0.97765154,0.011269147,0.0041072974,0.2098896,0.0,0.0,-0.6140822,1,0,0,0,0,0
92848000,0.01614756,0.00047338085,0.4227302,0.0,0.97771394,0.007844361,0.0019252341,0.20978612,0.0,0.0,-0.667019,1,0,0,0,0,0
92944000,0.005508578,-0.0067340564,0.4226371,0.0,0.977744,0.0033992296,-0.0027144044,0.20975642,0.0,0.0,-0.68542504,1,0,0,0,0,0
93044000,0.00083890907,-0.014761817,0.42261997,0.0,0.9777297,0.0019581777,-0.007128693,0.20973824,0.0,0.0,-0.6958361,1,0,0,0,0,0
93140000,-0.0037189256,-0.016110042,0.42267227,0.0,0.9777213,-0.00012838037,-0.0082657505,0.2097447,0.0,0.0,-0.64290637,1,0,0,0,0,0
93236000,-0.0013182154,-0.019228442,0.42332876,0.0,0.97763854,0.0013754269,-0.009537973,0.21007147,0.0,0.0,-0.54103273,1,0,0,0,0,0
93332000,0.00087499485,-0.012027132,0.42332876,0.0,0.9776643,0.0016910927,-0.0057874117,0.2100862,0.0,0.0,-0.6539394,1,0,0,0,0,0
93448000,-0.00039529565,-0.018286852,0.42332876,0.0,0.9776421,0.0017276633,-0.008980766,0.2100769,0.0,0.0,-0.52171105,1,0,0,0,0,0
93544000,-0.0013414017,-0.020464173,0.42332876,0.0,0.97763264,0.0014938966,-0.010144454,0.21006967,0.0,0.0,-0.59254235,1,0,0,0,0,0
93644000,-0.004282278,-0.020429874,0.42332876,0.0,0.977634,5.2743977e-05,-0.010436572,0.21005459,0.0,0.0,-0.5814462,1,0,0,0,0,0
93740000,-0.005390555,-0.023008702,0.42332876,0.0,0.9776209,-0.00021809127,-0.01181352,0.21004243,0.0,0.0,-0.5799059,1,0,0,0,0,0
93836000,-0.006501937,-0.023185972,0.42332876,0.0,0.97761965,-0.0007427232,-0.012016888,0.21003537,0.0,0.0,-0.5810309,1,0,0,0,0,0
93932000,-0.0074427086,-0.023494147,0.42332876,0.0,0.97761756,-0.0011702052,-0.012266319,0.21002872,0.0,0.0,-0.57966274,1,0,0,0,0,0
94048000,-0.007897534,-0.026352003,0.42332876,0.0,0.97760105,-0.0010922854,-0.013710986,0.2100167,0.0,0.0,-0.5799266,1,0,0,0,0,0
94144000,-0.009405657,-0.026988348,0.42332876,0.0,0.9775961,-0.0017625993,-0.014180385,0.21000394,0.0,0.0,-0.5806871,1,0,0,0,0,0
94244000,-0.011760334,-0.027400281,0.42332876,0.0,0.9775909,-0.0028702768,-0.014628964,0.20998532,0.0,0.0,-0.5768368,1,0,0,0,0,0
94340000,-0.010899953,-0.028015267,0.42332876,0.0,0.9775882,-0.0023851101,-0.014839221,0.20998907,0.0,0.0,-0.57868606,1,0,0,0,0,0
94436000,-0.011635084,-0.027624642,0.42332876,0.0,0.97758967,-0.0027854815,-0.014725478,0.20998529,0.0,0.0,-0.57895666,1,0,0,0,0,0
94532000,-0.011201467,-0.028801521,0.42332876,0.0,0.9775829,-0.0024498769,-0.015255181,0.20998351,0.0,0.0,-0.57870877,1,0,0,0,0,0
94648000,-0.012887239,-0.03063948,0.42332876,0.0,0.9775683,-0.0030807396,-0.0163305,0.2099619,0.0,0.0,-0.58067566,1,0,0,0,0,0
94744000,-0.01285683,-0.030933354,0.42332876,0.0,0.97756636,-0.0030349977,-0.016470946,0.20996077,0.0,0.0,-0.58287334,1,0,0,0,0,0
94844000,-0.016340429,-0.031642273,0.42332876,0.0,0.97755474,-0.0046632155,-0.017183114,0.20992777,0.0,0.0,-0.57949173,1,0,0,0,0,0
94940000,-0.015534304,-0.03260606,0.42332876,0.0,0.9775498,-0.004167918,-0.01756955,0.20992939,0.0,0.0,-0.5802586,1,0,0,0,0,0
95036000,-0.016792849,-0.03174319,0.42332876,0.0,0.977553,-0.0048737433,-0.017279925,0.20992328,0.0,0.0,-0.57919043,1,0,0,0,0,0
95132000,-0.015293389,-0.032912064,0.42332876,0.0,0.97754806,-0.0040180064,-0.01769382,0.20992982,0.0,0.0,-0.57977575,1,0,0,0,0,0
95248000,-0.016815804,-0.033278465,0.42332876,0.0,0.9775421,-0.0047236173,-0.018032694,0.20991415,0.0,0.0,-0.58338535,1,0,0,0,0,0
95344000,-0.014378682,-0.032802563,0.42332876,0.0,0.9775506,-0.0035824282,-0.017544288,0.20993847,0.0,0.0,-0.5842986,1,0,0,0,0,0
95444000,-0.016735733,-0.0319276,0.42332876,0.0,0.9775518,-0.0048264465,-0.017364059,0.20992267,0.0,0.0,-0.5815409,1,0,0,0,0,0
95540000,-0.016828936,-0.034128405,0.42332876,0.0,0.97753584,-0.0046407096,-0.018449469,0.209909,0.0,0.0,-0.581238,1,0,0,0,0,0
95636000,-0.018825954,-0.033493694,0.42332876,0.0,0.9775353,-0.0056834947,-0.018348852,0.20989454,0.0,0.0,-0.5810684,1,0,0,0,0,0
95732000,-0.019534169,-0.03359145,0.42332876,0.0,0.97753257,-0.006019373,-0.01847095,0.20988739,0.0,0.0,-0.5826968,1,0,0,0,0,0
95848000,-0.020577446,-0.034533035,0.42332876,0.0,0.97752243,-0.006430323,-0.019040613,0.2098713,0.0,0.0,-0.58353925,1,0,0,0,0,0
95944000,-0.022554018,-0.036231875,0.42332876,0.0,0.97750294,-0.007217812,-0.020078259,0.20983988,0.0,0.0,-0.58225423,1,0,0,0,0,0
96044000,-0.02305362,-0.03472815,0.42332876,0.0,0.9775123,-0.0076200645,-0.019395793,0.20984614,0.0,0.0,-0.5789199,1,0,0,0,0,0
96140000,-0.022108503,-0.036125954,0.42332876,0.0,0.9775053,-0.0070112,-0.019979753,0.20984513,0.0,0.0,-0.5801624,1,0,0,0,0,0
96236000,-0.024659812,-0.03552793,0.42332876,0.0,0.9775001,-0.008321021,-0.01995517,0.20982414,0.0,0.0,-0.5602293,1,0,0,0,0,0
96332000,-0.025639296,-0.034740433,0.42332876,0.0,0.9775016,-0.008882531,-0.019673074,0.20982075,0.0,0.0,-0.56521493,1,0,0,0,0,0
96428000,-0.026673976,-0.03503845,0.42332876,0.0,0.9774947,-0.009356902,-0.019927263,0.2098081,0.0,0.0,-0.5646637,1,0,0,0,0,0
96544000,-0.027817829,-0.034010608,0.42332876,0.0,0.9774964,-0.010024016,-0.01954495,0.2098055,0.0,0.0,-0.5666642,1,0,0,0,0,0
96644000,-0.029928252,-0.036888245,0.42332876,0.0,0.97746485,-0.010752907,-0.021172578,0.20975837,0.0,0.0,-0.5625323,1,0,0,0,0,0
96740000,-0.029197453,-0.03632716,0.42332876,0.0,0.97747284,-0.010454736,-0.02082174,0.20977117,0.0,0.0,-0.55867964,1,0,0,0,0,0
96836000,-0.030891208,-0.036263853,0.42332876,0.0,0.97746414,-0.011289189,-0.02096845,0.20975405,0.0,0.0,-0.5669918,1,0,0,0,0,0
96932000,-0.030104073,-0.034576084,0.42332876,0.0,0.9774804,-0.011081951,-0.020061115,0.20977782,0.0,0.0,-0.5631107,1,0,0,0,0,0
97028000,-0.031201778,-0.03645059,0.42332876,0.0,0.97746104,-0.01142134,-0.021092271,0.209749,0.0,0.0,-0.565895,1,0,0,0,0,0
97144000,-0.029534418,-0.032859948,0.42332876,0.0,0.977495,-0.010983971,-0.019162698,0.20979899,0.0,0.0,-0.5669644,1,0,0,0,0,0
97244000,-0.031483416,-0.03412861,0.42332876,0.0,0.9774756,-0.011803139,-0.019987116,0.20976824,0.0,0.0,-0.56548613,1,0,0,0,0,0
97340000,-0.032511503,-0.031361137,0.42332876,0.0,0.9774868,-0.01259659,-0.018742524,0.20978463,0.0,0.0,-0.5662226,1,0,0,0,0,0
97436000,-0.029998042,-0.03237871,0.42332876,0.0,0.9774956,-0.011261161,-0.018976152,0.2097989,0.0,0.0,-0.5645945,1,0,0,0,0,0
97532000,-0.032393433,-0.03240682,0.42332876,0.0,0.9774812,-0.012428941,-0.01924115,0.20977573,0.0,0.0,-0.5647746,1,0,0,0,0,0
97648000,-0.029578244,-0.03263436,0.42332876,0.0,0.97749627,-0.011029109,-0.019057052,0.20980057,0.0,0.0,-0.5655285,1,0,0,0,0,0
97744000,-0.029929057,-0.032647148,0.42332876,0.0,0.97749424,-0.011199222,-0.019100102,0.20979713,0.0,0.0,-0.56743336,1,0,0,0,0,0
97844000,-0.029525992,-0.030158723,0.42332876,0.0,0.9775117,-0.011263839,-0.017841717,0.20982301,0.0,0.0,-0.5670672,1,0,0,0,0,0
97940000,-0.029586324,-0.030060614,0.42332876,0.0,0.97751194,-0.01130364,-0.017800102,0.20982333,0.0,0.0,-0.5641149,1,0,0,0,0,0
98036000,-0.02578551,-0.029186526,0.42332876,0.0,0.9775368,-0.009537834,-0.01697413,0.20986365,0.0,0.0,-0.56581455,1,0,0,0,0,0
98132000,-0.026636947,-0.030150533,0.42332876,0.0,0.977527,-0.009852652,-0.017534604,0.20984864,0.0,0.0,-0.56565404,1,0,0,0,0,0
98248000,-0.026372142,-0.030214535,0.42332876,0.0,0.9775279,-0.009716496,-0.017538097,0.20985043,0.0,0.0,-0.56553996,1,0,0,0,0,0
98344000,-0.026223939,-0.031433854,0.42332876,0.0,0.97752106,-0.009515886,-0.018118452,0.20984194,0.0,0.0,-0.56518793,1,0,0,0,0,0
98444000,-0.026346346,-0.030624045,0.42332876,0.0,0.9775256,-0.009660841,-0.017735526,0.20984739,0.0,0.0,-0.56456256,1,0,0,0,0,0
98540000,-0.025151724,-0.028452996,0.42332876,0.0,0.97754395,-0.009305162,-0.016549123,0.20987464,0.0,0.0,-0.5661705,1,0,0,0,0,0
98636000,-0.023489427,-0.027330985,0.42332876,0.0,0.97755766,-0.008610605,-0.015826305,0.20989643,0.0,0.0,-0.5645819,1,0,0,0,0,0
98732000,-0.021963483,-0.02711474,0.42332876,0.0,0.9775651,-0.007887482,-0.015560468,0.20990993,0.0,0.0,-0.56507784,1,0,0,0,0,0
98828000,-0.020031866,-0.027190851,0.42332876,0.0,0.9775718,-0.006935339,-0.015394927,0.20992437,0.0,0.0,-0.56343055,1,0,0,0,0,0
98944000,-0.018485397,-0.027518423,0.42332876,0.0,0.97757506,-0.0061450195,-0.015392705,0.2099342,0.0,0.0,-0.5640605,1,0,0,0,0,0
99044000,-0.01847135,-0.027949367,0.42332876,0.0,0.97757256,-0.0060928646,-0.015601858,0.20993179,0.0,0.0,-0.5634234,1,0,0,0,0,0
99140000,-0.016021064,-0.028233021,0.42332876,0.0,0.97757757,-0.0048653856,-0.015483292,0.20994918,0.0,0.0,-0.56344306,1,0,0,0,0,0
99236000,-0.01800593,-0.02713379,0.42332876,0.0,0.97757864,-0.0059510823,-0.015154383,0.20994018,0.0,0.0,-0.5647113,1,0,0,0,0,0
99332000,-0.016044516,-0.025695037,0.42332876,0.0,0.9775921,-0.005143549,-0.014245264,0.20996256,0.0,0.0,-0.5657798,1,0,0,0,0,0
99448000,-0.016821358,-0.026755987,0.42332876,0.0,0.9775842,-0.0054117776,-0.014845377,0.20995118,0.0,0.0,-0.5646846,1,0,0,0,0,0
99544000,-0.013058568,-0.024830107,0.42332876,0.0,0.97760344,-0.0037749063,-0.013509015,0.2099875,0.0,0.0,-0.5657538,1,0,0,0,0,0
99644000,-0.015422791,-0.026132863,0.42332876,0.0,0.9775913,-0.004793646,-0.014393992,0.20996475,0.0,0.0,-0.5630042,1,0,0,0,0,0
99740000,-0.013668167,-0.025344487,0.42332876,0.0,0.9775995,-0.0040188306,-0.01382444,0.20998101,0.0,0.0,-0.56254894,1,0,0,0,0,0
99836000,-0.014770918,-0.025958775,0.42332876,0.0,0.9775938,-0.004493305,-0.014240465,0.20997028,0.0,0.0,-0.56279707,1,0,0,0,0,0
99932000,-0.0136565175,-0.024791338,0.42332876,0.0,0.9776025,-0.004071258,-0.013552847,0.20998365,0.0,0.0,-0.5633746,1,0,0,0,0,0
100048000,-0.013934686,-0.026875868,0.42332876,0.0,0.97759026,-0.0039881924,-0.014600927,0.20997183,0.0,0.0,-0.56206477,1,0,0,0,0,0
100144000,-0.014472368,-0.025804698,0.42332876,0.0,0.97759527,-0.0043635657,-0.014133815,0.20997317,0.0,0.0,-0.5626286,1,0,0,0,0,0
100244000,-0.0137419235,-0.026958909,0.42332876,0.0,0.9775902,-0.0038852454,-0.014621278,0.20997283,0.0,0.0,-0.5635848,1,0,0,0,0,0
100340000,-0.01329297,-0.02812135,0.42332876,0.0,0.977584,-0.0035436545,-0.015142315,0.20997068,0.0,0.0,-0.56212455,1,0,0,0,0,0
100436000,-0.013233984,-0.027021663,0.42332876,0.0,0.97759074,-0.0036303734,-0.014598625,0.20997629,0.0,0.0,-0.56264555,1,0,0,0,0,0
100532000,-0.012423865,-0.025573956,0.42332876,0.0,0.9776005,-0.0033865042,-0.013805957,0.20998853,0.0,0.0,-0.5612636,1,0,0,0,0,0
100648000,-0.014152913,-0.02705462,0.42332876,0.0,0.97758883,-0.004076078,-0.014711206,0.20996936,0.0,0.0,-0.5634741,1,0,0,0,0,0
100744000,-0.012889197,-0.027891459,0.42332876,0.0,0.97758615,-0.0033704485,-0.01498756,0.20997477,0.0,0.0,-0.56395257,1,0,0,0,0,0
100844000,-0.014216709,-0.02705921,0.42332876,0.0,0.97758865,-0.0041067787,-0.0147201475,0.20996885,0.0,0.0,-0.56296283,1,0,0,0,0,0
100940000,-0.013048167,-0.025830954,0.42332876,0.0,0.97759795,-0.0036646596,-0.013997121,0.20998305,0.0,0.0,-0.56401944,1,0,0,0,0,0
101036000,-0.013360734,-0.025289819,0.42332876,0.0,0.9776004,-0.0038743014,-0.01376544,0.20998335,0.0,0.0,-0.56305957,1,0,0,0,0,0
101132000,-0.013958627,-0.02518984,0.42332876,0.0,0.97759974,-0.004177057,-0.013779347,0.20997971,0.0,0.0,-0.56231207,1,0,0,0,0,0
101248000,-0.015225823,-0.024647566,0.42332876,0.0,0.97759974,-0.004853443,-0.013647335,0.20997368,0.0,0.0,-0.56264764,1,0,0,0,0,0
101344000,-0.014717578,-0.025843143,0.42332876,0.0,0.9775945,-0.004479383,-0.014178348,0.20997126,0.0,0.0,-0.56323254,1,0,0,0,0,0
101444000,-0.015350821,-0.025089096,0.42332876,0.0,0.9775971,-0.0048681465,-0.01387627,0.20997058,0.0,0.0,-0.5628699,1,0,0,0,0,0
101540000,-0.0143862255,-0.025812637,0.42332876,0.0,0.9775954,-0.0043206257,-0.01412865,0.20997375,0.0,0.0,-0.5629441,1,0,0,0,0,0
101636000,-0.014511436,-0.024702512,0.42332876,0.0,0.9776012,-0.004498477,-0.013599187,0.20997827,0.0,0.0,-0.56220704,1,0,0,0,0,0
101732000,-0.012236335,-0.025934426,0.42332876,0.0,0.9775988,-0.0032569654,-0.01396246,0.20998825,0.0,0.0,-0.5608594,1,0,0,0,0,0
101848000,-0.0113478545,-0.026266262,0.42332876,0.0,0.9775982,-0.0027878096,-0.014031369,0.20999308,0.0,0.0,-0.5627688,1,0,0,0,0,0
101944000,-0.010406444,-0.025711045,0.42332876,0.0,0.97760266,-0.0023859837,-0.013661139,0.2100018,0.0,0.0,-0.56351787,1,0,0,0,0,0
102044000,-0.01339656,-0.025939181,0.42332876,0.0,0.9775967,-0.003823582,-0.0140865985,0.2099801,0.0,0.0,-0.563194,1,0,0,0,0,0
102140000,-0.0128186,-0.026228746,0.42332876,0.0,0.9775961,-0.0035106507,-0.014167451,0.20998287,0.0,0.0,-0.56246626,1,0,0,0,0,0
102236000,-0.011525666,-0.026862318,0.42332876,0.0,0.9775945,-0.0028120964,-0.014341381,0.20998931,0.0,0.0,-0.5617917,1,0,0,0,0,0
102332000,-0.011935726,-0.026312238,0.42332876,0.0,0.9775971,-0.0030703305,-0.014115565,0.20998874,0.0,0.0,-0.5639574,1,0,0,0,0,0
102448000,-0.008838895,-0.04693286,0.49864522,0.0,0.9688291,0.0015080923,-0.023828715,0.24657676,0.0,0.0,-0.5537445,1,0,0,0,0,0
102544000,0.0013711257,-0.108582474,0.57404345,0.0,0.95766735,0.016018685,-0.051850867,0.28271556,0.0,0.0,-0.5645185,1,0,0,0,0,0
102644000,0.0021225123,-0.20332932,0.6057236,0.0,0.94952583,0.031277288,-0.09655556,0.29681563,0.0,0.0,-0.56535196,1,0,0,0,0,0
102740000,-0.008052096,-0.29719272,0.6057193,0.0,0.94413906,0.04035526,-0.14249834,0.29439282,0.0,0.0,-0.57051706,1,0,0,0,0,0
102836000,-0.018012874,-0.36588362,0.6056409,0.0,0.93902177,0.04579665,-0.17627938,0.29166138,0.0,0.0,-0.5731824,1,0,0,0,0,0
102932000,-0.018628297,-0.41050807,0.6055674,0.0,0.93499976,0.052067153,-0.19725482,0.29009482,0.0,0.0,-0.58032477,1,0,0,0,0,0
103048000,-0.019141084,-0.4504516,0.6054505,0.0,0.9310143,0.057671152,-0.21594262,0.28853974,0.0,0.0,-0.59260833,1,0,0,0,0,0
103144000,-0.01599804,-0.46451828,0.60540843,0.0,0.92942274,0.06118379,-0.22202478,0.28833142,0.0,0.0,-0.60295194,1,0,0,0,0,0
103244000,-0.014443301,-0.47190425,0.605357,0.0,0.92857224,0.06297723,-0.2252292,0.28819996,0.0,0.0,-0.6063908,1,0,0,0,0,0
103340000,-0.011991535,-0.48991558,0.60540056,0.0,0.92645663,0.066739954,-0.23321922,0.28780672,0.0,0.0,-0.61338,1,0,0,0,0,0
103436000,-0.008994435,-0.5097285,0.60544044,0.0,0.92402416,0.071004875,-0.2419451,0.28740278,0.0,0.0,-0.6204867,1,0,0,0,0,0
103532000,-0.00927838,-0.5305402,0.60545343,0.0,0.9214921,0.07388499,-0.2515803,0.28653216,0.0,0.0,-0.62531364,1,0,0,0,0,0
103648000,-0.009719746,-0.56573415,0.60553503,0.0,0.9169754,0.078764796,-0.26780286,0.2850156,0.0,0.0,-0.6383749,1,0,0,0,0,0
103744000,-0.00984527,-0.58409417,0.6056088,0.0,0.91449845,0.08135447,-0.27621675,0.2842152,0.0,0.0,-0.6452876,1,0,0,0,0,0
103844000,-0.0058838525,-0.5950711,0.60575366,0.0,0.9127975,0.08475649,-0.28065845,0.28433755,0.0,0.0,-0.6494498,1,0,0,0,0,0
103940000,-0.0053315344,-0.61230445,0.60589117,0.0,0.91031617,0.08748879,-0.28842446,0.28369272,0.0,0.0,-0.6561561,1,0,0,0,0,0
104036000,-0.004213199,-0.6295765,0.60607654,0.0,0.90772784,0.09048378,-0.2961044,0.28313443,0.0,0.0,-0.6647227,1,0,0,0,0,0
104132000,-0.0022069556,-0.6452426,0.60625863,0.0,0.90527076,0.09364428,-0.3029105,0.28277346,0.0,0.0,-0.6703672,1,0,0,0,0,0
104228000,0.006019755,-0.65716976,0.6064854,0.0,0.90302,0.09908314,-0.30712786,0.28356624,0.0,0.0,-0.67636055,1,0,0,0,0,0
104344000,0.019542715,-0.6631235,0.60676354,0.0,0.90136075,0.106061324,-0.30787915,0.28549984,0.0,0.0,-0.68520314,1,0,0,0,0,0
104444000,0.026922755,-0.65018195,0.60704476,0.0,0.9029386,0.10762605,-0.3009552,0.28730556,0.0,0.0,-0.6872293,1,0,0,0,0,0
104540000,0.027146323,-0.63652956,0.60725933,0.0,0.90498126,0.10585116,-0.2947235,0.28799742,0.0,0.0,-0.6886789,1,0,0,0,0,0
104644000,0.026146669,-0.63755226,0.6074531,0.0,0.90485144,0.10557062,-0.2953212,0.28789595,0.0,0.0,-0.6833573,1,0,0,0,0,0
104744000,0.017354883,-0.594018,0.60758674,0.0,0.91163564,0.095461495,-0.27676746,0.2884569,0.0,0.0,-0.67764693,1,0,0,0,0,0
104840000,0.014185841,-0.5508425,0.6076933,0.0,0.9176296,0.08787704,-0.25744626,0.28974986,0.0,0.0,-0.6808447,1,0,0,0,0,0
104936000,0.010300661,-0.5321976,0.60775083,0.0,0.9201833,0.083426155,-0.24943118,0.2899775,0.0,0.0,-0.679475,1,0,0,0,0,0
105032000,0.010022868,-0.54940027,0.60782117,0.0,0.91797996,0.085776545,-0.2573808,0.2893273,0.0,0.0,-0.6784242,1,0,0,0,0,0
105128000,0.01179613,-0.5913202,0.6078668,0.0,0.9122352,0.09258236,-0.2763235,0.28792486,0.0,0.0,-0.6769591,1,0,0,0,0,0
105244000,0.013551125,-0.61867195,0.6079405,0.0,0.90822935,0.097274,-0.2885316,0.2870658,0.0,0.0,-0.6673475,1,0,0,0,0,0
105344000,0.013887273,-0.60808676,0.6079811,0.0,0.9097422,0.09593281,-0.28366387,0.2875776,0.0,0.0,-0.6701898,1,0,0,0,0,0
105440000,0.014367127,-0.5835626,0.60803795,0.0,0.9131703,0.09267487,-0.27240032,0.28866857,0.0,0.0,-0.675658,1,0,0,0,0,0
105536000,0.016100593,-0.567526,0.6080684,0.0,0.915275,0.091186285,-0.26480743,0.28954068,0.0,0.0,-0.67991245,1,0,0,0,0,0
105632000,0.013660319,-0.56373423,0.60810137,0.0,0.91588926,0.089532234,-0.26342094,0.289379,0.0,0.0,-0.6809337,1,0,0,0,0,0
105748000,0.011334762,-0.57913226,0.6080987,0.0,0.91391027,0.09066658,-0.27080896,0.28846157,0.0,0.0,-0.67950463,1,0,0,0,0,0
105844000,0.0131164,-0.59106356,0.6081086,0.0,0.912175,0.0931814,-0.27600488,0.28822786,0.0,0.0,-0.67737365,1,0,0,0,0,0
105944000,0.012557518,-0.596769,0.60809,0.0,0.9114021,0.093735576,-0.2786905,0.28790873,0.0,0.0,-0.6743828,1,0,0,0,0,0
106040000,0.012947849,-0.5889173,0.60809666,0.0,0.9124842,0.09279742,-0.27504945,0.28828627,0.0,0.0,-0.6763022,1,0,0,0,0,0
106136000,0.013420576,-0.58104205,0.6080801,0.0,0.9135555,0.09188933,-0.27138245,0.28865942,0.0,0.0,-0.6796644,1,0,0,0,0,0
106232000,0.012535354,-0.573547,0.6080681,0.0,0.91462237,0.09041425,-0.26808104,0.2888317,0.0,0.0,-0.6805815,1,0,0,0,0,0
106328000,0.013063272,-0.5754877,0.6080396,0.0,0.91433847,0.09092872,-0.26889452,0.28881294,0.0,0.0,-0.68092483,1,0,0,0,0,0
106444000,0.011943213,-0.58389306,0.60801375,0.0,0.91323966,0.09161188,-0.27290216,0.28831384,0.0,0.0,-0.6804041,1,0,0,0,0,0
106544000,0.010955226,-0.58563983,0.60796946,0.0,0.9130497,0.09140371,-0.27384496,0.28808782,0.0,0.0,-0.6790639,1,0,0,0,0,0
106640000,0.009582073,-0.5879471,0.60793537,0.0,0.9127972,0.09110115,-0.2750984,0.28778934,0.0,0.0,-0.67950505,1,0,0,0,0,0
106736000,0.010175982,-0.58890796,0.60787755,0.0,0.91264486,0.09150118,-0.2754545,0.28780517,0.0,0.0,-0.67883426,1,0,0,0,0,0
106832000,0.010792082,-0.5823381,0.60784143,0.0,0.9135316,0.09084101,-0.27236503,0.2881411,0.0,0.0,-0.6822474,1,0,0,0,0,0
106948000,0.011090196,-0.58289874,0.60779166,0.0,0.9134479,0.09105031,-0.27258065,0.2881363,0.0,0.0,-0.6845156,1,0,0,0,0,0
107044000,0.0111838365,-0.58194965,0.6077704,0.0,0.9135775,0.0909549,-0.2721342,0.2881777,0.0,0.0,-0.68508685,1,0,0,0,0,0
107144000,0.0097456295,-0.58366454,0.60772943,0.0,0.91341233,0.09053694,-0.27312723,0.2878933,0.0,0.0,-0.68264914,1,0,0,0,0,0
107240000,0.009040956,-0.5844263,0.60771626,0.0,0.9133409,0.09032197,-0.27357742,0.2877598,0.0,0.0,-0.6840318,1,0,0,0,0,0
107336000,0.008667903,-0.5860903,0.60767764,0.0,0.91313326,0.090383664,-0.27439332,0.28762263,0.0,0.0,-0.68295324,1,0,0,0,0,0
107432000,0.0097824745,-0.5842564,0.60764277,0.0,0.91334146,0.09062632,-0.2733964,0.28783464,0.0,0.0,-0.6848537,1,0,0,0,0,0
107548000,0.0086284075,-0.58722556,0.6075858,0.0,0.9129909,0.0905149,-0.2749218,0.2875284,0.0,0.0,-0.68607485,1,0,0,0,0,0
107644000,0.008121746,-0.5845927,0.6075577,0.0,0.9133822,0.089904204,-0.27379277,0.28755477,0.0,0.0,-0.6877324,1,0,0,0,0,0
107744000,0.008192403,-0.58290005,0.6075094,0.0,0.9136193,0.0896884,-0.27301115,0.28761205,0.0,0.0,-0.6866103,1,0,0,0,0,0
107840000,0.008533838,-0.58268094,0.60750645,0.0,0.9136346,0.08981269,-0.272862,0.28766626,0.0,0.0,-0.68572646,1,0,0,0,0,0
107936000,0.009302597,-0.5840385,0.6074897,0.0,0.9134152,0.090355165,-0.27337277,0.287708,0.0,0.0,-0.6873698,1,0,0,0,0,0
108032000,0.010133912,-0.5845215,0.60748965,0.0,0.9133109,0.09080365,-0.27347395,0.2878019,0.0,0.0,-0.6868627,1,0,0,0,0,0
108148000,0.008052039,-0.5888677,0.6074681,0.0,0.91280586,0.09046973,-0.27576017,0.2873273,0.0,0.0,-0.68871665,1,0,0,0,0,0
108244000,0.007511082,-0.58702725,0.60748076,0.0,0.913084,0.0899621,-0.27499652,0.2873351,0.0,0.0,-0.68884975,1,0,0,0,0,0
108344000,0.006898924,-0.58163553,0.60746783,0.0,0.9138569,0.08891125,-0.27262083,0.2874687,0.0,0.0,-0.6898612,1,0,0,0,0,0
108440000,0.007482247,-0.58688307,0.6074227,0.0,0.91311353,0.089920394,-0.27493745,0.2873106,0.0,0.0,-0.6864386,1,0,0,0,0,0
108536000,0.008133171,-0.5893444,0.60745287,0.0,0.91273814,0.09057259,-0.27596688,0.2873118,0.0,0.0,-0.68879503,1,0,0,0,0,0
108632000,0.009226362,-0.5912813,0.60748506,0.0,0.9124138,0.09135181,-0.2766929,0.28739703,0.0,0.0,-0.6906493,1,0,0,0,0,0
108748000,0.007935132,-0.59724134,0.60756075,0.0,0.9116258,0.091622226,-0.2795949,0.28700268,0.0,0.0,-0.69178736,1,0,0,0,0,0
108844000,0.008006232,-0.59634167,0.6076098,0.0,0.91174215,0.09153338,-0.279172,0.2870729,0.0,0.0,-0.69349843,1,0,0,0,0,0
108944000,0.00902532,-0.59417576,0.6077251,0.0,0.91198325,0.09170562,-0.27803212,0.2873582,0.0,0.0,-0.6930284,1,0,0,0,0,0
109040000,0.008606398,-0.59378546,0.6078141,0.0,0.91204447,0.09147135,-0.27791008,0.2873569,0.0,0.0,-0.69195503,1,0,0,0,0,0
109136000,0.0096664345,-0.5919027,0.60795397,0.0,0.9122394,0.09170596,-0.2768919,0.28764609,0.0,0.0,-0.6944062,1,0,0,0,0,0
109232000,0.009739953,-0.5928844,0.6080729,0.0,0.91208154,0.091895826,-0.27732396,0.2876698,0.0,0.0,-0.69291383,1,0,0,0,0,0
109328000,0.008374936,-0.5957642,0.60817534,0.0,0.9117253,0.09169808,-0.27882975,0.28740644,0.0,0.0,-0.69169456,1,0,0,0,0,0
109444000,0.008170972,-0.59701,0.60824513,0.0,0.91154927,0.09179242,-0.27942416,0.28735733,0.0,0.0,-0.69351846,1,0,0,0,0,0
109544000,0.010121825,-0.5894643,0.60840887,0.0,0.91249335,0.091628976,-0.27569208,0.2880172,0.0,0.0,-0.69536376,1,0,0,0,0,0
109640000,0.009921557,-0.58913165,0.6085539,0.0,0.9125279,0.09151014,-0.27556238,0.28806955,0.0,0.0,-0.6942452,1,0,0,0,0,0
109736000,0.010154304,-0.5906503,0.6087647,0.0,0.91227525,0.09186205,-0.27621263,0.28813517,0.0,0.0,-0.6945268,1,0,0,0,0,0
109832000,0.008692578,-0.5907986,0.6089445,0.0,0.9122955,0.09124129,-0.27648267,0.28800905,0.0,0.0,-0.69502443,1,0,0,0,0,0
109948000,0.010248613,-0.59774166,0.6091746,0.0,0.91121644,0.09297337,-0.27941608,0.28804046,0.0,0.0,-0.6951996,1,0,0,0,0,0
110044000,0.010196618,-0.59929496,0.6093378,0.0,0.9109758,0.09319395,-0.28012422,0.2880425,0.0,0.0,-0.6940825,1,0,0,0,0,0
110144000,0.010099628,-0.5936179,0.6095809,0.0,0.911745,0.09237364,-0.2775375,0.2883768,0.0,0.0,-0.6947006,1,0,0,0,0,0
110240000,0.009565901,-0.59160477,0.6097548,0.0,0.9120262,0.091866836,-0.27668774,0.28846586,0.0,0.0,-0.6949017,1,0,0,0,0,0
110336000,0.009845565,-0.5900496,0.60996366,0.0,0.91220033,0.091800936,-0.27592784,0.28866425,0.0,0.0,-0.69583416,1,0,0,0,0,0
110432000,0.010441178,-0.59109414,0.61013097,0.0,0.912003,0.09224499,-0.276311,0.2887796,0.0,0.0,-0.6951381,1,0,0,0,0,0
110528000,0.010276391,-0.5943625,0.61037624,0.0,0.91151756,0.09267099,-0.27781492,0.28873286,0.0,0.0,-0.6933031,1,0,0,0,0,0
110644000,0.009165095,-0.5921459,0.6106424,0.0,0.911841,0.09188431,-0.27695173,0.28879252,0.0,0.0,-0.6966794,1,0,0,0,0,0
110744000,0.01370587,-0.5664824,0.6110196,0.0,0.9150959,0.09033175,-0.2645427,0.29061446,0.0,0.0,-0.6866451,1,0,0,0,0,0
110840000,0.013453051,-0.5307187,0.61133194,0.0,0.9197159,0.08510866,-0.24814063,0.2920711,0.0,0.0,-0.6856709,1,0,0,0,0,0
110936000,0.010701166,-0.4966665,0.61166656,0.0,0.92393416,0.07894868,-0.23281828,0.29310146,0.0,0.0,-0.6844968,1,0,0,0,0,0
111032000,0.009517523,-0.48092884,0.6119034,0.0,0.92577255,0.07613849,-0.22569937,0.29361194,0.0,0.0,-0.677517,1,0,0,0,0,0
111148000,0.0050791977,-0.47239086,0.612209,0.0,0.9268586,0.07287079,-0.22238281,0.29354542,0.0,0.0,-0.66848093,1,0,0,0,0,0
111248000,0.00020571929,-0.46865863,0.61237437,0.0,0.92742395,0.07008355,-0.2213613,0.29321027,0.0,0.0,-0.664555,1,0,0,0,0,0
111344000,-0.002954702,-0.46171263,0.61261994,0.0,0.9282594,0.067624986,-0.2185941,0.29322013,0.0,0.0,-0.657198,1,0,0,0,0,0
111440000,-0.0051873727,-0.4442939,0.6127783,0.0,0.9301692,0.064041406,-0.21082594,0.29366037,0.0,0.0,-0.6570429,1,0,0,0,0,0
111536000,-0.0029992904,-0.4328564,0.6130873,0.0,0.9312367,0.063405365,-0.20517345,0.29441792,0.0,0.0,-0.6550645,1,0,0,0,0,0
111632000,0.0046930616,-0.4278097,0.6133839,0.0,0.93145746,0.06627381,-0.20167911,0.29550004,0.0,0.0,-0.653246,1,0,0,0,0,0
111728000,0.0106180515,-0.42309844,0.6137455,0.0,0.93168133,0.06837625,-0.19859461,0.29640317,0.0,0.0,-0.6485526,1,0,0,0,0,0
111844000,0.0052364096,-0.40755522,0.61406946,0.0,0.9333474,0.06360694,-0.19213055,0.296484,0.0,0.0,-0.64393556,1,0,0,0,0,0
111944000,0.00047067614,-0.3913035,0.6144094,0.0,0.93498313,0.059007484,-0.18523449,0.29666966,0.0,0.0,-0.6418128,1,0,0,0,0,0
112040000,-0.005965856,-0.37665698,0.6145529,0.0,0.9364724,0.053833228,-0.17933357,0.29658216,0.0,0.0,-0.6400795,1,0,0,0,0,0
112136000,-0.009453929,-0.3648759,0.6147819,0.0,0.93755746,0.05046385,-0.17432797,0.2967308,0.0,0.0,-0.6396738,1,0,0,0,0,0
112232000,-0.0077821473,-0.3635228,0.6149223,0.0,0.9376101,0.051057927,-0.17344226,0.29698178,0.0,0.0,-0.6295153,1,0,0,0,0,0
112348000,-0.0006313821,-0.36128378,0.6151909,0.0,0.93757373,0.0540996,-0.17132255,0.29778734,0.0,0.0,-0.6346,1,0,0,0,0,0
112444000,0.0008589528,-0.35773873,0.6153536,0.0,0.93781126,0.054284133,-0.16943406,0.29808637,0.0,0.0,-0.6240101,1,0,0,0,0,0
112544000,-0.0018320091,-0.3354836,0.61562276,0.0,0.9396689,0.049722627,-0.15938273,0.2985753,0.0,0.0,-0.62828124,1,0,0,0,0,0
112640000,-0.008721175,-0.32175085,0.61568654,0.0,0.9408865,0.044433523,-0.15395485,0.29842293,0.0,0.0,-0.62288463,1,0,0,0,0,0
112736000,-0.012334203,-0.30620438,0.615879,0.0,0.94208026,0.04041444,-0.14717552,0.29864836,0.0,0.0,-0.6252378,1,0,0,0,0,0
112832000,-0.009788598,-0.30796036,0.6159602,0.0,0.9418892,0.04188309,-0.14762022,0.29882896,0.0,0.0,-0.61867476,1,0,0,0,0,0
112928000,-0.005372899,-0.30731982,0.6161641,0.0,0.9418105,0.043881413,-0.14665407,0.29926583,0.0,0.0,-0.6170578,1,0,0,0,0,0
113044000,-0.0044228253,-0.29508412,0.61634016,0.0,0.94263375,0.042505153,-0.14074498,0.2997095,0.0,0.0,-0.6145522,1,0,0,0,0,0
113144000,-0.007602952,-0.27862975,0.6166094,0.0,0.94377095,0.038550172,-0.1334585,0.29999858,0.0,0.0,-0.6127223,1,0,0,0,0,0
113240000,-0.013178085,-0.26751658,0.6166897,0.0,0.9445723,0.034249257,-0.1290492,0.29992735,0.0,0.0,-0.60992724,1,0,0,0,0,0
113336000,-0.009227827,-0.26261464,0.6168577,0.0,0.9447828,0.035386708,-0.12613915,0.30037007,0.0,0.0,-0.6122773,1,0,0,0,0,0
113432000,-0.008812269,-0.2627398,0.6168839,0.0,0.94476384,0.03560353,-0.12613536,0.30040586,0.0,0.0,-0.6052127,1,0,0,0,0,0
113548000,-0.011387243,-0.24865697,0.6169853,0.0,0.9456369,0.03226824,-0.11986773,0.30060154,0.0,0.0,-0.6048725,1,0,0,0,0,0
113644000,-0.018877696,-0.23651445,0.61689436,0.0,0.9464475,0.0268848,-0.115254134,0.3003847,0.0,0.0,-0.60405064,1,0,0,0,0,0
113744000,-0.013814962,-0.23598245,0.61638427,0.0,0.9464823,0.029170988,-0.11424923,0.30044538,0.0,0.0,-0.6026637,1,0,0,0,0,0
113840000,-0.013203224,-0.23243973,0.616356,0.0,0.94667125,0.028923973,-0.112481855,0.3005408,0.0,0.0,-0.60069275,1,0,0,0,0,0
113936000,-0.01575941,-0.22316535,0.6162064,0.0,0.9472211,0.026304528,-0.10847915,0.30052033,0.0,0.0,-0.5965238,1,0,0,0,0,0
114032000,-0.015676806,-0.21454524,0.6163789,0.0,0.94763243,0.025049968,-0.10438328,0.30078134,0.0,0.0,-0.5997996,1,0,0,0,0,0
114148000,-0.01509918,-0.21110268,0.6163721,0.0,0.9477964,0.024802836,-0.10266606,0.300876,0.0,0.0,-0.5969913,1,0,0,0,0,0
114244000,-0.014746905,-0.20573705,0.61679906,0.0,0.9479878,0.02417984,-0.10006606,0.30119988,0.0,0.0,-0.594805,1,0,0,0,0,0
114344000,-0.015793996,-0.19894129,0.6170294,0.0,0.94828445,0.022666046,-0.09700103,0.30138627,0.0,0.0,-0.59564996,1,0,0,0,0,0
114440000,-0.015669374,-0.1912003,0.6176056,0.0,0.94854605,0.021579575,-0.093306825,0.30180877,0.0,0.0,-0.59474283,1,0,0,0,0,0
114536000,-0.012404802,-0.18358181,0.61794823,0.0,0.9487902,0.02198842,-0.089197904,0.30225396,0.0,0.0,-0.59181356,1,0,0,0,0,0
114632000,-0.0091743115,-0.1784193,0.6188027,0.0,0.9488427,0.022775065,-0.08625126,0.3028852,0.0,0.0,-0.58952326,1,0,0,0,0,0
114748000,-0.015649067,-0.17279461,0.6195933,0.0,0.94902,0.01888177,-0.08455606,0.30307558,0.0,0.0,-0.5886851,1,0,0,0,0,0
114844000,-0.013623746,-0.16775665,0.620525,0.0,0.9490578,0.01911439,-0.08185034,0.30368474,0.0,0.0,-0.58706284,1,0,0,0,0,0
114944000,-0.01087579,-0.16213517,0.62107146,0.0,0.9491635,0.019583458,-0.07876065,0.30414146,0.0,0.0,-0.588561,1,0,0,0,0,0
115040000,-0.012838228,-0.15363804,0.6220435,0.0,0.94934493,0.017392373,-0.07501858,0.30465373,0.0,0.0,-0.58511126,1,0,0,0,0,0
115136000,-0.016025733,-0.14970024,0.6226023,0.0,0.94942355,0.01529797,-0.07363113,0.30485964,0.0,0.0,-0.5893176,1,0,0,0,0,0
115232000,-0.014022587,-0.14780444,0.62334275,0.0,0.9493598,0.015985696,-0.07242017,0.30531266,0.0,0.0,-0.5849185,1,0,0,0,0,0
115348000,-0.011193236,-0.13963886,0.62383604,0.0,0.9495328,0.016095214,-0.06810871,0.3057606,0.0,0.0,-0.583753,1,0,0,0,0,0
115444000,-0.013865169,-0.13517049,0.62455684,0.0,0.9495845,0.014165573,-0.066391066,0.3060734,0.0,0.0,-0.58219826,1,0,0,0,0,0
115544000,-0.015440203,-0.12916611,0.62475824,0.0,0.9497461,0.012502405,-0.06378063,0.30619955,0.0,0.0,-0.5809631,1,0,0,0,0,0
115640000,-0.014339112,-0.12535575,0.6252607,0.0,0.94977313,0.012455674,-0.061799914,0.3065234,0.0,0.0,-0.58092135,1,0,0,0,0,0
115736000,-0.014934181,-0.123098,0.6253276,0.0,0.94983065,0.0118280975,-0.060818817,0.30656633,0.0,0.0,-0.5807901,1,0,0,0,0,0
115832000,-0.01515091,-0.12095646,0.6257308,0.0,0.94982976,0.01140802,-0.059832953,0.30677903,0.0,0.0,-0.577558,1,0,0,0,0,0
115948000,-0.016746102,-0.11346732,0.6258334,0.0,0.9500218,0.009501083,-0.05652115,0.30687726,0.0,0.0,-0.57768995,1,0,0,0,0,0
116044000,-0.014457569,-0.10718013,0.62635934,0.0,0.9500875,0.009634737,-0.053181514,0.3072665,0.0,0.0,-0.57742286,1,0,0,0,0,0
116144000,-0.015114232,-0.10220539,0.62644774,0.0,0.950195,0.008558858,-0.050919242,0.30734897,0.0,0.0,-0.578956,1,0,0,0,0,0
116240000,-0.0143070165,-0.10224093,0.6271197,0.0,0.95008737,0.00896491,-0.050809067,0.30768836,0.0,0.0,-0.5747583,1,0,0,0,0,0
116336000,-0.014753351,-0.10009736,0.62728316,0.0,0.9501133,0.008426419,-0.049858972,0.3077789,0.0,0.0,-0.5785843,1,0,0,0,0,0
116432000,-0.01552331,-0.099380985,0.62829214,0.0,0.94997716,0.007975184,-0.0496332,0.30824712,0.0,0.0,-0.5738945,1,0,0,0,0,0
116548000,-0.015621832,-0.0932408,0.6291286,0.0,0.9499817,0.0069992887,-0.04672945,0.30871046,0.0,0.0,-0.57220167,1,0,0,0,0,0
116644000,-0.014930675,-0.08758872,0.6268144,0.0,0.95045084,0.006402367,-0.043945946,0.3076866,0.0,0.0,-0.5761404,1,0,0,0,0,0
116744000,-0.015630899,-0.08477396,0.629956,0.0,0.95002276,0.005702761,-0.042707365,0.30919293,0.0,0.0,-0.57161444,1,0,0,0,0,0
116840000,-0.00018598765,-0.07236791,0.7053542,0.0,0.93783826,0.0124084065,-0.03398157,0.3451821,0.0,0.0,-0.57253635,1,0,0,0,0,0
116936000,0.041182198,-0.039212793,0.7807524,0.0,0.9242386,0.026495827,-0.010292722,0.3807559,0.0,0.0,-0.56975496,1,0,0,0,0,0
117032000,0.10785104,0.00645715,0.8561506,0.0,0.90851146,0.047697302,0.025307601,0.41435668,0.0,0.0,-0.57027745,1,0,0,0,0,0
117148000,0.19269241,0.050307322,0.9472568,0.0,0.88661534,0.074162036,0.06614199,0.45170617,0.0,0.0,-0.5722003,1,0,0,0,0,0
117244000,0.2191573,0.053957332,1.022655,0.0,0.8679932,0.08221639,0.07687802,0.48365077,0.0,0.0,-0.5700777,1,0,0,0,0,0
117344000,0.20599325,0.036950123,1.1011951,0.0,0.84854484,0.077990584,0.06944342,0.51871645,0.0,0.0,-0.5691064,1,0,0,0,0,0
117440000,0.20009382,0.019180274,1.1765935,0.0,0.8282207,0.077789836,0.0633633,0.5513477,0.0,0.0,-0.57358384,1,0,0,0,0,0
117536000,0.20093635,0.0029899082,1.251992,0.0,0.80638045,0.08040892,0.059971094,0.58282804,0.0,0.0,-0.57630706,1,0,0,0,0,0
117632000,0.20901287,-0.010084842,1.3273904,0.0,0.7830896,0.08526046,0.06031102,0.61307746,0.0,0.0,-0.57738644,1,0,0,0,0,0
117748000,0.22627036,-0.026672196,1.4184968,0.0,0.7529527,0.0942917,0.063462086,0.6481851,0.0,0.0,-0.5808724,1,0,0,0,0,0
117844000,0.2344836,-0.040341426,1.4938953,0.0,0.72697765,0.09942266,0.06475783,0.676332,0.0,0.0,-0.5831898,1,0,0,0,0,0
117944000,0.23455435,-0.05312946,1.5724354,0.0,0.69922686,0.101308666,0.06413849,0.7047727,0.0,0.0,-0.5854259,1,0,0,0,0,0
118040000,0.23962618,-0.07113787,1.6478338,0.0,0.67093617,0.10705766,0.063669115,0.7309785,0.0,0.0,-0.5878249,1,0,0,0,0,0
118136000,0.2439569,-0.091037646,1.7232323,0.0,0.64150196,0.11343044,0.06283193,0.7560826,0.0,0.0,-0.5888449,1,0,0,0,0,0
118232000,0.24612221,-0.11094095,1.7986307,0.0,0.61116344,0.1193288,0.061721683,0.78001946,0.0,0.0,-0.5932176,1,0,0,0,0,0
118348000,0.24906226,-0.13463357,1.8897371,0.0,0.5732249,0.12669477,0.061331335,0.80721754,0.0,0.0,-0.59388393,1,0,0,0,0,0
118444000,0.23971045,-0.15063122,1.9651356,0.0,0.54186094,0.12830767,0.05773728,0.82860744,0.0,0.0,-0.59404874,1,0,0,0,0,0
118544000,0.21863158,-0.16113377,2.0436757,0.0,0.5095118,0.124987595,0.05102274,0.84980726,0.0,0.0,-0.59687954,1,0,0,0,0,0
118640000,0.19771567,-0.16748698,2.119074,0.0,0.47798085,0.120714396,0.045048803,0.86886877,0.0,0.0,-0.5993776,1,0,0,0,0,0
118736000,0.17833772,-0.17293695,2.1944726,0.0,0.44570428,0.11701197,0.039725665,0.88661027,0.0,0.0,-0.59931386,1,0,0,0,0,0
118832000,0.15670988,-0.17831141,2.269871,0.0,0.41290608,0.11338126,0.03319927,0.9030787,0.0,0.0,-0.59978753,1,0,0,0,0,0
118948000,0.13235089,-0.17768759,2.3609774,0.0,0.3727168,0.106934756,0.027228367,0.9213608,0.0,0.0,-0.5978913,1,0,0,0,0,0
119044000,0.107615374,-0.17203405,2.4363759,0.0,0.33923596,0.09901331,0.020660046,0.9352478,0.0,0.0,-0.5947442,1,0,0,0,0,0
119144000,0.07751404,-0.16115452,2.514916,0.0,0.30403844,0.088418104,0.0119497795,0.9484725,0.0,0.0,-0.5934909,1,0,0,0,0,0
119240000,0.04557733,-0.15367068,2.5903144,0.0,0.2696055,0.08002638,0.0009761706,0.9596394,0.0,0.0,-0.5921122,1,0,0,0,0,0
119336000,0.024138503,-0.15096456,2.6657128,0.0,0.23412834,0.0761172,-0.0060775424,0.96920234,0.0,0.0,-0.5884108,1,0,0,0,0,0
119432000,0.009495874,-0.1524802,2.7411113,0.0,0.1979708,0.07558516,-0.010510161,0.9772328,0.0,0.0,-0.58914465,1,0,0,0,0,0
119548000,-0.0008845324,-0.15231162,2.8322177,0.0,0.15365799,0.07510582,-0.012157804,0.98519063,0.0,0.0,-0.58619934,1,0,0,0,0,0
119644000,-0.0077458587,-0.15504177,2.9076161,0.0,0.11666806,0.07646265,-0.012874129,0.9901395,0.0,0.0,-0.5851968,1,0,0,0,0,0
119744000,-0.014826611,-0.1543237,2.9861562,0.0,0.077976584,0.07627666,-0.013353608,0.9939432,0.0,0.0,-0.5832527,1,0,0,0,0,0
119840000,-0.024081942,-0.15330532,3.0615547,0.0,0.040809248,0.07603045,-0.015059231,0.9961562,0.0,0.0,-0.5830775,1,0,0,0,0,0
119936000,-0.038165864,-0.14710923,3.136953,0.0,0.0037153566,0.073430575,-0.019200569,0.9971086,0.0,0.0,-0.5818645,1,0,0,0,0,0
120032000,-0.04590234,-0.14438374,-3.101763,0.0,-0.01820143,0.0725517,-0.021448875,0.99696785,0.0,0.0,-0.58117145,1,0,0,0,0,0
120148000,-0.041026082,-0.14045125,-3.0954995,0.0,-0.021544019,0.07060605,-0.018838968,0.9970936,0.0,0.0,-0.5797046,1,0,0,0,0,0
120244000,-0.037873305,-0.14027649,-3.0904338,0.0,-0.024182579,0.07052838,-0.017090678,0.99707013,0.0,0.0,-0.58231175,1,0,0,0,0,0
120344000,-0.032394856,-0.13854407,-3.0839624,0.0,-0.027617631,0.06964436,-0.014157219,0.997089,0.0,0.0,-0.5788223,1,0,0,0,0,0
120440000,-0.033116974,-0.1353319,-3.078416,0.0,-0.030387444,0.06809306,-0.014376423,0.9971125,0.0,0.0,-0.58012116,1,0,0,0,0,0
120536000,-0.029159728,-0.12968163,-3.0718005,0.0,-0.033867896,0.06525665,-0.012279446,0.997218,0.0,0.0,-0.5780615,1,0,0,0,0,0
120632000,-0.027231442,-0.1309976,-3.0655544,0.0,-0.03703445,0.06591501,-0.01108869,0.9970761,0.0,0.0,-0.5809131,1,0,0,0,0,0
120748000,-0.022241134,-0.1304729,-3.0574346,0.0,-0.04125026,0.06559526,-0.008344699,0.9969584,0.0,0.0,-0.57693034,1,0,0,0,0,0
120844000,-0.024929408,-0.12996398,-3.0510736,0.0,-0.044336546,0.06542748,-0.009487583,0.9968267,0.0,0.0,-0.57965434,1,0,0,0,0,0
120944000,-0.023332693,-0.12526008,-3.043004,0.0,-0.048445113,0.06308253,-0.0085452385,0.9967952,0.0,0.0,-0.57898813,1,0,0,0,0,0
121040000,-0.024753157,-0.12404415,-3.036339,0.0,-0.051731303,0.062541544,-0.009075189,0.9966594,0.0,0.0,-0.57869595,1,0,0,0,0,0
121136000,-0.017538765,-0.11933225,-3.0286663,0.0,-0.05580853,0.060027406,-0.0053746933,0.9966209,0.0,0.0,-0.57729375,1,0,0,0,0,0
121232000,-0.015973525,-0.12030258,-3.0216544,0.0,-0.05934365,0.06048285,-0.0043551316,0.9963941,0.0,0.0,-0.5794517,1,0,0,0,0,0
121348000,-0.012617846,-0.11312047,-3.012808,0.0,-0.06388773,0.056817118,-0.0026482248,0.99633485,0.0,0.0,-0.5772714,1,0,0,0,0,0
121444000,-0.01217178,-0.110525414,-3.0061,0.0,-0.06725457,0.05551821,-0.0023236114,0.9961873,0.0,0.0,-0.57948405,1,0,0,0,0,0
121544000,-0.007793291,-0.10494141,-2.9975543,0.0,-0.071653515,0.05259028,-0.000107315645,0.9960422,0.0,0.0,-0.57724386,1,0,0,0,0,0
121640000,-0.012114398,-0.10683343,-2.9906685,0.0,-0.07495907,0.053694393,-0.0020061866,0.9957379,0.0,0.0,-0.57798034,1,0,0,0,0,0
121736000,-0.0088051325,-0.103185035,-2.9828756,0.0,-0.0789427,0.05175538,-0.00029470012,0.9955347,0.0,0.0,-0.5752507,1,0,0,0,0,0
121832000,-0.0078041623,-0.102519624,-2.9760072,0.0,-0.082389675,0.051383745,0.00035360656,0.9952746,0.0,0.0,-0.576628,1,0,0,0,0,0
121948000,-0.0012556177,-0.09613308,-2.9671876,0.0,-0.08696137,0.047920063,0.0035598986,0.99505216,0.0,0.0,-0.5768163,1,0,0,0,0,0
122044000,-0.0029336098,-0.09526688,-2.960623,0.0,-0.090189256,0.04755297,0.0028434442,0.9947847,0.0,0.0,-0.5744988,1,0,0,0,0,0
122144000,-0.0007999134,-0.088829,-2.9527857,0.0,-0.09415267,0.04423986,0.0037874978,0.99456716,0.0,0.0,-0.57652515,1,0,0,0,0,0
122240000,-0.0021102831,-0.089767314,-2.946866,0.0,-0.09706447,0.04475853,0.0033125666,0.9942657,0.0,0.0,-0.57455,1,0,0,0,0,0
122336000,0.00041479617,-0.08388236,-2.9401667,0.0,-0.10046304,0.04169559,0.004421814,0.9940569,0.0,0.0,-0.5735977,1,0,0,0,0,0
122432000,-0.0022070892,-0.08369417,-2.9344792,0.0,-0.10323524,0.0417247,0.0032278681,0.9937762,0.0,0.0,-0.5761188,1,0,0,0,0,0
122548000,-0.0016486561,-0.08169676,-2.9273527,0.0,-0.10679256,0.040691,0.0035471795,0.993442,0.0,0.0,-0.5731366,1,0,0,0,0,0
122644000,-0.0031224655,-0.081801645,-2.922463,0.0,-0.10919074,0.040814757,0.0029205068,0.99317825,0.0,0.0,-0.5747242,1,0,0,0,0,0
122744000,-0.00045068256,-0.07723749,-2.9159067,0.0,-0.11251105,0.038388945,0.0041237897,0.9929001,0.0,0.0,-0.5728266,1,0,0,0,0,0
122840000,-0.0011632377,-0.0750815,-2.9110105,0.0,-0.11493309,0.03734962,0.0037401651,0.99266386,0.0,0.0,-0.57372737,1,0,0,0,0,0
122936000,0.0019753254,-0.07243662,-2.9051547,0.0,-0.11790191,0.035841223,0.005250914,0.99236435,0.0,0.0,-0.57479155,1,0,0,0,0,0
123032000,0.00075155695,-0.069852784,-2.9003053,0.0,-0.12029087,0.034620274,0.0045753997,0.9921243,0.0,0.0,-0.57407486,1,0,0,0,0,0
123128000,0.0005961615,-0.06674981,-2.8949869,0.0,-0.122932084,0.03307873,0.0043996936,0.9918539,0.0,0.0,-0.5720893,1,0,0,0,0,0
123244000,-0.002413258,-0.0657758,-2.88991,0.0,-0.12540215,0.03277329,0.0029305555,0.9915602,0.0,0.0,-0.5753495,1,0,0,0,0,0
123344000,0.0010300794,-0.064009964,-2.8844187,0.0,-0.12818356,0.03166931,0.004613915,0.99123394,0.0,0.0,-0.5709082,1,0,0,0,0,0
123440000,0.00017985005,-0.062704034,-2.880601,0.0,-0.13006467,0.031068657,0.004168154,0.9910099,0.0,0.0,-0.5736118,1,0,0,0,0,0
123536000,0.0017165766,-0.058815345,-2.8758302,0.0,-0.13245822,0.029030543,0.004746029,0.990752,0.0,0.0,-0.569318,1,0,0,0,0,0
123632000,0.0010743923,-0.05727841,-2.8720503,0.0,-0.1343237,0.028303476,0.0043796464,0.9905235,0.0,0.0,-0.57202655,1,0,0,0,0,0
123748000,0.00044940444,-0.053261403,-2.8668852,0.0,-0.13687964,0.026346011,0.0038684113,0.99022967,0.0,0.0,-0.5708662,1,0,0,0,0,0
123844000,-0.0011937785,-0.052758124,-2.863599,0.0,-0.13848583,0.026204284,0.0030634585,0.99001294,0.0,0.0,-0.57111096,1,0,0,0,0,0
123944000,-0.0070865466,-0.057186373,-2.862744,0.0,-0.13881499,0.028803904,0.00046566542,0.9898992,0.0,0.0,-0.57231736,1,0,0,0,0,0
124040000,-0.00365357,-0.053966723,-2.8598783,0.0,-0.14029172,0.026969204,0.0019797445,0.9897409,0.0,0.0,-0.5697042,1,0,0,0,0,0
124136000,-0.0044993325,-0.053904027,-2.8580961,0.0,-0.14116238,0.026996102,0.001580857,0.98961705,0.0,0.0,-0.57075745,1,0,0,0,0,0
124232000,-0.0021217372,-0.04791128,-2.8572395,0.0,-0.14163217,0.023861926,0.0023442784,0.9896289,0.0,0.0,-0.5711973,1,0,0,0,0,0
124348000,-0.0021893734,-0.04962404,-2.8949387,0.0,-0.12294969,0.024755646,0.001965887,0.99210215,0.0,0.0,-0.57086664,1,0,0,0,0,0
124444000,-0.0023679638,-0.07261997,-2.9703372,0.0,-0.0854239,0.036270164,0.001925793,0.9956825,0.0,0.0,-0.56837595,1,0,0,0,0,0
124544000,-0.002756595,-0.114677444,-3.0488772,0.0,-0.046186,0.057309452,0.0012811275,0.99728674,0.0,0.0,-0.56844735,1,0,0,0,0,0
124640000,0.01019502,-0.15903628,-3.1242757,0.0,-0.009035804,0.07938636,0.0057689534,0.99678624,0.0,0.0,-0.56677353,1,0,0,0,0,0
124736000,0.009843127,-0.21127282,-3.1257403,0.0,-0.008400733,0.105396666,0.0057296734,0.99437827,0.0,0.0,-0.571983,1,0,0,0,0,0
124832000,0.006839151,-0.25454107,-3.1259103,0.0,-0.008211666,0.12689598,0.004387051,0.9918723,0.0,0.0,-0.5760795,1,0,0,0,0,0
124948000,0.004904301,-0.30075958,-3.1261246,0.0,-0.008013988,0.14978997,0.003583047,0.9886789,0.0,0.0,-0.5840035,1,0,0,0,0,0
125044000,0.0022443936,-0.32474023,-3.1262562,0.0,-0.0077486797,0.16164424,0.0023470155,0.98681587,0.0,0.0,-0.58847684,1,0,0,0,0,0
125144000,-0.0020567183,-0.34001815,-3.126448,0.0,-0.0072891405,0.16919404,0.0002676618,0.98555577,0.0,0.0,-0.59401727,1,0,0,0,0,0
125240000,-0.0026088408,-0.36436325,-3.1266062,0.0,-0.0071328096,0.18117988,7.4776246e-05,0.9834241,0.0,0.0,-0.59763694,1,0,0,0,0,0
125336000,-0.00449042,-0.3897064,-3.1267943,0.0,-0.0068243416,0.19363302,-0.000770033,0.98105,0.0,0.0,-0.60177076,1,0,0,0,0,0
125432000,-0.0018758693,-0.41212645,-3.126932,0.0,-0.006983322,0.20460916,0.0005817722,0.97881866,0.0,0.0,-0.60692674,1,0,0,0,0,0
125548000,-0.0025884134,-0.44315663,-3.127083,0.0,-0.006792941,0.2197728,0.000331836,0.9755274,0.0,0.0,-0.6171807,1,0,0,0,0,0
125644000,-0.002047827,-0.45931315,-3.1271696,0.0,-0.0067890356,0.22764426,0.0006446343,0.9737205,0.0,0.0,-0.62327737,1,0,0,0,0,0
125744000,-0.0029063837,-0.46697798,-3.1272984,0.0,-0.0066169235,0.2313772,0.00023992018,0.9728416,0.0,0.0,-0.6259885,1,0,0,0,0,0
125840000,-0.0031878748,-0.47796845,-3.1273777,0.0,-0.0065280837,0.23672058,0.00013383398,0.9715558,0.0,0.0,-0.63278353,1,0,0,0,0,0
125936000,-0.002770964,-0.492301,-3.1274788,0.0,-0.0065065376,0.24367547,0.00037587073,0.9698349,0.0,0.0,-0.6387244,1,0,0,0,0,0
126032000,-0.002997888,-0.5088638,-3.1275508,0.0,-0.006417548,0.25169936,0.00031646388,0.9677841,0.0,0.0,-0.6451546,1,0,0,0,0,0
126128000,-0.0015521226,-0.5248355,-3.1276145,0.0,-0.0065484354,0.25941515,0.0010635905,0.9657431,0.0,0.0,-0.64908564,1,0,0,0,0,0
126244000,-0.002264387,-0.54859394,-3.1276488,0.0,-0.0064045447,0.27087113,0.00079862634,0.96259403,0.0,0.0,-0.658631,1,0,0,0,0,0
126344000,-0.0022279879,-0.554801,-3.1277,0.0,-0.0063756043,0.27385712,0.000830887,0.9617489,0.0,0.0,-0.662345,1,0,0,0,0,0
126440000,-0.0023009037,-0.5652005,-3.1276786,0.0,-0.006360193,0.27885446,0.00083518063,0.96031195,0.0,0.0,-0.66613233,1,0,0,0,0,0
126536000,0.00052068493,-0.5646545,-3.1276786,0.0,-0.0067540533,0.27858302,0.0021881778,0.9603859,0.0,0.0,-0.6688484,1,0,0,0,0,0
126632000,0.0013776339,-0.5511539,-3.127623,0.0,-0.006908607,0.27209085,0.0025633704,0.9622433,0.0,0.0,-0.67061114,1,0,0,0,0,0
126748000,0.0022376494,-0.5309703,-3.127589,0.0,-0.0070500146,0.26236328,0.0029167074,0.964939,0.0,0.0,-0.6749761,1,0,0,0,0,0
126844000,0.003602934,-0.5061113,-3.1274998,0.0,-0.007272945,0.25034454,0.0035081976,0.96812314,0.0,0.0,-0.67362,1,0,0,0,0,0
126944000,0.0014238998,-0.48467696,-3.1274493,0.0,-0.007035837,0.23996244,0.0023881313,0.9707538,0.0,0.0,-0.67114,1,0,0,0,0,0
127040000,0.00043217474,-0.4868212,-3.1273735,0.0,-0.00695204,0.2410065,0.0019232109,0.9704967,0.0,0.0,-0.6705447,1,0,0,0,0,0
127136000,0.001897316,-0.49796984,-3.12734,0.0,-0.007140236,0.24640739,0.0026754271,0.96913636,0.0,0.0,-0.6673275,1,0,0,0,0,0
127232000,0.0020945505,-0.5068361,-3.1272442,0.0,-0.00720757,0.25070044,0.002812461,0.9680338,0.0,0.0,-0.66521233,1,0,0,0,0,0
127348000,0.002340746,-0.5084307,-3.1271737,0.0,-0.007272049,0.25147122,0.0029457994,0.967833,0.0,0.0,-0.6668324,1,0,0,0,0,0
127444000,0.0003748463,-0.5007228,-3.1270666,0.0,-0.007082953,0.24774626,0.0019810025,0.968797,0.0,0.0,-0.66849077,1,0,0,0,0,0
127544000,-0.0009952002,-0.492601,-3.1270094,0.0,-0.0069501936,0.24381478,0.001295243,0.96979606,0.0,0.0,-0.66742164,1,0,0,0,0,0
127640000,0.00075482216,-0.48915035,-3.1268833,0.0,-0.0072271405,0.2421349,0.0021470492,0.9702133,0.0,0.0,-0.6688224,1,0,0,0,0,0
127736000,0.0010149475,-0.49260294,-3.1267862,0.0,-0.0073034493,0.24380836,0.0022971695,0.96979326,0.0,0.0,-0.6673341,1,0,0,0,0,0
127832000,0.0028304148,-0.49812815,-3.126638,0.0,-0.0075953947,0.24647962,0.003214628,0.9691129,0.0,0.0,-0.6651456,1,0,0,0,0,0
127948000,0.0027685813,-0.50346994,-3.1264834,0.0,-0.0076612174,0.24906714,0.003222338,0.96845055,0.0,0.0,-0.6668481,1,0,0,0,0,0
128047999,0.0026430432,-0.4987742,-3.1262991,0.0,-0.007736271,0.24679284,0.0031678772,0.9690322,0.0,0.0,-0.6642415,1,0,0,0,0,0
128144000,-0.00010967529,-0.49830955,-3.1261904,0.0,-0.0074497177,0.24657801,0.0018458173,0.96909255,0.0,0.0,-0.6654947,1,0,0,0,0,0
128240000,0.0023271302,-0.4935818,-3.1260285,0.0,-0.007830434,0.24427703,0.003029361,0.9696691,0.0,0.0,-0.66787785,1,0,0,0,0,0
128336000,0.0036408186,-0.49444258,-3.125899,0.0,-0.008053585,0.24468888,0.0036851764,0.9695612,0.0,0.0,-0.66660273,1,0,0,0,0,0
128456000,0.0008675094,-0.50163794,-3.125729,0.0,-0.007791167,0.2481862,0.0023887965,0.96867806,0.0,0.0,-0.6712444,1,0,0,0,0,0
128552000,0.0028734026,-0.5026076,-3.1256316,0.0,-0.008087023,0.24864772,0.0033760024,0.9685544,0.0,0.0,-0.66499346,1,0,0,0,0,0
128647999,0.00045446653,-0.49911454,-3.1255052,0.0,-0.007850578,0.24696518,0.002206763,0.96899,0.0,0.0,-0.6665773,1,0,0,0,0,0
128743999,-0.0007093263,-0.494769,-3.125431,0.0,-0.0077478574,0.24486367,0.0016348592,0.9695252,0.0,0.0,-0.66825664,1,0,0,0,0,0
128860000,0.0015913758,-0.4989165,-3.1252406,0.0,-0.008119308,0.24686441,0.0027895037,0.969012,0.0,0.0,-0.66896045,1,0,0,0,0,0
128960000,-0.00049575855,-0.49817434,-3.1250918,0.0,-0.007934609,0.24651298,0.001793647,0.96910536,0.0,0.0,-0.6677264,1,0,0,0,0,0
129056000,-0.0011576054,-0.49868026,-3.124955,0.0,-0.007918684,0.24676062,0.0014918909,0.96904296,0.0,0.0,-0.6679612,1,0,0,0,0,0
129152000,-0.00026239533,-0.50312525,-3.1248693,0.0,-0.008065716,0.24891005,0.0019542756,0.9684911,0.0,0.0,-0.66882616,1,0,0,0,0,0
129248000,0.00031857655,-0.5028601,-3.1247628,0.0,-0.008189887,0.24877922,0.0022477973,0.968523,0.0,0.0,-0.67009103,1,0,0,0,0,0
129344000,-0.0023071421,-0.50310314,-3.1246603,0.0,-0.007912522,0.24890736,0.0009900449,0.9684944,0.0,0.0,-0.664171,1,0,0,0,0,0
129463999,-0.0024848194,-0.49845207,-3.124506,0.0,-0.007972831,0.24665509,0.00090323936,0.96907014,0.0,0.0,-0.6711596,1,0,0,0,0,0
129560000,-0.003375152,-0.50024843,-3.1243982,0.0,-0.007911866,0.24752888,0.00049298926,0.96884805,0.0,0.0,-0.6691768,1,0,0,0,0,0
129656000,-0.0021946875,-0.5005899,-3.1242156,0.0,-0.008145885,0.24768947,0.001088921,0.9688046,0.0,0.0,-0.67121994,1,0,0,0,0,0
129772000,-0.0047736415,-0.5077116,-3.1240313,0.0,-0.007899734,0.25114793,-0.000105108535,0.9679165,0.0,0.0,-0.6704266,1,0,0,0,0,0
129868000,-0.0054962877,-0.5037834,-3.1239533,0.0,-0.007856278,0.24924926,-0.00046317012,0.9684074,0.0,0.0,-0.66960925,1,0,0,0,0,0
129968000,-0.0053326474,-0.48606712,-3.1237485,0.0,-0.008018095,0.2406608,-0.0004408206,0.97057605,0.0,0.0,-0.66338867,1,0,0,0,0,0
130064000,-0.004161956,-0.4517076,-3.1234076,0.0,-0.0083954735,0.22394724,8.092026e-06,0.9745651,0.0,0.0,-0.6645584,1,0,0,0,0,0
130159999,-0.0038639202,-0.42331383,-3.1231344,0.0,-0.008617191,0.21008822,5.0062266e-05,0.9776445,0.0,0.0,-0.66026616,1,0,0,0,0,0
130276000,-0.005712018,-0.40446603,-3.1229255,0.0,-0.008569559,0.20087387,-0.0009229989,0.9795792,0.0,0.0,-0.6596375,1,0,0,0,0,0
130372000,-0.00543849,-0.40687528,-3.122653,0.0,-0.008724998,0.2020527,-0.0007498239,0.9793355,0.0,0.0,-0.6515355,1,0,0,0,0,0
130472000,-0.0070921774,-0.40802047,-3.122409,0.0,-0.008674261,0.20262073,-0.0015291501,0.97921765,0.0,0.0,-0.64879787,1,0,0,0,0,0
130568000,-0.0060673538,-0.4063287,-3.1220734,0.0,-0.008946626,0.20178807,-0.0010019826,0.9793878,0.0,0.0,-0.6435551,1,0,0,0,0,0
130664000,-0.005452092,-0.37334126,-3.1218123,0.0,-0.009212248,0.18560511,-0.0008430923,0.9825809,0.0,0.0,-0.63905877,1,0,0,0,0,0
130760000,-0.0044138297,-0.3637275,-3.121448,0.0,-0.0095068775,0.18087512,-0.00034873586,0.98346007,0.0,0.0,-0.6395701,1,0,0,0,0,0
130879999,-0.0050550015,-0.3767561,-3.1209426,0.0,-0.009668872,0.18728094,-0.0005491667,0.9822587,0.0,0.0,-0.6392756,1,0,0,0,0,0
130975999,-0.004289185,-0.37583727,-3.1204238,0.0,-0.009997257,0.18682596,-0.00012943387,0.9823422,0.0,0.0,-0.6328761,1,0,0,0,0,0
131072000,-0.0031456128,-0.36389762,-3.1199613,0.0,-0.010352363,0.18095247,0.00041026936,0.9834373,0.0,0.0,-0.6336251,1,0,0,0,0,0
131188000,-0.0023474446,-0.34623465,-3.119291,0.0,-0.010781718,0.17225598,0.00076462043,0.9849929,0.0,0.0,-0.63238305,1,0,0,0,0,0
131284000,-0.0033844337,-0.33423352,-3.1188123,0.0,-0.010949757,0.16634794,0.00022606322,0.9860063,0.0,0.0,-0.63088477,1,0,0,0,0,0
131384000,-0.0017921678,-0.30782112,-3.1182082,0.0,-0.011416398,0.15330344,0.0009069908,0.9881128,0.0,0.0,-0.6237214,1,0,0,0,0,0
131480000,-0.0015940745,-0.30220982,-3.117604,0.0,-0.0117373895,0.1505291,0.0010175689,0.9885354,0.0,0.0,-0.62213343,1,0,0,0,0,0
131576000,-0.0030195264,-0.31946406,-3.11702,0.0,-0.0118895415,0.15905978,0.0004637115,0.9871973,0.0,0.0,-0.62520456,1,0,0,0,0,0
131692000,-0.0035667731,-0.3273044,-3.1164775,0.0,-0.012098923,0.16293168,0.0002864395,0.98656315,0.0,0.0,-0.6196163,1,0,0,0,0,0
131791999,-0.0029760224,-0.32259104,-3.1158261,0.0,-0.012476723,0.16060247,0.00060037966,0.98694015,0.0,0.0,-0.61508673,1,0,0,0,0,0
131888000,-0.003975355,-0.30646074,-3.1153493,0.0,-0.012664183,0.15264376,3.8501516e-05,0.9882001,0.0,0.0,-0.6152263,1,0,0,0,0,0
131984000,-0.0029733495,-0.28788984,-3.114723,0.0,-0.013082243,0.143455,0.00045597978,0.98957026,0.0,0.0,-0.6181997,1,0,0,0,0,0
132080000,-0.0020280017,-0.2780711,-3.1141958,0.0,-0.013425281,0.1385887,0.0008942543,0.99025863,0.0,0.0,-0.61266035,1,0,0,0,0,0
132200000,-0.0034308156,-0.2677743,-3.1134975,0.0,-0.01369242,0.13349804,0.00017522498,0.9909545,0.0,0.0,-0.6150899,1,0,0,0,0,0
132296000,-0.0033323115,-0.24944496,-3.1130033,0.0,-0.013975911,0.124410115,0.00012514478,0.9921324,0.0,0.0,-0.61039937,1,0,0,0,0,0
132391999,-0.0032192534,-0.27539468,-3.112313,0.0,-0.0142797865,0.13727106,0.00041520447,0.99043053,0.0,0.0,-0.6085674,1,0,0,0,0,0
