timestamp,voltage_v,voltage_filtered_v,current_a,current_filtered_a,average_current_a,discharged_mah,remaining,scale,temperature,cell_count,voltage_cell_v[0],voltage_cell_v[1],voltage_cell_v[2],voltage_cell_v[3],max_cell_voltage_delta,capacity,cycle_count,run_time_to_empty,average_time_to_empty,serial_number,connected,system_source,priority,is_powering_off,warning
1896000,12.150001,12.150001,-1.0,-1.0,0.0,0.0,1.0,1.0,0.0,3,0.0,0.0,0.0,0.0,0.0,0,0,0,0,0,1,1,0,0,0
2400000,12.150001,12.150001,-1.0,-1.0,0.0,0.0,1.0,1.0,0.0,3,0.0,0.0,0.0,0.0,0.0,0,0,0,0,0,1,1,0,0,0
2904000,12.150001,12.150001,-1.0,-1.0,0.0,0.0,1.0,1.0,0.0,3,0.0,0.0,0.0,0.0,0.0,0,0,0,0,0,1,1,0,0,0
3396000,12.150001,12.150001,-1.0,-1.0,0.0,0.0,1.0,1.0,0.0,3,0.0,0.0,0.0,0.0,0.0,0,0,0,0,0,1,1,0,0,0
3900000,12.150001,12.150001,-1.0,-1.0,0.0,0.0,1.0,1.0,0.0,3,0.0,0.0,0.0,0.0,0.0,0,0,0,0,0,1,1,0,0,0
4404000,12.150001,12.150001,-1.0,-1.0,0.0,0.0,1.0,1.0,0.0,3,0.0,0.0,0.0,0.0,0.0,0,0,0,0,0,1,1,0,0,0
4896000,12.150001,12.150001,-1.0,-1.0,0.0,0.0,1.0,1.0,0.0,3,0.0,0.0,0.0,0.0,0.0,0,0,0,0,0,1,1,0,0,0
5400000,12.150001,12.150001,-1.0,-1.0,0.0,0.0,1.0,1.0,0.0,3,0.0,0.0,0.0,0.0,0.0,0,0,0,0,0,1,1,0,0,0
5904000,12.150001,12.150001,-1.0,-1.0,0.0,0.0,1.0,1.0,0.0,3,0.0,0.0,0.0,0.0,0.0,0,0,0,0,0,1,1,0,0,0
6396000,12.150001,12.150001,-1.0,-1.0,0.0,0.0,1.0,1.0,0.0,3,0.0,0.0,0.0,0.0,0.0,0,0,0,0,0,1,1,0,0,0
6900000,12.150001,12.150001,-1.0,-1.0,0.0,0.0,1.0,1.0,0.0,3,0.0,0.0,0.0,0.0,0.0,0,0,0,0,0,1,1,0,0,0
7404000,12.150001,12.150001,-1.0,-1.0,0.0,0.0,1.0,1.0,0.0,3,0.0,0.0,0.0,0.0,0.0,0,0,0,0,0,1,1,0,0,0
7896000,12.150001,12.150001,-1.0,-1.0,0.0,0.0,1.0,1.0,0.0,3,0.0,0.0,0.0,0.0,0.0,0,0,0,0,0,1,1,0,0,0
8400000,12.150001,12.150001,-1.0,-1.0,0.0,0.0,1.0,1.0,0.0,3,0.0,0.0,0.0,0.0,0.0,0,0,0,0,0,1,1,0,0,0
8904000,12.150001,12.150001,-1.0,-1.0,0.0,0.0,1.0,1.0,0.0,3,0.0,0.0,0.0,0.0,0.0,0,0,0,0,0,1,1,0,0,0
9396000,12.150001,12.150001,-1.0,-1.0,0.0,0.0,1.0,1.0,0.0,3,0.0,0.0,0.0,0.0,0.0,0,0,0,0,0,1,1,0,0,0
9900000,12.150001,12.150001,-1.0,-1.0,0.0,0.0,1.0,1.0,0.0,3,0.0,0.0,0.0,0.0,0.0,0,0,0,0,0,1,1,0,0,0
10404000,12.150001,12.150001,-1.0,-1.0,0.0,0.0,1.0,1.0,0.0,3,0.0,0.0,0.0,0.0,0.0,0,0,0,0,0,1,1,0,0,0
10896000,12.150001,12.150001,-1.0,-1.0,0.0,0.0,1.0,1.0,0.0,3,0.0,0.0,0.0,0.0,0.0,0,0,0,0,0,1,1,0,0,0
11400000,12.150001,12.150001,-1.0,-1.0,0.0,0.0,1.0,1.0,0.0,3,0.0,0.0,0.0,0.0,0.0,0,0,0,0,0,1,1,0,0,0
11904000,12.150001,12.150001,-1.0,-1.0,0.0,0.0,1.0,1.0,0.0,3,0.0,0.0,0.0,0.0,0.0,0,0,0,0,0,1,1,0,0,0
12396000,12.150001,12.150001,-1.0,-1.0,0.0,0.0,1.0,1.0,0.0,3,0.0,0.0,0.0,0.0,0.0,0,0,0,0,0,1,1,0,0,0
12900000,12.150001,12.150001,-1.0,-1.0,0.0,0.0,1.0,1.0,0.0,3,0.0,0.0,0.0,0.0,0.0,0,0,0,0,0,1,1,0,0,0
13404000,12.150001,12.150001,-1.0,-1.0,0.0,0.0,1.0,1.0,0.0,3,0.0,0.0,0.0,0.0,0.0,0,0,0,0,0,1,1,0,0,0
13896000,12.150001,12.150001,-1.0,-1.0,0.0,0.0,1.0,1.0,0.0,3,0.0,0.0,0.0,0.0,0.0,0,0,0,0,0,1,1,0,0,0
14400000,12.150001,12.150001,-1.0,-1.0,0.0,0.0,1.0,1.0,0.0,3,0.0,0.0,0.0,0.0,0.0,0,0,0,0,0,1,1,0,0,0
14904000,12.150001,12.150001,-1.0,-1.0,0.0,0.0,1.0,1.0,0.0,3,0.0,0.0,0.0,0.0,0.0,0,0,0,0,0,1,1,0,0,0
15396000,12.150001,12.150001,-1.0,-1.0,0.0,0.0,1.0,1.0,0.0,3,0.0,0.0,0.0,0.0,0.0,0,0,0,0,0,1,1,0,0,0
15900000,12.150001,12.150001,-1.0,-1.0,0.0,0.0,1.0,1.0,0.0,3,0.0,0.0,0.0,0.0,0.0,0,0,0,0,0,1,1,0,0,0
16404000,12.150001,12.150001,-1.0,-1.0,0.0,0.0,1.0,1.0,0.0,3,0.0,0.0,0.0,0.0,0.0,0,0,0,0,0,1,1,0,0,0
16896000,12.150001,12.150001,-1.0,-1.0,0.0,0.0,1.0,1.0,0.0,3,0.0,0.0,0.0,0.0,0.0,0,0,0,0,0,1,1,0,0,0
17400000,12.150001,12.150001,-1.0,-1.0,0.0,0.0,1.0,1.0,0.0,3,0.0,0.0,0.0,0.0,0.0,0,0,0,0,0,1,1,0,0,0
17904000,12.150001,12.150001,-1.0,-1.0,0.0,0.0,1.0,1.0,0.0,3,0.0,0.0,0.0,0.0,0.0,0,0,0,0,0,1,1,0,0,0
18396000,12.150001,12.150001,-1.0,-1.0,0.0,0.0,1.0,1.0,0.0,3,0.0,0.0,0.0,0.0,0.0,0,0,0,0,0,1,1,0,0,0
18900000,12.150001,12.150001,-1.0,-1.0,0.0,0.0,1.0,1.0,0.0,3,0.0,0.0,0.0,0.0,0.0,0,0,0,0,0,1,1,0,0,0
19404000,12.150001,12.150001,-1.0,-1.0,0.0,0.0,1.0,1.0,0.0,3,0.0,0.0,0.0,0.0,0.0,0,0,0,0,0,1,1,0,0,0
19896000,12.150001,12.150001,-1.0,-1.0,0.0,0.0,1.0,1.0,0.0,3,0.0,0.0,0.0,0.0,0.0,0,0,0,0,0,1,1,0,0,0
20400000,12.150001,12.150001,-1.0,-1.0,0.0,0.0,1.0,1.0,0.0,3,0.0,0.0,0.0,0.0,0.0,0,0,0,0,0,1,1,0,0,0
20904000,12.150001,12.150001,-1.0,-1.0,0.0,0.0,1.0,1.0,0.0,3,0.0,0.0,0.0,0.0,0.0,0,0,0,0,0,1,1,0,0,0
21396000,12.150001,12.150001,-1.0,-1.0,0.0,0.0,1.0,1.0,0.0,3,0.0,0.0,0.0,0.0,0.0,0,0,0,0,0,1,1,0,0,0
21900000,12.150001,12.150001,-1.0,-1.0,0.0,0.0,1.0,1.0,0.0,3,0.0,0.0,0.0,0.0,0.0,0,0,0,0,0,1,1,0,0,0
22404000,12.150001,12.150001,-1.0,-1.0,0.0,0.0,1.0,1.0,0.0,3,0.0,0.0,0.0,0.0,0.0,0,0,0,0,0,1,1,0,0,0
22896000,12.150001,12.150001,-1.0,-1.0,0.0,0.0,1.0,1.0,0.0,3,0.0,0.0,0.0,0.0,0.0,0,0,0,0,0,1,1,0,0,0
23400000,12.150001,12.150001,-1.0,-1.0,0.0,0.0,1.0,1.0,0.0,3,0.0,0.0,0.0,0.0,0.0,0,0,0,0,0,1,1,0,0,0
23904000,12.150001,12.150001,-1.0,-1.0,0.0,0.0,1.0,1.0,0.0,3,0.0,0.0,0.0,0.0,0.0,0,0,0,0,0,1,1,0,0,0
24396000,12.150001,12.150001,-1.0,-1.0,0.0,0.0,1.0,1.0,0.0,3,0.0,0.0,0.0,0.0,0.0,0,0,0,0,0,1,1,0,0,0
24900000,12.150001,12.150001,-1.0,-1.0,0.0,0.0,1.0,1.0,0.0,3,0.0,0.0,0.0,0.0,0.0,0,0,0,0,0,1,1,0,0,0
25404000,12.150001,12.150001,-1.0,-1.0,0.0,0.0,1.0,1.0,0.0,3,0.0,0.0,0.0,0.0,0.0,0,0,0,0,0,1,1,0,0,0
25896000,12.150001,12.150001,-1.0,-1.0,0.0,0.0,1.0,1.0,0.0,3,0.0,0.0,0.0,0.0,0.0,0,0,0,0,0,1,1,0,0,0
26400000,12.150001,12.150001,-1.0,-1.0,0.0,0.0,1.0,1.0,0.0,3,0.0,0.0,0.0,0.0,0.0,0,0,0,0,0,1,1,0,0,0
26904000,12.150001,12.150001,-1.0,-1.0,0.0,0.0,1.0,1.0,0.0,3,0.0,0.0,0.0,0.0,0.0,0,0,0,0,0,1,1,0,0,0
27396000,12.150001,12.150001,-1.0,-1.0,0.0,0.0,1.0,1.0,0.0,3,0.0,0.0,0.0,0.0,0.0,0,0,0,0,0,1,1,0,0,0
27900000,12.150001,12.150001,-1.0,-1.0,0.0,0.0,1.0,1.0,0.0,3,0.0,0.0,0.0,0.0,0.0,0,0,0,0,0,1,1,0,0,0
28404000,12.150001,12.150001,-1.0,-1.0,0.0,0.0,1.0,1.0,0.0,3,0.0,0.0,0.0,0.0,0.0,0,0,0,0,0,1,1,0,0,0
28896000,12.150001,12.150001,-1.0,-1.0,0.0,0.0,1.0,1.0,0.0,3,0.0,0.0,0.0,0.0,0.0,0,0,0,0,0,1,1,0,0,0
29400000,12.150001,12.150001,-1.0,-1.0,0.0,0.0,1.0,1.0,0.0,3,0.0,0.0,0.0,0.0,0.0,0,0,0,0,0,1,1,0,0,0
29904000,12.150001,12.150001,-1.0,-1.0,0.0,0.0,1.0,1.0,0.0,3,0.0,0.0,0.0,0.0,0.0,0,0,0,0,0,1,1,0,0,0
30396000,12.150001,12.150001,-1.0,-1.0,0.0,0.0,1.0,1.0,0.0,3,0.0,0.0,0.0,0.0,0.0,0,0,0,0,0,1,1,0,0,0
30900000,12.150001,12.150001,-1.0,-1.0,0.0,0.0,1.0,1.0,0.0,3,0.0,0.0,0.0,0.0,0.0,0,0,0,0,0,1,1,0,0,0
31404000,12.150001,12.150001,-1.0,-1.0,0.0,0.0,1.0,1.0,0.0,3,0.0,0.0,0.0,0.0,0.0,0,0,0,0,0,1,1,0,0,0
31896000,12.150001,12.150001,-1.0,-1.0,0.0,0.0,1.0,1.0,0.0,3,0.0,0.0,0.0,0.0,0.0,0,0,0,0,0,1,1,0,0,0
32400000,12.150001,12.150001,-1.0,-1.0,0.0,0.0,1.0,1.0,0.0,3,0.0,0.0,0.0,0.0,0.0,0,0,0,0,0,1,1,0,0,0
32904000,12.150001,12.150001,-1.0,-1.0,0.0,0.0,1.0,1.0,0.0,3,0.0,0.0,0.0,0.0,0.0,0,0,0,0,0,1,1,0,0,0
33396000,12.150001,12.150001,-1.0,-1.0,0.0,0.0,1.0,1.0,0.0,3,0.0,0.0,0.0,0.0,0.0,0,0,0,0,0,1,1,0,0,0
33900000,12.150001,12.150001,-1.0,-1.0,0.0,0.0,1.0,1.0,0.0,3,0.0,0.0,0.0,0.0,0.0,0,0,0,0,0,1,1,0,0,0
34404000,12.150001,12.150001,-1.0,-1.0,0.0,0.0,1.0,1.0,0.0,3,0.0,0.0,0.0,0.0,0.0,0,0,0,0,0,1,1,0,0,0
34896000,12.150001,12.150001,-1.0,-1.0,0.0,0.0,1.0,1.0,0.0,3,0.0,0.0,0.0,0.0,0.0,0,0,0,0,0,1,1,0,0,0
35400000,12.150001,12.150001,-1.0,-1.0,0.0,0.0,1.0,1.0,0.0,3,0.0,0.0,0.0,0.0,0.0,0,0,0,0,0,1,1,0,0,0
35904000,12.150001,12.150001,-1.0,-1.0,0.0,0.0,1.0,1.0,0.0,3,0.0,0.0,0.0,0.0,0.0,0,0,0,0,0,1,1,0,0,0
36396000,12.150001,12.150001,-1.0,-1.0,0.0,0.0,1.0,1.0,0.0,3,0.0,0.0,0.0,0.0,0.0,0,0,0,0,0,1,1,0,0,0
36900000,12.150001,12.150001,-1.0,-1.0,0.0,0.0,1.0,1.0,0.0,3,0.0,0.0,0.0,0.0,0.0,0,0,0,0,0,1,1,0,0,0
37404000,12.150001,12.150001,-1.0,-1.0,0.0,0.0,1.0,1.0,0.0,3,0.0,0.0,0.0,0.0,0.0,0,0,0,0,0,1,1,0,0,0
37896000,12.150001,12.150001,-1.0,-1.0,0.0,0.0,1.0,1.0,0.0,3,0.0,0.0,0.0,0.0,0.0,0,0,0,0,0,1,1,0,0,0
38400000,12.150001,12.150001,-1.0,-1.0,0.0,0.0,1.0,1.0,0.0,3,0.0,0.0,0.0,0.0,0.0,0,0,0,0,0,1,1,0,0,0
38904000,12.150001,12.150001,-1.0,-1.0,0.0,0.0,1.0,1.0,0.0,3,0.0,0.0,0.0,0.0,0.0,0,0,0,0,0,1,1,0,0,0
39396000,12.150001,12.150001,-1.0,-1.0,0.0,0.0,1.0,1.0,0.0,3,0.0,0.0,0.0,0.0,0.0,0,0,0,0,0,1,1,0,0,0
39900000,12.150001,12.150001,-1.0,-1.0,0.0,0.0,1.0,1.0,0.0,3,0.0,0.0,0.0,0.0,0.0,0,0,0,0,0,1,1,0,0,0
40404000,12.150001,12.150001,-1.0,-1.0,0.0,0.0,1.0,1.0,0.0,3,0.0,0.0,0.0,0.0,0.0,0,0,0,0,0,1,1,0,0,0
40896000,12.150001,12.150001,-1.0,-1.0,0.0,0.0,1.0,1.0,0.0,3,0.0,0.0,0.0,0.0,0.0,0,0,0,0,0,1,1,0,0,0
41400000,12.150001,12.150001,-1.0,-1.0,0.0,0.0,1.0,1.0,0.0,3,0.0,0.0,0.0,0.0,0.0,0,0,0,0,0,1,1,0,0,0
41904000,12.150001,12.150001,-1.0,-1.0,0.0,0.0,1.0,1.0,0.0,3,0.0,0.0,0.0,0.0,0.0,0,0,0,0,0,1,1,0,0,0
42396000,12.150001,12.150001,-1.0,-1.0,0.0,0.0,1.0,1.0,0.0,3,0.0,0.0,0.0,0.0,0.0,0,0,0,0,0,1,1,0,0,0
42900000,12.150001,12.150001,-1.0,-1.0,0.0,0.0,1.0,1.0,0.0,3,0.0,0.0,0.0,0.0,0.0,0,0,0,0,0,1,1,0,0,0
43404000,12.150001,12.150001,-1.0,-1.0,0.0,0.0,1.0,1.0,0.0,3,0.0,0.0,0.0,0.0,0.0,0,0,0,0,0,1,1,0,0,0
43896000,12.150001,12.150001,-1.0,-1.0,0.0,0.0,1.0,1.0,0.0,3,0.0,0.0,0.0,0.0,0.0,0,0,0,0,0,1,1,0,0,0
44400000,12.150001,12.150001,-1.0,-1.0,0.0,0.0,1.0,1.0,0.0,3,0.0,0.0,0.0,0.0,0.0,0,0,0,0,0,1,1,0,0,0
44904000,12.150001,12.150001,-1.0,-1.0,0.0,0.0,1.0,1.0,0.0,3,0.0,0.0,0.0,0.0,0.0,0,0,0,0,0,1,1,0,0,0
45396000,12.150001,12.150001,-1.0,-1.0,0.0,0.0,1.0,1.0,0.0,3,0.0,0.0,0.0,0.0,0.0,0,0,0,0,0,1,1,0,0,0
45900000,12.150001,12.150001,-1.0,-1.0,0.0,0.0,1.0,1.0,0.0,3,0.0,0.0,0.0,0.0,0.0,0,0,0,0,0,1,1,0,0,0
46404000,12.150001,12.150001,-1.0,-1.0,0.0,0.0,1.0,1.0,0.0,3,0.0,0.0,0.0,0.0,0.0,0,0,0,0,0,1,1,0,0,0
46896000,12.150001,12.150001,-1.0,-1.0,0.0,0.0,1.0,1.0,0.0,3,0.0,0.0,0.0,0.0,0.0,0,0,0,0,0,1,1,0,0,0
47400000,12.150001,12.150001,-1.0,-1.0,0.0,0.0,1.0,1.0,0.0,3,0.0,0.0,0.0,0.0,0.0,0,0,0,0,0,1,1,0,0,0
47904000,12.150001,12.150001,-1.0,-1.0,0.0,0.0,1.0,1.0,0.0,3,0.0,0.0,0.0,0.0,0.0,0,0,0,0,0,1,1,0,0,0
48396000,12.150001,12.150001,-1.0,-1.0,0.0,0.0,1.0,1.0,0.0,3,0.0,0.0,0.0,0.0,0.0,0,0,0,0,0,1,1,0,0,0
48900000,12.150001,12.150001,-1.0,-1.0,0.0,0.0,1.0,1.0,0.0,3,0.0,0.0,0.0,0.0,0.0,0,0,0,0,0,1,1,0,0,0
49404000,12.150001,12.150001,-1.0,-1.0,0.0,0.0,1.0,1.0,0.0,3,0.0,0.0,0.0,0.0,0.0,0,0,0,0,0,1,1,0,0,0
49896000,12.150001,12.150001,-1.0,-1.0,0.0,0.0,1.0,1.0,0.0,3,0.0,0.0,0.0,0.0,0.0,0,0,0,0,0,1,1,0,0,0
50400000,12.150001,12.150001,-1.0,-1.0,0.0,0.0,1.0,1.0,0.0,3,0.0,0.0,0.0,0.0,0.0,0,0,0,0,0,1,1,0,0,0
50904000,12.150001,12.150001,-1.0,-1.0,0.0,0.0,1.0,1.0,0.0,3,0.0,0.0,0.0,0.0,0.0,0,0,0,0,0,1,1,0,0,0
51396000,12.150001,12.150001,-1.0,-1.0,0.0,0.0,1.0,1.0,0.0,3,0.0,0.0,0.0,0.0,0.0,0,0,0,0,0,1,1,0,0,0
51900000,12.150001,12.150001,-1.0,-1.0,0.0,0.0,1.0,1.0,0.0,3,0.0,0.0,0.0,0.0,0.0,0,0,0,0,0,1,1,0,0,0
52404000,12.150001,12.150001,-1.0,-1.0,0.0,0.0,1.0,1.0,0.0,3,0.0,0.0,0.0,0.0,0.0,0,0,0,0,0,1,1,0,0,0
52896000,12.150001,12.150001,-1.0,-1.0,0.0,0.0,1.0,1.0,0.0,3,0.0,0.0,0.0,0.0,0.0,0,0,0,0,0,1,1,0,0,0
53400000,12.150001,12.150001,-1.0,-1.0,0.0,0.0,1.0,1.0,0.0,3,0.0,0.0,0.0,0.0,0.0,0,0,0,0,0,1,1,0,0,0
53904000,12.150001,12.150001,-1.0,-1.0,0.0,0.0,1.0,1.0,0.0,3,0.0,0.0,0.0,0.0,0.0,0,0,0,0,0,1,1,0,0,0
54396000,12.150001,12.150001,-1.0,-1.0,0.0,0.0,1.0,1.0,0.0,3,0.0,0.0,0.0,0.0,0.0,0,0,0,0,0,1,1,0,0,0
54900000,12.150001,12.150001,-1.0,-1.0,0.0,0.0,1.0,1.0,0.0,3,0.0,0.0,0.0,0.0,0.0,0,0,0,0,0,1,1,0,0,0
55404000,12.150001,12.150001,-1.0,-1.0,0.0,0.0,1.0,1.0,0.0,3,0.0,0.0,0.0,0.0,0.0,0,0,0,0,0,1,1,0,0,0
55896000,12.150001,12.150001,-1.0,-1.0,0.0,0.0,1.0,1.0,0.0,3,0.0,0.0,0.0,0.0,0.0,0,0,0,0,0,1,1,0,0,0
56400000,12.150001,12.150001,-1.0,-1.0,0.0,0.0,1.0,1.0,0.0,3,0.0,0.0,0.0,0.0,0.0,0,0,0,0,0,1,1,0,0,0
56904000,12.150001,12.150001,-1.0,-1.0,0.0,0.0,1.0,1.0,0.0,3,0.0,0.0,0.0,0.0,0.0,0,0,0,0,0,1,1,0,0,0
57396000,12.150001,12.150001,-1.0,-1.0,0.0,0.0,1.0,1.0,0.0,3,0.0,0.0,0.0,0.0,0.0,0,0,0,0,0,1,1,0,0,0
57900000,12.150001,12.150001,-1.0,-1.0,0.0,0.0,1.0,1.0,0.0,3,0.0,0.0,0.0,0.0,0.0,0,0,0,0,0,1,1,0,0,0
58404000,12.150001,12.150001,-1.0,-1.0,0.0,0.0,1.0,1.0,0.0,3,0.0,0.0,0.0,0.0,0.0,0,0,0,0,0,1,1,0,0,0
58896000,12.150001,12.150001,-1.0,-1.0,0.0,0.0,1.0,1.0,0.0,3,0.0,0.0,0.0,0.0,0.0,0,0,0,0,0,1,1,0,0,0
59400000,12.150001,12.150001,-1.0,-1.0,0.0,0.0,1.0,1.0,0.0,3,0.0,0.0,0.0,0.0,0.0,0,0,0,0,0,1,1,0,0,0
59904000,12.150001,12.150001,-1.0,-1.0,0.0,0.0,1.0,1.0,0.0,3,0.0,0.0,0.0,0.0,0.0,0,0,0,0,0,1,1,0,0,0
60396000,12.150001,12.150001,-1.0,-1.0,0.0,0.0,1.0,1.0,0.0,3,0.0,0.0,0.0,0.0,0.0,0,0,0,0,0,1,1,0,0,0
60900000,12.150001,12.150001,-1.0,-1.0,0.0,0.0,1.0,1.0,0.0,3,0.0,0.0,0.0,0.0,0.0,0,0,0,0,0,1,1,0,0,0
61404000,12.150001,12.150001,-1.0,-1.0,0.0,0.0,1.0,1.0,0.0,3,0.0,0.0,0.0,0.0,0.0,0,0,0,0,0,1,1,0,0,0
61896000,12.150001,12.150001,-1.0,-1.0,0.0,0.0,1.0,1.0,0.0,3,0.0,0.0,0.0,0.0,0.0,0,0,0,0,0,1,1,0,0,0
62400000,12.150001,12.150001,-1.0,-1.0,0.0,0.0,1.0,1.0,0.0,3,0.0,0.0,0.0,0.0,0.0,0,0,0,0,0,1,1,0,0,0
62904000,12.150001,12.150001,-1.0,-1.0,0.0,0.0,1.0,1.0,0.0,3,0.0,0.0,0.0,0.0,0.0,0,0,0,0,0,1,1,0,0,0
63396000,12.150001,12.150001,-1.0,-1.0,0.0,0.0,1.0,1.0,0.0,3,0.0,0.0,0.0,0.0,0.0,0,0,0,0,0,1,1,0,0,0
63900000,12.150001,12.150001,-1.0,-1.0,0.0,0.0,1.0,1.0,0.0,3,0.0,0.0,0.0,0.0,0.0,0,0,0,0,0,1,1,0,0,0
64404000,12.150001,12.150001,-1.0,-1.0,0.0,0.0,1.0,1.0,0.0,3,0.0,0.0,0.0,0.0,0.0,0,0,0,0,0,1,1,0,0,0
64896000,12.150001,12.150001,-1.0,-1.0,0.0,0.0,1.0,1.0,0.0,3,0.0,0.0,0.0,0.0,0.0,0,0,0,0,0,1,1,0,0,0
65400000,12.150001,12.150001,-1.0,-1.0,0.0,0.0,1.0,1.0,0.0,3,0.0,0.0,0.0,0.0,0.0,0,0,0,0,0,1,1,0,0,0
65904000,12.150001,12.150001,-1.0,-1.0,0.0,0.0,1.0,1.0,0.0,3,0.0,0.0,0.0,0.0,0.0,0,0,0,0,0,1,1,0,0,0
66396000,12.150001,12.150001,-1.0,-1.0,0.0,0.0,1.0,1.0,0.0,3,0.0,0.0,0.0,0.0,0.0,0,0,0,0,0,1,1,0,0,0
66900000,12.150001,12.150001,-1.0,-1.0,0.0,0.0,1.0,1.0,0.0,3,0.0,0.0,0.0,0.0,0.0,0,0,0,0,0,1,1,0,0,0
67404000,12.150001,12.150001,-1.0,-1.0,0.0,0.0,1.0,1.0,0.0,3,0.0,0.0,0.0,0.0,0.0,0,0,0,0,0,1,1,0,0,0
67896000,12.150001,12.150001,-1.0,-1.0,0.0,0.0,1.0,1.0,0.0,3,0.0,0.0,0.0,0.0,0.0,0,0,0,0,0,1,1,0,0,0
68400000,12.150001,12.150001,-1.0,-1.0,0.0,0.0,1.0,1.0,0.0,3,0.0,0.0,0.0,0.0,0.0,0,0,0,0,0,1,1,0,0,0
68904000,12.150001,12.150001,-1.0,-1.0,0.0,0.0,1.0,1.0,0.0,3,0.0,0.0,0.0,0.0,0.0,0,0,0,0,0,1,1,0,0,0
69396000,12.150001,12.150001,-1.0,-1.0,0.0,0.0,1.0,1.0,0.0,3,0.0,0.0,0.0,0.0,0.0,0,0,0,0,0,1,1,0,0,0
69900000,12.150001,12.150001,-1.0,-1.0,0.0,0.0,1.0,1.0,0.0,3,0.0,0.0,0.0,0.0,0.0,0,0,0,0,0,1,1,0,0,0
70404000,12.150001,12.150001,-1.0,-1.0,0.0,0.0,1.0,1.0,0.0,3,0.0,0.0,0.0,0.0,0.0,0,0,0,0,0,1,1,0,0,0
70896000,12.150001,12.150001,-1.0,-1.0,0.0,0.0,1.0,1.0,0.0,3,0.0,0.0,0.0,0.0,0.0,0,0,0,0,0,1,1,0,0,0
71400000,12.150001,12.150001,-1.0,-1.0,0.0,0.0,1.0,1.0,0.0,3,0.0,0.0,0.0,0.0,0.0,0,0,0,0,0,1,1,0,0,0
71904000,12.150001,12.150001,-1.0,-1.0,0.0,0.0,1.0,1.0,0.0,3,0.0,0.0,0.0,0.0,0.0,0,0,0,0,0,1,1,0,0,0
72396000,12.150001,12.150001,-1.0,-1.0,0.0,0.0,1.0,1.0,0.0,3,0.0,0.0,0.0,0.0,0.0,0,0,0,0,0,1,1,0,0,0
72900000,12.150001,12.150001,-1.0,-1.0,0.0,0.0,1.0,1.0,0.0,3,0.0,0.0,0.0,0.0,0.0,0,0,0,0,0,1,1,0,0,0
73404000,12.150001,12.150001,-1.0,-1.0,0.0,0.0,1.0,1.0,0.0,3,0.0,0.0,0.0,0.0,0.0,0,0,0,0,0,1,1,0,0,0
73896000,12.150001,12.150001,-1.0,-1.0,0.0,0.0,1.0,1.0,0.0,3,0.0,0.0,0.0,0.0,0.0,0,0,0,0,0,1,1,0,0,0
74400000,12.150001,12.150001,-1.0,-1.0,0.0,0.0,1.0,1.0,0.0,3,0.0,0.0,0.0,0.0,0.0,0,0,0,0,0,1,1,0,0,0
74904000,12.150001,12.150001,-1.0,-1.0,0.0,0.0,1.0,1.0,0.0,3,0.0,0.0,0.0,0.0,0.0,0,0,0,0,0,1,1,0,0,0
75396000,12.150001,12.150001,-1.0,-1.0,0.0,0.0,1.0,1.0,0.0,3,0.0,0.0,0.0,0.0,0.0,0,0,0,0,0,1,1,0,0,0
75900000,12.150001,12.150001,-1.0,-1.0,0.0,0.0,1.0,1.0,0.0,3,0.0,0.0,0.0,0.0,0.0,0,0,0,0,0,1,1,0,0,0
76392000,12.150001,12.150001,-1.0,-1.0,0.0,0.0,1.0,1.0,0.0,3,0.0,0.0,0.0,0.0,0.0,0,0,0,0,0,1,1,0,0,0
76896000,12.150001,12.150001,-1.0,-1.0,0.0,0.0,1.0,1.0,0.0,3,0.0,0.0,0.0,0.0,0.0,0,0,0,0,0,1,1,0,0,0
77400000,12.150001,12.150001,-1.0,-1.0,0.0,0.0,1.0,1.0,0.0,3,0.0,0.0,0.0,0.0,0.0,0,0,0,0,0,1,1,0,0,0
77904000,12.150001,12.150001,-1.0,-1.0,0.0,0.0,1.0,1.0,0.0,3,0.0,0.0,0.0,0.0,0.0,0,0,0,0,0,1,1,0,0,0
78396000,12.150001,12.150001,-1.0,-1.0,0.0,0.0,1.0,1.0,0.0,3,0.0,0.0,0.0,0.0,0.0,0,0,0,0,0,1,1,0,0,0
78900000,12.150001,12.150001,-1.0,-1.0,0.0,0.0,1.0,1.0,0.0,3,0.0,0.0,0.0,0.0,0.0,0,0,0,0,0,1,1,0,0,0
79404000,12.150001,12.150001,-1.0,-1.0,0.0,0.0,1.0,1.0,0.0,3,0.0,0.0,0.0,0.0,0.0,0,0,0,0,0,1,1,0,0,0
79896000,12.150001,12.150001,-1.0,-1.0,0.0,0.0,1.0,1.0,0.0,3,0.0,0.0,0.0,0.0,0.0,0,0,0,0,0,1,1,0,0,0
80400000,12.150001,12.150001,-1.0,-1.0,0.0,0.0,1.0,1.0,0.0,3,0.0,0.0,0.0,0.0,0.0,0,0,0,0,0,1,1,0,0,0
80904000,12.150001,12.150001,-1.0,-1.0,0.0,0.0,1.0,1.0,0.0,3,0.0,0.0,0.0,0.0,0.0,0,0,0,0,0,1,1,0,0,0
81396000,12.150001,12.150001,-1.0,-1.0,0.0,0.0,1.0,1.0,0.0,3,0.0,0.0,0.0,0.0,0.0,0,0,0,0,0,1,1,0,0,0
81900000,12.150001,12.150001,-1.0,-1.0,0.0,0.0,1.0,1.0,0.0,3,0.0,0.0,0.0,0.0,0.0,0,0,0,0,0,1,1,0,0,0
82404000,12.150001,12.150001,-1.0,-1.0,0.0,0.0,1.0,1.0,0.0,3,0.0,0.0,0.0,0.0,0.0,0,0,0,0,0,1,1,0,0,0
82896000,12.150001,12.150001,-1.0,-1.0,0.0,0.0,1.0,1.0,0.0,3,0.0,0.0,0.0,0.0,0.0,0,0,0,0,0,1,1,0,0,0
83400000,12.150001,12.150001,-1.0,-1.0,0.0,0.0,1.0,1.0,0.0,3,0.0,0.0,0.0,0.0,0.0,0,0,0,0,0,1,1,0,0,0
83904000,12.150001,12.150001,-1.0,-1.0,0.0,0.0,1.0,1.0,0.0,3,0.0,0.0,0.0,0.0,0.0,0,0,0,0,0,1,1,0,0,0
84396000,12.150001,12.150001,-1.0,-1.0,0.0,0.0,1.0,1.0,0.0,3,0.0,0.0,0.0,0.0,0.0,0,0,0,0,0,1,1,0,0,0
84900000,12.150001,12.150001,-1.0,-1.0,0.0,0.0,1.0,1.0,0.0,3,0.0,0.0,0.0,0.0,0.0,0,0,0,0,0,1,1,0,0,0
85404000,12.150001,12.150001,-1.0,-1.0,0.0,0.0,1.0,1.0,0.0,3,0.0,0.0,0.0,0.0,0.0,0,0,0,0,0,1,1,0,0,0
85896000,12.150001,12.150001,-1.0,-1.0,0.0,0.0,1.0,1.0,0.0,3,0.0,0.0,0.0,0.0,0.0,0,0,0,0,0,1,1,0,0,0
86400000,12.150001,12.150001,-1.0,-1.0,0.0,0.0,1.0,1.0,0.0,3,0.0,0.0,0.0,0.0,0.0,0,0,0,0,0,1,1,0,0,0
86904000,12.150001,12.150001,-1.0,-1.0,0.0,0.0,1.0,1.0,0.0,3,0.0,0.0,0.0,0.0,0.0,0,0,0,0,0,1,1,0,0,0
87396000,12.150001,12.150001,-1.0,-1.0,0.0,0.0,1.0,1.0,0.0,3,0.0,0.0,0.0,0.0,0.0,0,0,0,0,0,1,1,0,0,0
87900000,12.150001,12.150001,-1.0,-1.0,0.0,0.0,1.0,1.0,0.0,3,0.0,0.0,0.0,0.0,0.0,0,0,0,0,0,1,1,0,0,0
88404000,12.150001,12.150001,-1.0,-1.0,0.0,0.0,1.0,1.0,0.0,3,0.0,0.0,0.0,0.0,0.0,0,0,0,0,0,1,1,0,0,0
88896000,12.150001,12.150001,-1.0,-1.0,0.0,0.0,1.0,1.0,0.0,3,0.0,0.0,0.0,0.0,0.0,0,0,0,0,0,1,1,0,0,0
89400000,12.150001,12.150001,-1.0,-1.0,0.0,0.0,1.0,1.0,0.0,3,0.0,0.0,0.0,0.0,0.0,0,0,0,0,0,1,1,0,0,0
89904000,12.150001,12.150001,-1.0,-1.0,0.0,0.0,1.0,1.0,0.0,3,0.0,0.0,0.0,0.0,0.0,0,0,0,0,0,1,1,0,0,0
90396000,12.150001,12.150001,-1.0,-1.0,0.0,0.0,1.0,1.0,0.0,3,0.0,0.0,0.0,0.0,0.0,0,0,0,0,0,1,1,0,0,0
90900000,12.150001,12.150001,-1.0,-1.0,0.0,0.0,1.0,1.0,0.0,3,0.0,0.0,0.0,0.0,0.0,0,0,0,0,0,1,1,0,0,0
91404000,12.150001,12.150001,-1.0,-1.0,0.0,0.0,1.0,1.0,0.0,3,0.0,0.0,0.0,0.0,0.0,0,0,0,0,0,1,1,0,0,0
91896000,12.150001,12.150001,-1.0,-1.0,0.0,0.0,1.0,1.0,0.0,3,0.0,0.0,0.0,0.0,0.0,0,0,0,0,0,1,1,0,0,0
92400000,12.148021,12.149933,-1.0,-1.0,0.0,0.0,0.99995923,1.0000055,0.0,3,0.0,0.0,0.0,0.0,0.0,0,0,0,0,0,1,1,0,0,0
92904000,12.134161,12.146671,-1.0,-1.0,0.0,0.0,0.9979825,1.0002741,0.0,3,0.0,0.0,0.0,0.0,0.0,0,0,0,0,0,1,1,0,0,0
93396000,12.12063,12.139951,-1.0,-1.0,0.0,0.0,0.9939095,1.0008278,0.0,3,0.0,0.0,0.0,0.0,0.0,0,0,0,0,0,1,1,0,0,0
93900000,12.1067705,12.130695,-1.0,-1.0,0.0,0.0,0.98830014,1.0015914,0.0,3,0.0,0.0,0.0,0.0,0.0,0,0,0,0,0,1,1,0,0,0
94404000,12.092911,12.11985,-1.0,-1.0,0.0,0.0,0.9817267,1.0024878,0.0,3,0.0,0.0,0.0,0.0,0.0,0,0,0,0,0,1,1,0,0,0
94896000,12.07938,12.108259,-1.0,-1.0,0.0,0.0,0.9747025,1.0034473,0.0,3,0.0,0.0,0.0,0.0,0.0,0,0,0,0,0,1,1,0,0,0
95400000,12.06552,12.095709,-1.0,-1.0,0.0,0.0,0.9670956,1.0044886,0.0,3,0.0,0.0,0.0,0.0,0.0,0,0,0,0,0,1,1,0,0,0
95904000,12.051661,12.082706,-1.0,-1.0,0.0,0.0,0.9592157,1.0055695,0.0,3,0.0,0.0,0.0,0.0,0.0,0,0,0,0,0,1,1,0,0,0
96396000,12.03813,12.069728,-1.0,-1.0,0.0,0.0,0.9513496,1.0066508,0.0,3,0.0,0.0,0.0,0.0,0.0,0,0,0,0,0,1,1,0,0,0
96900000,12.02427,12.056242,-1.0,-1.0,0.0,0.0,0.9431766,1.0077767,0.0,3,0.0,0.0,0.0,0.0,0.0,0,0,0,0,0,1,1,0,0,0
97404000,12.010411,12.042627,-1.0,-1.0,0.0,0.0,0.9349256,1.008916,0.0,3,0.0,0.0,0.0,0.0,0.0,0,0,0,0,0,1,1,0,0,0
97896000,11.996881,12.029255,-1.0,-1.0,0.0,0.0,0.9268211,1.0100377,0.0,3,0.0,0.0,0.0,0.0,0.0,0,0,0,0,0,1,1,0,0,0
98400000,11.983021,12.015501,-1.0,-1.0,0.0,0.0,0.9184851,1.0111939,0.0,3,0.0,0.0,0.0,0.0,0.0,0,0,0,0,0,1,1,0,0,0
98904000,11.96916,12.001712,-1.0,-1.0,0.0,0.0,0.91012836,1.0123556,0.0,3,0.0,0.0,0.0,0.0,0.0,0,0,0,0,0,1,1,0,0,0
99396000,11.95563,11.988226,-1.0,-1.0,0.0,0.0,0.90195495,1.0134945,0.0,3,0.0,0.0,0.0,0.0,0.0,0,0,0,0,0,1,1,0,0,0
99900000,11.941771,11.974395,-1.0,-1.0,0.0,0.0,0.89357215,1.0146651,0.0,3,0.0,0.0,0.0,0.0,0.0,0,0,0,0,0,1,1,0,0,0
100404000,11.927911,11.960554,-1.0,-1.0,0.0,0.0,0.88518417,1.0158392,0.0,3,0.0,0.0,0.0,0.0,0.0,0,0,0,0,0,1,1,0,0,0
100896000,11.91438,11.947037,-1.0,-1.0,0.0,0.0,0.8769916,1.0169886,0.0,3,0.0,0.0,0.0,0.0,0.0,0,0,0,0,0,1,1,0,0,0
101400000,11.90052,11.933185,-1.0,-1.0,0.0,0.0,0.86859626,1.0181692,0.0,3,0.0,0.0,0.0,0.0,0.0,0,0,0,0,0,1,1,0,0,0
101904000,11.886661,11.919331,-1.0,-1.0,0.0,0.0,0.86020005,1.0193526,0.0,3,0.0,0.0,0.0,0.0,0.0,0,0,0,0,0,1,1,0,0,0
102396000,11.873131,11.905804,-1.0,-1.0,0.0,0.0,0.8520019,1.0205108,0.0,3,0.0,0.0,0.0,0.0,0.0,0,0,0,0,0,1,1,0,0,0
102900000,11.85927,11.891947,-1.0,-1.0,0.0,0.0,0.84360397,1.0216999,0.0,3,0.0,0.0,0.0,0.0,0.0,0,0,0,0,0,1,1,0,0,0
103404000,11.84541,11.878088,-1.0,-1.0,0.0,0.0,0.83520466,1.0228919,0.0,3,0.0,0.0,0.0,0.0,0.0,0,0,0,0,0,1,1,0,0,0
103896000,11.831881,11.864559,-1.0,-1.0,0.0,0.0,0.82700527,1.0240583,0.0,3,0.0,0.0,0.0,0.0,0.0,0,0,0,0,0,1,1,0,0,0
104400000,11.81802,11.8507,-1.0,-1.0,0.0,0.0,0.818606,1.0252559,0.0,3,0.0,0.0,0.0,0.0,0.0,0,0,0,0,0,1,1,0,0,0
104904000,11.80416,11.83684,-1.0,-1.0,0.0,0.0,0.8102054,1.0264565,0.0,3,0.0,0.0,0.0,0.0,0.0,0,0,0,0,0,1,1,0,0,0
105396000,11.79063,11.82331,-1.0,-1.0,0.0,0.0,0.8020056,1.027631,0.0,3,0.0,0.0,0.0,0.0,0.0,0,0,0,0,0,1,1,0,0,0
105900000,11.77677,11.80945,-1.0,-1.0,0.0,0.0,0.79360586,1.0288371,0.0,3,0.0,0.0,0.0,0.0,0.0,0,0,0,0,0,1,1,0,0,0
106404000,11.762911,11.795589,-1.0,-1.0,0.0,0.0,0.7852053,1.0300461,0.0,3,0.0,0.0,0.0,0.0,0.0,0,0,0,0,0,1,1,0,0,0
106896000,11.74938,11.78206,-1.0,-1.0,0.0,0.0,0.77700543,1.0312289,0.0,3,0.0,0.0,0.0,0.0,0.0,0,0,0,0,0,1,1,0,0,0
107400000,11.73552,11.7682,-1.0,-1.0,0.0,0.0,0.7686057,1.0324434,0.0,3,0.0,0.0,0.0,0.0,0.0,0,0,0,0,0,1,1,0,0,0
107904000,11.721661,11.754339,-1.0,-1.0,0.0,0.0,0.76020515,1.0336609,0.0,3,0.0,0.0,0.0,0.0,0.0,0,0,0,0,0,1,1,0,0,0
108396000,11.708131,11.740809,-1.0,-1.0,0.0,0.0,0.7520053,1.034852,0.0,3,0.0,0.0,0.0,0.0,0.0,0,0,0,0,0,1,1,0,0,0
108900000,11.69427,11.72695,-1.0,-1.0,0.0,0.0,0.7436056,1.0360751,0.0,3,0.0,0.0,0.0,0.0,0.0,0,0,0,0,0,1,1,0,0,0
109404000,11.68041,11.713089,-1.0,-1.0,0.0,0.0,0.73520505,1.0373012,0.0,3,0.0,0.0,0.0,0.0,0.0,0,0,0,0,0,1,1,0,0,0
109896000,11.666881,11.699559,-1.0,-1.0,0.0,0.0,0.7270052,1.0385008,0.0,3,0.0,0.0,0.0,0.0,0.0,0,0,0,0,0,1,1,0,0,0
110400000,11.65302,11.685699,-1.0,-1.0,0.0,0.0,0.71860546,1.0397325,0.0,3,0.0,0.0,0.0,0.0,0.0,0,0,0,0,0,1,1,0,0,0
110904000,11.63916,11.67184,-1.0,-1.0,0.0,0.0,0.7102058,1.040967,0.0,3,0.0,0.0,0.0,0.0,0.0,0,0,0,0,0,1,1,0,0,0
111396000,11.62563,11.65831,-1.0,-1.0,0.0,0.0,0.7020059,1.042175,0.0,3,0.0,0.0,0.0,0.0,0.0,0,0,0,0,0,1,1,0,0,0
111900000,11.611771,11.644451,-1.0,-1.0,0.0,0.0,0.6936066,1.0434154,0.0,3,0.0,0.0,0.0,0.0,0.0,0,0,0,0,0,1,1,0,0,0
112404000,11.59791,11.63059,-1.0,-1.0,0.0,0.0,0.68520606,1.044659,0.0,3,0.0,0.0,0.0,0.0,0.0,0,0,0,0,0,1,1,0,0,0
112896000,11.584381,11.61706,-1.0,-1.0,0.0,0.0,0.67700577,1.0458757,0.0,3,0.0,0.0,0.0,0.0,0.0,0,0,0,0,0,1,1,0,0,0
113400000,11.57052,11.603201,-1.0,-1.0,0.0,0.0,0.6686065,1.0471249,0.0,3,0.0,0.0,0.0,0.0,0.0,0,0,0,0,0,1,1,0,0,0
113904000,11.55666,11.58934,-1.0,-1.0,0.0,0.0,0.66020596,1.0483773,0.0,3,0.0,0.0,0.0,0.0,0.0,0,0,0,0,0,1,1,0,0,0
114396000,11.543131,11.5758095,-1.0,-1.0,0.0,0.0,0.6520057,1.0496026,0.0,3,0.0,0.0,0.0,0.0,0.0,0,0,0,0,0,1,1,0,0,0
114900000,11.52927,11.561951,-1.0,-1.0,0.0,0.0,0.64360636,1.0508608,0.0,3,0.0,0.0,0.0,0.0,0.0,0,0,0,0,0,1,1,0,0,0
115404000,11.515409,11.54809,-1.0,-1.0,0.0,0.0,0.6352058,1.0521221,0.0,3,0.0,0.0,0.0,0.0,0.0,0,0,0,0,0,1,1,0,0,0
115896000,11.501881,11.53456,-1.0,-1.0,0.0,0.0,0.62700593,1.0533562,0.0,3,0.0,0.0,0.0,0.0,0.0,0,0,0,0,0,1,1,0,0,0
116400000,11.488021,11.5207,-1.0,-1.0,0.0,0.0,0.61860627,1.0546234,0.0,3,0.0,0.0,0.0,0.0,0.0,0,0,0,0,0,1,1,0,0,0
116904000,11.47416,11.50684,-1.0,-1.0,0.0,0.0,0.6102057,1.0558938,0.0,3,0.0,0.0,0.0,0.0,0.0,0,0,0,0,0,1,1,0,0,0
117396000,11.46063,11.49331,-1.0,-1.0,0.0,0.0,0.60200584,1.0571368,0.0,3,0.0,0.0,0.0,0.0,0.0,0,0,0,0,0,1,1,0,0,0
117900000,11.446771,11.47945,-1.0,-1.0,0.0,0.0,0.5936061,1.058413,0.0,3,0.0,0.0,0.0,0.0,0.0,0,0,0,0,0,1,1,0,0,0
118404000,11.43291,11.46559,-1.0,-1.0,0.0,0.0,0.58520555,1.0596926,0.0,3,0.0,0.0,0.0,0.0,0.0,0,0,0,0,0,1,1,0,0,0
118896000,11.41938,11.45206,-1.0,-1.0,0.0,0.0,0.5770057,1.0609446,0.0,3,0.0,0.0,0.0,0.0,0.0,0,0,0,0,0,1,1,0,0,0
119400000,11.40552,11.4382,-1.0,-1.0,0.0,0.0,0.568606,1.0622301,0.0,3,0.0,0.0,0.0,0.0,0.0,0,0,0,0,0,1,1,0,0,0
119904000,11.391661,11.424339,-1.0,-1.0,0.0,0.0,0.5602054,1.0635189,0.0,3,0.0,0.0,0.0,0.0,0.0,0,0,0,0,0,1,1,0,0,0
120396000,11.37813,11.4108095,-1.0,-1.0,0.0,0.0,0.5520056,1.0647799,0.0,3,0.0,0.0,0.0,0.0,0.0,0,0,0,0,0,1,1,0,0,0
120900000,11.364271,11.39695,-1.0,-1.0,0.0,0.0,0.54360586,1.0660747,0.0,3,0.0,0.0,0.0,0.0,0.0,0,0,0,0,0,1,1,0,0,0
121404000,11.35041,11.383089,-1.0,-1.0,0.0,0.0,0.5352053,1.0673729,0.0,3,0.0,0.0,0.0,0.0,0.0,0,0,0,0,0,1,1,0,0,0
121896000,11.336881,11.369559,-1.0,-1.0,0.0,0.0,0.52700543,1.0686431,0.0,3,0.0,0.0,0.0,0.0,0.0,0,0,0,0,0,1,1,0,0,0
122400000,11.32335,11.355703,-1.0,-1.0,0.0,0.0,0.5186079,1.069947,0.0,3,0.0,0.0,0.0,0.0,0.0,0,0,0,0,0,1,1,0,0,0
122904000,11.32335,11.344567,-1.0,-1.0,0.0,0.0,0.51185894,1.0709972,0.0,3,0.0,0.0,0.0,0.0,0.0,0,0,0,0,0,1,1,0,0,0
123396000,11.32335,11.337409,-1.0,-1.0,0.0,0.0,0.50752056,1.0716735,0.0,3,0.0,0.0,0.0,0.0,0.0,0,0,0,0,0,1,1,0,0,0
123900000,11.32335,11.332573,-1.0,-1.0,0.0,0.0,0.5045893,1.0721308,0.0,3,0.0,0.0,0.0,0.0,0.0,0,0,0,0,0,1,1,0,0,0
124404000,11.32335,11.3294,-1.0,-1.0,0.0,0.0,0.50266635,1.0724311,0.0,3,0.0,0.0,0.0,0.0,0.0,0,0,0,0,0,1,1,0,0,0
124896000,11.32335,11.327363,-1.0,-1.0,0.0,0.0,0.5014318,1.072624,0.0,3,0.0,0.0,0.0,0.0,0.0,0,0,0,0,0,1,1,0,0,0
125400000,11.32335,11.325987,-1.0,-1.0,0.0,0.0,0.5005978,1.0727543,0.0,3,0.0,0.0,0.0,0.0,0.0,0,0,0,0,0,1,1,0,0,0
125904000,11.32335,11.325085,-1.0,-1.0,0.0,0.0,0.50005114,1.0728397,0.0,3,0.0,0.0,0.0,0.0,0.0,0,0,0,0,0,1,1,0,0,0
126396000,11.32335,11.324506,-1.0,-1.0,0.0,0.0,0.49970046,1.0728946,0.0,3,0.0,0.0,0.0,0.0,0.0,0,0,0,0,0,1,1,0,0,0
126900000,11.32335,11.324115,-1.0,-1.0,0.0,0.0,0.49946332,1.0729316,0.0,3,0.0,0.0,0.0,0.0,0.0,0,0,0,0,0,1,1,0,0,0
127404000,11.32335,11.323858,-1.0,-1.0,0.0,0.0,0.49930772,1.072956,0.0,3,0.0,0.0,0.0,0.0,0.0,0,0,0,0,0,1,1,0,0,0
127896000,11.32335,11.323692,-1.0,-1.0,0.0,0.0,0.49920714,1.0729717,0.0,3,0.0,0.0,0.0,0.0,0.0,0,0,0,0,0,1,1,0,0,0
128400000,11.32335,11.323583,-1.0,-1.0,0.0,0.0,0.49914083,1.0729821,0.0,3,0.0,0.0,0.0,0.0,0.0,0,0,0,0,0,1,1,0,0,0
128903999,11.32335,11.323506,-1.0,-1.0,0.0,0.0,0.49909443,1.0729892,0.0,3,0.0,0.0,0.0,0.0,0.0,0,0,0,0,0,1,1,0,0,0
129408000,11.32335,11.323466,-1.0,-1.0,0.0,0.0,0.49907017,1.072993,0.0,3,0.0,0.0,0.0,0.0,0.0,0,0,0,0,0,1,1,0,0,0
129900000,11.32335,11.323427,-1.0,-1.0,0.0,0.0,0.49904674,1.0729967,0.0,3,0.0,0.0,0.0,0.0,0.0,0,0,0,0,0,1,1,0,0,0
130403999,11.32335,11.323415,-1.0,-1.0,0.0,0.0,0.49903893,1.0729979,0.0,3,0.0,0.0,0.0,0.0,0.0,0,0,0,0,0,1,1,0,0,0
130908000,11.32335,11.323415,-1.0,-1.0,0.0,0.0,0.49903893,1.0729979,0.0,3,0.0,0.0,0.0,0.0,0.0,0,0,0,0,0,1,1,0,0,0
131400000,11.32335,11.323415,-1.0,-1.0,0.0,0.0,0.49903893,1.0729979,0.0,3,0.0,0.0,0.0,0.0,0.0,0,0,0,0,0,1,1,0,0,0
131903999,11.32335,11.323415,-1.0,-1.0,0.0,0.0,0.49903893,1.0729979,0.0,3,0.0,0.0,0.0,0.0,0.0,0,0,0,0,0,1,1,0,0,0
132408000,11.32335,11.323415,-1.0,-1.0,0.0,0.0,0.49903893,1.0729979,0.0,3,0.0,0.0,0.0,0.0,0.0,0,0,0,0,0,1,1,0,0,0
132900000,11.32335,11.323415,-1.0,-1.0,0.0,0.0,0.49903893,1.0729979,0.0,3,0.0,0.0,0.0,0.0,0.0,0,0,0,0,0,1,1,0,0,0
133403999,11.32335,11.323415,-1.0,-1.0,0.0,0.0,0.49903893,1.0729979,0.0,3,0.0,0.0,0.0,0.0,0.0,0,0,0,0,0,1,1,0,0,0
133908000,11.32335,11.323415,-1.0,-1.0,0.0,0.0,0.49903893,1.0729979,0.0,3,0.0,0.0,0.0,0.0,0.0,0,0,0,0,0,1,1,0,0,0
134400000,11.32335,11.323415,-1.0,-1.0,0.0,0.0,0.49903893,1.0729979,0.0,3,0.0,0.0,0.0,0.0,0.0,0,0,0,0,0,1,1,0,0,0
134904000,11.32335,11.323415,-1.0,-1.0,0.0,0.0,0.49903893,1.0729979,0.0,3,0.0,0.0,0.0,0.0,0.0,0,0,0,0,0,1,1,0,0,0
135408000,11.32335,11.323415,-1.0,-1.0,0.0,0.0,0.49903893,1.0729979,0.0,3,0.0,0.0,0.0,0.0,0.0,0,0,0,0,0,1,1,0,0,0
135900000,11.32335,11.323415,-1.0,-1.0,0.0,0.0,0.49903893,1.0729979,0.0,3,0.0,0.0,0.0,0.0,0.0,0,0,0,0,0,1,1,0,0,0
136404000,11.32335,11.323415,-1.0,-1.0,0.0,0.0,0.49903893,1.0729979,0.0,3,0.0,0.0,0.0,0.0,0.0,0,0,0,0,0,1,1,0,0,0
136908000,11.32335,11.323415,-1.0,-1.0,0.0,0.0,0.49903893,1.0729979,0.0,3,0.0,0.0,0.0,0.0,0.0,0,0,0,0,0,1,1,0,0,0
137400000,11.32335,11.323415,-1.0,-1.0,0.0,0.0,0.49903893,1.0729979,0.0,3,0.0,0.0,0.0,0.0,0.0,0,0,0,0,0,1,1,0,0,0
137904000,11.32335,11.323415,-1.0,-1.0,0.0,0.0,0.49903893,1.0729979,0.0,3,0.0,0.0,0.0,0.0,0.0,0,0,0,0,0,1,1,0,0,0
138408000,11.32335,11.323415,-1.0,-1.0,0.0,0.0,0.49903893,1.0729979,0.0,3,0.0,0.0,0.0,0.0,0.0,0,0,0,0,0,1,1,0,0,0
138900000,11.32335,11.323415,-1.0,-1.0,0.0,0.0,0.49903893,1.0729979,0.0,3,0.0,0.0,0.0,0.0,0.0,0,0,0,0,0,1,1,0,0,0
139404000,11.32335,11.323415,-1.0,-1.0,0.0,0.0,0.49903893,1.0729979,0.0,3,0.0,0.0,0.0,0.0,0.0,0,0,0,0,0,1,1,0,0,0
139908000,11.32335,11.323415,-1.0,-1.0,0.0,0.0,0.49903893,1.0729979,0.0,3,0.0,0.0,0.0,0.0,0.0,0,0,0,0,0,1,1,0,0,0
140400000,11.32335,11.323415,-1.0,-1.0,0.0,0.0,0.49903893,1.0729979,0.0,3,0.0,0.0,0.0,0.0,0.0,0,0,0,0,0,1,1,0,0,0
140904000,11.32335,11.323415,-1.0,-1.0,0.0,0.0,0.49903893,1.0729979,0.0,3,0.0,0.0,0.0,0.0,0.0,0,0,0,0,0,1,1,0,0,0
141408000,11.32335,11.323415,-1.0,-1.0,0.0,0.0,0.49903893,1.0729979,0.0,3,0.0,0.0,0.0,0.0,0.0,0,0,0,0,0,1,1,0,0,0
141900000,11.32335,11.323415,-1.0,-1.0,0.0,0.0,0.49903893,1.0729979,0.0,3,0.0,0.0,0.0,0.0,0.0,0,0,0,0,0,1,1,0,0,0
142404000,11.32335,11.323415,-1.0,-1.0,0.0,0.0,0.49903893,1.0729979,0.0,3,0.0,0.0,0.0,0.0,0.0,0,0,0,0,0,1,1,0,0,0
142908000,11.32335,11.323415,-1.0,-1.0,0.0,0.0,0.49903893,1.0729979,0.0,3,0.0,0.0,0.0,0.0,0.0,0,0,0,0,0,1,1,0,0,0
143400000,11.32335,11.323415,-1.0,-1.0,0.0,0.0,0.49903893,1.0729979,0.0,3,0.0,0.0,0.0,0.0,0.0,0,0,0,0,0,1,1,0,0,0
143904000,11.32335,11.323415,-1.0,-1.0,0.0,0.0,0.49903893,1.0729979,0.0,3,0.0,0.0,0.0,0.0,0.0,0,0,0,0,0,1,1,0,0,0
144408000,11.32335,11.323415,-1.0,-1.0,0.0,0.0,0.49903893,1.0729979,0.0,3,0.0,0.0,0.0,0.0,0.0,0,0,0,0,0,1,1,0,0,0
144900000,11.32335,11.323415,-1.0,-1.0,0.0,0.0,0.49903893,1.0729979,0.0,3,0.0,0.0,0.0,0.0,0.0,0,0,0,0,0,1,1,0,0,0
145404000,11.32335,11.323415,-1.0,-1.0,0.0,0.0,0.49903893,1.0729979,0.0,3,0.0,0.0,0.0,0.0,0.0,0,0,0,0,0,1,1,0,0,0
145908000,11.32335,11.323415,-1.0,-1.0,0.0,0.0,0.49903893,1.0729979,0.0,3,0.0,0.0,0.0,0.0,0.0,0,0,0,0,0,1,1,0,0,0
146400000,11.32335,11.323415,-1.0,-1.0,0.0,0.0,0.49903893,1.0729979,0.0,3,0.0,0.0,0.0,0.0,0.0,0,0,0,0,0,1,1,0,0,0
146904000,11.32335,11.323415,-1.0,-1.0,0.0,0.0,0.49903893,1.0729979,0.0,3,0.0,0.0,0.0,0.0,0.0,0,0,0,0,0,1,1,0,0,0
147408000,11.32335,11.323415,-1.0,-1.0,0.0,0.0,0.49903893,1.0729979,0.0,3,0.0,0.0,0.0,0.0,0.0,0,0,0,0,0,1,1,0,0,0
147900000,11.32335,11.323415,-1.0,-1.0,0.0,0.0,0.49903893,1.0729979,0.0,3,0.0,0.0,0.0,0.0,0.0,0,0,0,0,0,1,1,0,0,0
148404000,11.32335,11.323415,-1.0,-1.0,0.0,0.0,0.49903893,1.0729979,0.0,3,0.0,0.0,0.0,0.0,0.0,0,0,0,0,0,1,1,0,0,0
148908000,11.32335,11.323415,-1.0,-1.0,0.0,0.0,0.49903893,1.0729979,0.0,3,0.0,0.0,0.0,0.0,0.0,0,0,0,0,0,1,1,0,0,0
149400000,11.32335,11.323415,-1.0,-1.0,0.0,0.0,0.49903893,1.0729979,0.0,3,0.0,0.0,0.0,0.0,0.0,0,0,0,0,0,1,1,0,0,0
149904000,11.32335,11.323415,-1.0,-1.0,0.0,0.0,0.49903893,1.0729979,0.0,3,0.0,0.0,0.0,0.0,0.0,0,0,0,0,0,1,1,0,0,0
150408000,11.32335,11.323415,-1.0,-1.0,0.0,0.0,0.49903893,1.0729979,0.0,3,0.0,0.0,0.0,0.0,0.0,0,0,0,0,0,1,1,0,0,0
150900000,11.32335,11.323415,-1.0,-1.0,0.0,0.0,0.49903893,1.0729979,0.0,3,0.0,0.0,0.0,0.0,0.0,0,0,0,0,0,1,1,0,0,0
151404000,11.32335,11.323415,-1.0,-1.0,0.0,0.0,0.49903893,1.0729979,0.0,3,0.0,0.0,0.0,0.0,0.0,0,0,0,0,0,1,1,0,0,0
151908000,11.32335,11.323415,-1.0,-1.0,0.0,0.0,0.49903893,1.0729979,0.0,3,0.0,0.0,0.0,0.0,0.0,0,0,0,0,0,1,1,0,0,0
152400000,11.32335,11.323415,-1.0,-1.0,0.0,0.0,0.49903893,1.0729979,0.0,3,0.0,0.0,0.0,0.0,0.0,0,0,0,0,0,1,1,0,0,0
152904000,11.32335,11.323415,-1.0,-1.0,0.0,0.0,0.49903893,1.0729979,0.0,3,0.0,0.0,0.0,0.0,0.0,0,0,0,0,0,1,1,0,0,0
153408000,11.32335,11.323415,-1.0,-1.0,0.0,0.0,0.49903893,1.0729979,0.0,3,0.0,0.0,0.0,0.0,0.0,0,0,0,0,0,1,1,0,0,0
153900000,11.32335,11.323415,-1.0,-1.0,0.0,0.0,0.49903893,1.0729979,0.0,3,0.0,0.0,0.0,0.0,0.0,0,0,0,0,0,1,1,0,0,0
154404000,11.32335,11.323415,-1.0,-1.0,0.0,0.0,0.49903893,1.0729979,0.0,3,0.0,0.0,0.0,0.0,0.0,0,0,0,0,0,1,1,0,0,0
154908000,11.32335,11.323415,-1.0,-1.0,0.0,0.0,0.49903893,1.0729979,0.0,3,0.0,0.0,0.0,0.0,0.0,0,0,0,0,0,1,1,0,0,0
155400000,11.32335,11.323415,-1.0,-1.0,0.0,0.0,0.49903893,1.0729979,0.0,3,0.0,0.0,0.0,0.0,0.0,0,0,0,0,0,1,1,0,0,0
155904000,11.32335,11.323415,-1.0,-1.0,0.0,0.0,0.49903893,1.0729979,0.0,3,0.0,0.0,0.0,0.0,0.0,0,0,0,0,0,1,1,0,0,0
156408000,11.32335,11.323415,-1.0,-1.0,0.0,0.0,0.49903893,1.0729979,0.0,3,0.0,0.0,0.0,0.0,0.0,0,0,0,0,0,1,1,0,0,0
156900000,11.32335,11.323415,-1.0,-1.0,0.0,0.0,0.49903893,1.0729979,0.0,3,0.0,0.0,0.0,0.0,0.0,0,0,0,0,0,1,1,0,0,0
157404000,11.32335,11.323415,-1.0,-1.0,0.0,0.0,0.49903893,1.0729979,0.0,3,0.0,0.0,0.0,0.0,0.0,0,0,0,0,0,1,1,0,0,0
157908000,11.32335,11.323415,-1.0,-1.0,0.0,0.0,0.49903893,1.0729979,0.0,3,0.0,0.0,0.0,0.0,0.0,0,0,0,0,0,1,1,0,0,0
158400000,11.32335,11.323415,-1.0,-1.0,0.0,0.0,0.49903893,1.0729979,0.0,3,0.0,0.0,0.0,0.0,0.0,0,0,0,0,0,1,1,0,0,0
158904000,11.32335,11.323415,-1.0,-1.0,0.0,0.0,0.49903893,1.0729979,0.0,3,0.0,0.0,0.0,0.0,0.0,0,0,0,0,0,1,1,0,0,0
159408000,11.32335,11.323415,-1.0,-1.0,0.0,0.0,0.49903893,1.0729979,0.0,3,0.0,0.0,0.0,0.0,0.0,0,0,0,0,0,1,1,0,0,0
159900000,11.32335,11.323415,-1.0,-1.0,0.0,0.0,0.49903893,1.0729979,0.0,3,0.0,0.0,0.0,0.0,0.0,0,0,0,0,0,1,1,0,0,0
160404000,11.32335,11.323415,-1.0,-1.0,0.0,0.0,0.49903893,1.0729979,0.0,3,0.0,0.0,0.0,0.0,0.0,0,0,0,0,0,1,1,0,0,0
160908000,11.32335,11.323415,-1.0,-1.0,0.0,0.0,0.49903893,1.0729979,0.0,3,0.0,0.0,0.0,0.0,0.0,0,0,0,0,0,1,1,0,0,0
161400000,11.32335,11.323415,-1.0,-1.0,0.0,0.0,0.49903893,1.0729979,0.0,3,0.0,0.0,0.0,0.0,0.0,0,0,0,0,0,1,1,0,0,0
161904000,11.32335,11.323415,-1.0,-1.0,0.0,0.0,0.49903893,1.0729979,0.0,3,0.0,0.0,0.0,0.0,0.0,0,0,0,0,0,1,1,0,0,0
162408000,11.32335,11.323415,-1.0,-1.0,0.0,0.0,0.49903893,1.0729979,0.0,3,0.0,0.0,0.0,0.0,0.0,0,0,0,0,0,1,1,0,0,0
162900000,11.32335,11.323415,-1.0,-1.0,0.0,0.0,0.49903893,1.0729979,0.0,3,0.0,0.0,0.0,0.0,0.0,0,0,0,0,0,1,1,0,0,0
163404000,11.32335,11.323415,-1.0,-1.0,0.0,0.0,0.49903893,1.0729979,0.0,3,0.0,0.0,0.0,0.0,0.0,0,0,0,0,0,1,1,0,0,0
163908000,11.32335,11.323415,-1.0,-1.0,0.0,0.0,0.49903893,1.0729979,0.0,3,0.0,0.0,0.0,0.0,0.0,0,0,0,0,0,1,1,0,0,0
164400000,11.32335,11.323415,-1.0,-1.0,0.0,0.0,0.49903893,1.0729979,0.0,3,0.0,0.0,0.0,0.0,0.0,0,0,0,0,0,1,1,0,0,0
164904000,11.32335,11.323415,-1.0,-1.0,0.0,0.0,0.49903893,1.0729979,0.0,3,0.0,0.0,0.0,0.0,0.0,0,0,0,0,0,1,1,0,0,0
165408000,11.32335,11.323415,-1.0,-1.0,0.0,0.0,0.49903893,1.0729979,0.0,3,0.0,0.0,0.0,0.0,0.0,0,0,0,0,0,1,1,0,0,0
165900000,11.32335,11.323415,-1.0,-1.0,0.0,0.0,0.49903893,1.0729979,0.0,3,0.0,0.0,0.0,0.0,0.0,0,0,0,0,0,1,1,0,0,0
166404000,11.32335,11.323415,-1.0,-1.0,0.0,0.0,0.49903893,1.0729979,0.0,3,0.0,0.0,0.0,0.0,0.0,0,0,0,0,0,1,1,0,0,0
166908000,11.32335,11.323415,-1.0,-1.0,0.0,0.0,0.49903893,1.0729979,0.0,3,0.0,0.0,0.0,0.0,0.0,0,0,0,0,0,1,1,0,0,0
167400000,11.32335,11.323415,-1.0,-1.0,0.0,0.0,0.49903893,1.0729979,0.0,3,0.0,0.0,0.0,0.0,0.0,0,0,0,0,0,1,1,0,0,0
167904000,11.32335,11.323415,-1.0,-1.0,0.0,0.0,0.49903893,1.0729979,0.0,3,0.0,0.0,0.0,0.0,0.0,0,0,0,0,0,1,1,0,0,0
168408000,11.32335,11.323415,-1.0,-1.0,0.0,0.0,0.49903893,1.0729979,0.0,3,0.0,0.0,0.0,0.0,0.0,0,0,0,0,0,1,1,0,0,0
168900000,11.32335,11.323415,-1.0,-1.0,0.0,0.0,0.49903893,1.0729979,0.0,3,0.0,0.0,0.0,0.0,0.0,0,0,0,0,0,1,1,0,0,0
169404000,11.32335,11.323415,-1.0,-1.0,0.0,0.0,0.49903893,1.0729979,0.0,3,0.0,0.0,0.0,0.0,0.0,0,0,0,0,0,1,1,0,0,0
169908000,11.32335,11.323415,-1.0,-1.0,0.0,0.0,0.49903893,1.0729979,0.0,3,0.0,0.0,0.0,0.0,0.0,0,0,0,0,0,1,1,0,0,0
170400000,11.32335,11.323415,-1.0,-1.0,0.0,0.0,0.49903893,1.0729979,0.0,3,0.0,0.0,0.0,0.0,0.0,0,0,0,0,0,1,1,0,0,0
170904000,11.32335,11.323415,-1.0,-1.0,0.0,0.0,0.49903893,1.0729979,0.0,3,0.0,0.0,0.0,0.0,0.0,0,0,0,0,0,1,1,0,0,0
171408000,11.32335,11.323415,-1.0,-1.0,0.0,0.0,0.49903893,1.0729979,0.0,3,0.0,0.0,0.0,0.0,0.0,0,0,0,0,0,1,1,0,0,0
171900000,11.32335,11.323415,-1.0,-1.0,0.0,0.0,0.49903893,1.0729979,0.0,3,0.0,0.0,0.0,0.0,0.0,0,0,0,0,0,1,1,0,0,0
172404000,11.32335,11.323415,-1.0,-1.0,0.0,0.0,0.49903893,1.0729979,0.0,3,0.0,0.0,0.0,0.0,0.0,0,0,0,0,0,1,1,0,0,0
172908000,11.32335,11.323415,-1.0,-1.0,0.0,0.0,0.49903893,1.0729979,0.0,3,0.0,0.0,0.0,0.0,0.0,0,0,0,0,0,1,1,0,0,0
173400000,11.32335,11.323415,-1.0,-1.0,0.0,0.0,0.49903893,1.0729979,0.0,3,0.0,0.0,0.0,0.0,0.0,0,0,0,0,0,1,1,0,0,0
173904000,11.32335,11.323415,-1.0,-1.0,0.0,0.0,0.49903893,1.0729979,0.0,3,0.0,0.0,0.0,0.0,0.0,0,0,0,0,0,1,1,0,0,0
174408000,11.32335,11.323415,-1.0,-1.0,0.0,0.0,0.49903893,1.0729979,0.0,3,0.0,0.0,0.0,0.0,0.0,0,0,0,0,0,1,1,0,0,0
174900000,11.32335,11.323415,-1.0,-1.0,0.0,0.0,0.49903893,1.0729979,0.0,3,0.0,0.0,0.0,0.0,0.0,0,0,0,0,0,1,1,0,0,0
175404000,11.32335,11.323415,-1.0,-1.0,0.0,0.0,0.49903893,1.0729979,0.0,3,0.0,0.0,0.0,0.0,0.0,0,0,0,0,0,1,1,0,0,0
175908000,11.32335,11.323415,-1.0,-1.0,0.0,0.0,0.49903893,1.0729979,0.0,3,0.0,0.0,0.0,0.0,0.0,0,0,0,0,0,1,1,0,0,0
176400000,11.32335,11.323415,-1.0,-1.0,0.0,0.0,0.49903893,1.0729979,0.0,3,0.0,0.0,0.0,0.0,0.0,0,0,0,0,0,1,1,0,0,0
176904000,11.32335,11.323415,-1.0,-1.0,0.0,0.0,0.49903893,1.0729979,0.0,3,0.0,0.0,0.0,0.0,0.0,0,0,0,0,0,1,1,0,0,0
177408000,11.32335,11.323415,-1.0,-1.0,0.0,0.0,0.49903893,1.0729979,0.0,3,0.0,0.0,0.0,0.0,0.0,0,0,0,0,0,1,1,0,0,0
177900000,11.32335,11.323415,-1.0,-1.0,0.0,0.0,0.49903893,1.0729979,0.0,3,0.0,0.0,0.0,0.0,0.0,0,0,0,0,0,1,1,0,0,0
178404000,11.32335,11.323415,-1.0,-1.0,0.0,0.0,0.49903893,1.0729979,0.0,3,0.0,0.0,0.0,0.0,0.0,0,0,0,0,0,1,1,0,0,0
178908000,11.32335,11.323415,-1.0,-1.0,0.0,0.0,0.49903893,1.0729979,0.0,3,0.0,0.0,0.0,0.0,0.0,0,0,0,0,0,1,1,0,0,0
179400000,11.32335,11.323415,-1.0,-1.0,0.0,0.0,0.49903893,1.0729979,0.0,3,0.0,0.0,0.0,0.0,0.0,0,0,0,0,0,1,1,0,0,0
179904000,11.32335,11.323415,-1.0,-1.0,0.0,0.0,0.49903893,1.0729979,0.0,3,0.0,0.0,0.0,0.0,0.0,0,0,0,0,0,1,1,0,0,0
180408000,11.32335,11.323415,-1.0,-1.0,0.0,0.0,0.49903893,1.0729979,0.0,3,0.0,0.0,0.0,0.0,0.0,0,0,0,0,0,1,1,0,0,0
180900000,11.32335,11.323415,-1.0,-1.0,0.0,0.0,0.49903893,1.0729979,0.0,3,0.0,0.0,0.0,0.0,0.0,0,0,0,0,0,1,1,0,0,0
181404000,11.32335,11.323415,-1.0,-1.0,0.0,0.0,0.49903893,1.0729979,0.0,3,0.0,0.0,0.0,0.0,0.0,0,0,0,0,0,1,1,0,0,0
181908000,11.32335,11.323415,-1.0,-1.0,0.0,0.0,0.49903893,1.0729979,0.0,3,0.0,0.0,0.0,0.0,0.0,0,0,0,0,0,1,1,0,0,0
182400000,11.32335,11.323415,-1.0,-1.0,0.0,0.0,0.49903893,1.0729979,0.0,3,0.0,0.0,0.0,0.0,0.0,0,0,0,0,0,1,1,0,0,0
182904000,11.32335,11.323415,-1.0,-1.0,0.0,0.0,0.49903893,1.0729979,0.0,3,0.0,0.0,0.0,0.0,0.0,0,0,0,0,0,1,1,0,0,0
183408000,11.32335,11.323415,-1.0,-1.0,0.0,0.0,0.49903893,1.0729979,0.0,3,0.0,0.0,0.0,0.0,0.0,0,0,0,0,0,1,1,0,0,0
183900000,11.32335,11.323415,-1.0,-1.0,0.0,0.0,0.49903893,1.0729979,0.0,3,0.0,0.0,0.0,0.0,0.0,0,0,0,0,0,1,1,0,0,0
184404000,11.32335,11.323415,-1.0,-1.0,0.0,0.0,0.49903893,1.0729979,0.0,3,0.0,0.0,0.0,0.0,0.0,0,0,0,0,0,1,1,0,0,0
184908000,11.32335,11.323415,-1.0,-1.0,0.0,0.0,0.49903893,1.0729979,0.0,3,0.0,0.0,0.0,0.0,0.0,0,0,0,0,0,1,1,0,0,0
185400000,11.32335,11.323415,-1.0,-1.0,0.0,0.0,0.49903893,1.0729979,0.0,3,0.0,0.0,0.0,0.0,0.0,0,0,0,0,0,1,1,0,0,0
185904000,11.32335,11.323415,-1.0,-1.0,0.0,0.0,0.49903893,1.0729979,0.0,3,0.0,0.0,0.0,0.0,0.0,0,0,0,0,0,1,1,0,0,0
186396000,11.32335,11.323415,-1.0,-1.0,0.0,0.0,0.49903893,1.0729979,0.0,3,0.0,0.0,0.0,0.0,0.0,0,0,0,0,0,1,1,0,0,0
186900000,11.32335,11.323415,-1.0,-1.0,0.0,0.0,0.49903893,1.0729979,0.0,3,0.0,0.0,0.0,0.0,0.0,0,0,0,0,0,1,1,0,0,0
187404000,11.32335,11.323415,-1.0,-1.0,0.0,0.0,0.49903893,1.0729979,0.0,3,0.0,0.0,0.0,0.0,0.0,0,0,0,0,0,1,1,0,0,0
187908000,11.32335,11.323415,-1.0,-1.0,0.0,0.0,0.49903893,1.0729979,0.0,3,0.0,0.0,0.0,0.0,0.0,0,0,0,0,0,1,1,0,0,0
188400000,11.32335,11.323415,-1.0,-1.0,0.0,0.0,0.49903893,1.0729979,0.0,3,0.0,0.0,0.0,0.0,0.0,0,0,0,0,0,1,1,0,0,0
188904000,11.32335,11.323415,-1.0,-1.0,0.0,0.0,0.49903893,1.0729979,0.0,3,0.0,0.0,0.0,0.0,0.0,0,0,0,0,0,1,1,0,0,0
189408000,11.32335,11.323415,-1.0,-1.0,0.0,0.0,0.49903893,1.0729979,0.0,3,0.0,0.0,0.0,0.0,0.0,0,0,0,0,0,1,1,0,0,0
189900000,11.32335,11.323415,-1.0,-1.0,0.0,0.0,0.49903893,1.0729979,0.0,3,0.0,0.0,0.0,0.0,0.0,0,0,0,0,0,1,1,0,0,0
190404000,11.32335,11.323415,-1.0,-1.0,0.0,0.0,0.49903893,1.0729979,0.0,3,0.0,0.0,0.0,0.0,0.0,0,0,0,0,0,1,1,0,0,0
190908000,11.32335,11.323415,-1.0,-1.0,0.0,0.0,0.49903893,1.0729979,0.0,3,0.0,0.0,0.0,0.0,0.0,0,0,0,0,0,1,1,0,0,0
191400000,11.32335,11.323415,-1.0,-1.0,0.0,0.0,0.49903893,1.0729979,0.0,3,0.0,0.0,0.0,0.0,0.0,0,0,0,0,0,1,1,0,0,0
191904000,11.32335,11.323415,-1.0,-1.0,0.0,0.0,0.49903893,1.0729979,0.0,3,0.0,0.0,0.0,0.0,0.0,0,0,0,0,0,1,1,0,0,0
192408000,11.32335,11.323415,-1.0,-1.0,0.0,0.0,0.49903893,1.0729979,0.0,3,0.0,0.0,0.0,0.0,0.0,0,0,0,0,0,1,1,0,0,0
192900000,11.32335,11.323415,-1.0,-1.0,0.0,0.0,0.49903893,1.0729979,0.0,3,0.0,0.0,0.0,0.0,0.0,0,0,0,0,0,1,1,0,0,0
193404000,11.32335,11.323415,-1.0,-1.0,0.0,0.0,0.49903893,1.0729979,0.0,3,0.0,0.0,0.0,0.0,0.0,0,0,0,0,0,1,1,0,0,0
193908000,11.32335,11.323415,-1.0,-1.0,0.0,0.0,0.49903893,1.0729979,0.0,3,0.0,0.0,0.0,0.0,0.0,0,0,0,0,0,1,1,0,0,0
194400000,11.32335,11.323415,-1.0,-1.0,0.0,0.0,0.49903893,1.0729979,0.0,3,0.0,0.0,0.0,0.0,0.0,0,0,0,0,0,1,1,0,0,0
194904000,11.32335,11.323415,-1.0,-1.0,0.0,0.0,0.49903893,1.0729979,0.0,3,0.0,0.0,0.0,0.0,0.0,0,0,0,0,0,1,1,0,0,0
195408000,11.32335,11.323415,-1.0,-1.0,0.0,0.0,0.49903893,1.0729979,0.0,3,0.0,0.0,0.0,0.0,0.0,0,0,0,0,0,1,1,0,0,0
195900000,11.32335,11.323415,-1.0,-1.0,0.0,0.0,0.49903893,1.0729979,0.0,3,0.0,0.0,0.0,0.0,0.0,0,0,0,0,0,1,1,0,0,0
196404000,11.32335,11.323415,-1.0,-1.0,0.0,0.0,0.49903893,1.0729979,0.0,3,0.0,0.0,0.0,0.0,0.0,0,0,0,0,0,1,1,0,0,0
196908000,11.32335,11.323415,-1.0,-1.0,0.0,0.0,0.49903893,1.0729979,0.0,3,0.0,0.0,0.0,0.0,0.0,0,0,0,0,0,1,1,0,0,0
197400000,11.32335,11.323415,-1.0,-1.0,0.0,0.0,0.49903893,1.0729979,0.0,3,0.0,0.0,0.0,0.0,0.0,0,0,0,0,0,1,1,0,0,0
197904000,11.32335,11.323415,-1.0,-1.0,0.0,0.0,0.49903893,1.0729979,0.0,3,0.0,0.0,0.0,0.0,0.0,0,0,0,0,0,1,1,0,0,0
198408000,11.32335,11.323415,-1.0,-1.0,0.0,0.0,0.49903893,1.0729979,0.0,3,0.0,0.0,0.0,0.0,0.0,0,0,0,0,0,1,1,0,0,0
198900000,11.32335,11.323415,-1.0,-1.0,0.0,0.0,0.49903893,1.0729979,0.0,3,0.0,0.0,0.0,0.0,0.0,0,0,0,0,0,1,1,0,0,0
199404000,11.32335,11.323415,-1.0,-1.0,0.0,0.0,0.49903893,1.0729979,0.0,3,0.0,0.0,0.0,0.0,0.0,0,0,0,0,0,1,1,0,0,0
199908000,11.32335,11.323415,-1.0,-1.0,0.0,0.0,0.49903893,1.0729979,0.0,3,0.0,0.0,0.0,0.0,0.0,0,0,0,0,0,1,1,0,0,0
200400000,11.32335,11.323415,-1.0,-1.0,0.0,0.0,0.49903893,1.0729979,0.0,3,0.0,0.0,0.0,0.0,0.0,0,0,0,0,0,1,1,0,0,0
200904000,11.32335,11.323415,-1.0,-1.0,0.0,0.0,0.49903893,1.0729979,0.0,3,0.0,0.0,0.0,0.0,0.0,0,0,0,0,0,1,1,0,0,0
201408000,11.32335,11.323415,-1.0,-1.0,0.0,0.0,0.49903893,1.0729979,0.0,3,0.0,0.0,0.0,0.0,0.0,0,0,0,0,0,1,1,0,0,0
201900000,11.32335,11.323415,-1.0,-1.0,0.0,0.0,0.49903893,1.0729979,0.0,3,0.0,0.0,0.0,0.0,0.0,0,0,0,0,0,1,1,0,0,0
202404000,11.32335,11.323415,-1.0,-1.0,0.0,0.0,0.49903893,1.0729979,0.0,3,0.0,0.0,0.0,0.0,0.0,0,0,0,0,0,1,1,0,0,0
202908000,11.32335,11.323415,-1.0,-1.0,0.0,0.0,0.49903893,1.0729979,0.0,3,0.0,0.0,0.0,0.0,0.0,0,0,0,0,0,1,1,0,0,0
203400000,11.32335,11.323415,-1.0,-1.0,0.0,0.0,0.49903893,1.0729979,0.0,3,0.0,0.0,0.0,0.0,0.0,0,0,0,0,0,1,1,0,0,0
203904000,11.32335,11.323415,-1.0,-1.0,0.0,0.0,0.49903893,1.0729979,0.0,3,0.0,0.0,0.0,0.0,0.0,0,0,0,0,0,1,1,0,0,0
204408000,11.32335,11.323415,-1.0,-1.0,0.0,0.0,0.49903893,1.0729979,0.0,3,0.0,0.0,0.0,0.0,0.0,0,0,0,0,0,1,1,0,0,0
204900000,11.32335,11.323415,-1.0,-1.0,0.0,0.0,0.49903893,1.0729979,0.0,3,0.0,0.0,0.0,0.0,0.0,0,0,0,0,0,1,1,0,0,0
205404000,11.32335,11.323415,-1.0,-1.0,0.0,0.0,0.49903893,1.0729979,0.0,3,0.0,0.0,0.0,0.0,0.0,0,0,0,0,0,1,1,0,0,0
205908000,11.32335,11.323415,-1.0,-1.0,0.0,0.0,0.49903893,1.0729979,0.0,3,0.0,0.0,0.0,0.0,0.0,0,0,0,0,0,1,1,0,0,0
206400000,11.32335,11.323415,-1.0,-1.0,0.0,0.0,0.49903893,1.0729979,0.0,3,0.0,0.0,0.0,0.0,0.0,0,0,0,0,0,1,1,0,0,0
206904000,11.32335,11.323415,-1.0,-1.0,0.0,0.0,0.49903893,1.0729979,0.0,3,0.0,0.0,0.0,0.0,0.0,0,0,0,0,0,1,1,0,0,0
207408000,11.32335,11.323415,-1.0,-1.0,0.0,0.0,0.49903893,1.0729979,0.0,3,0.0,0.0,0.0,0.0,0.0,0,0,0,0,0,1,1,0,0,0
207900000,11.32335,11.323415,-1.0,-1.0,0.0,0.0,0.49903893,1.0729979,0.0,3,0.0,0.0,0.0,0.0,0.0,0,0,0,0,0,1,1,0,0,0
208404000,11.32335,11.323415,-1.0,-1.0,0.0,0.0,0.49903893,1.0729979,0.0,3,0.0,0.0,0.0,0.0,0.0,0,0,0,0,0,1,1,0,0,0
208908000,11.32335,11.323415,-1.0,-1.0,0.0,0.0,0.49903893,1.0729979,0.0,3,0.0,0.0,0.0,0.0,0.0,0,0,0,0,0,1,1,0,0,0
209400000,11.32335,11.323415,-1.0,-1.0,0.0,0.0,0.49903893,1.0729979,0.0,3,0.0,0.0,0.0,0.0,0.0,0,0,0,0,0,1,1,0,0,0
209904000,11.32335,11.323415,-1.0,-1.0,0.0,0.0,0.49903893,1.0729979,0.0,3,0.0,0.0,0.0,0.0,0.0,0,0,0,0,0,1,1,0,0,0
210408000,11.32335,11.323415,-1.0,-1.0,0.0,0.0,0.49903893,1.0729979,0.0,3,0.0,0.0,0.0,0.0,0.0,0,0,0,0,0,1,1,0,0,0
210900000,11.32335,11.323415,-1.0,-1.0,0.0,0.0,0.49903893,1.0729979,0.0,3,0.0,0.0,0.0,0.0,0.0,0,0,0,0,0,1,1,0,0,0
211404000,11.32335,11.323415,-1.0,-1.0,0.0,0.0,0.49903893,1.0729979,0.0,3,0.0,0.0,0.0,0.0,0.0,0,0,0,0,0,1,1,0,0,0
211908000,11.32335,11.323415,-1.0,-1.0,0.0,0.0,0.49903893,1.0729979,0.0,3,0.0,0.0,0.0,0.0,0.0,0,0,0,0,0,1,1,0,0,0
212400000,11.32335,11.323415,-1.0,-1.0,0.0,0.0,0.49903893,1.0729979,0.0,3,0.0,0.0,0.0,0.0,0.0,0,0,0,0,0,1,1,0,0,0
212904000,11.32335,11.323415,-1.0,-1.0,0.0,0.0,0.49903893,1.0729979,0.0,3,0.0,0.0,0.0,0.0,0.0,0,0,0,0,0,1,1,0,0,0
213408000,11.32335,11.323415,-1.0,-1.0,0.0,0.0,0.49903893,1.0729979,0.0,3,0.0,0.0,0.0,0.0,0.0,0,0,0,0,0,1,1,0,0,0
213900000,11.32335,11.323415,-1.0,-1.0,0.0,0.0,0.49903893,1.0729979,0.0,3,0.0,0.0,0.0,0.0,0.0,0,0,0,0,0,1,1,0,0,0
214404000,11.32335,11.323415,-1.0,-1.0,0.0,0.0,0.49903893,1.0729979,0.0,3,0.0,0.0,0.0,0.0,0.0,0,0,0,0,0,1,1,0,0,0
214908000,11.32335,11.323415,-1.0,-1.0,0.0,0.0,0.49903893,1.0729979,0.0,3,0.0,0.0,0.0,0.0,0.0,0,0,0,0,0,1,1,0,0,0
215400000,11.32335,11.323415,-1.0,-1.0,0.0,0.0,0.49903893,1.0729979,0.0,3,0.0,0.0,0.0,0.0,0.0,0,0,0,0,0,1,1,0,0,0
215904000,11.32335,11.323415,-1.0,-1.0,0.0,0.0,0.49903893,1.0729979,0.0,3,0.0,0.0,0.0,0.0,0.0,0,0,0,0,0,1,1,0,0,0
216408000,11.32335,11.323415,-1.0,-1.0,0.0,0.0,0.49903893,1.0729979,0.0,3,0.0,0.0,0.0,0.0,0.0,0,0,0,0,0,1,1,0,0,0
216900000,11.32335,11.323415,-1.0,-1.0,0.0,0.0,0.49903893,1.0729979,0.0,3,0.0,0.0,0.0,0.0,0.0,0,0,0,0,0,1,1,0,0,0
217404000,11.32335,11.323415,-1.0,-1.0,0.0,0.0,0.49903893,1.0729979,0.0,3,0.0,0.0,0.0,0.0,0.0,0,0,0,0,0,1,1,0,0,0
217908000,11.32335,11.323415,-1.0,-1.0,0.0,0.0,0.49903893,1.0729979,0.0,3,0.0,0.0,0.0,0.0,0.0,0,0,0,0,0,1,1,0,0,0
218400000,11.32335,11.323415,-1.0,-1.0,0.0,0.0,0.49903893,1.0729979,0.0,3,0.0,0.0,0.0,0.0,0.0,0,0,0,0,0,1,1,0,0,0
218904000,11.32335,11.323415,-1.0,-1.0,0.0,0.0,0.49903893,1.0729979,0.0,3,0.0,0.0,0.0,0.0,0.0,0,0,0,0,0,1,1,0,0,0
219408000,11.32335,11.323415,-1.0,-1.0,0.0,0.0,0.49903893,1.0729979,0.0,3,0.0,0.0,0.0,0.0,0.0,0,0,0,0,0,1,1,0,0,0
219900000,11.32335,11.323415,-1.0,-1.0,0.0,0.0,0.49903893,1.0729979,0.0,3,0.0,0.0,0.0,0.0,0.0,0,0,0,0,0,1,1,0,0,0
220404000,11.32335,11.323415,-1.0,-1.0,0.0,0.0,0.49903893,1.0729979,0.0,3,0.0,0.0,0.0,0.0,0.0,0,0,0,0,0,1,1,0,0,0
220908000,11.32335,11.323415,-1.0,-1.0,0.0,0.0,0.49903893,1.0729979,0.0,3,0.0,0.0,0.0,0.0,0.0,0,0,0,0,0,1,1,0,0,0
221400000,11.32335,11.323415,-1.0,-1.0,0.0,0.0,0.49903893,1.0729979,0.0,3,0.0,0.0,0.0,0.0,0.0,0,0,0,0,0,1,1,0,0,0
221904000,11.32335,11.323415,-1.0,-1.0,0.0,0.0,0.49903893,1.0729979,0.0,3,0.0,0.0,0.0,0.0,0.0,0,0,0,0,0,1,1,0,0,0
222408000,11.32335,11.323415,-1.0,-1.0,0.0,0.0,0.49903893,1.0729979,0.0,3,0.0,0.0,0.0,0.0,0.0,0,0,0,0,0,1,1,0,0,0
222900000,11.32335,11.323415,-1.0,-1.0,0.0,0.0,0.49903893,1.0729979,0.0,3,0.0,0.0,0.0,0.0,0.0,0,0,0,0,0,1,1,0,0,0
223404000,11.32335,11.323415,-1.0,-1.0,0.0,0.0,0.49903893,1.0729979,0.0,3,0.0,0.0,0.0,0.0,0.0,0,0,0,0,0,1,1,0,0,0
223908000,11.32335,11.323415,-1.0,-1.0,0.0,0.0,0.49903893,1.0729979,0.0,3,0.0,0.0,0.0,0.0,0.0,0,0,0,0,0,1,1,0,0,0
224400000,11.32335,11.323415,-1.0,-1.0,0.0,0.0,0.49903893,1.0729979,0.0,3,0.0,0.0,0.0,0.0,0.0,0,0,0,0,0,1,1,0,0,0
224904000,11.32335,11.323415,-1.0,-1.0,0.0,0.0,0.49903893,1.0729979,0.0,3,0.0,0.0,0.0,0.0,0.0,0,0,0,0,0,1,1,0,0,0
225408000,11.32335,11.323415,-1.0,-1.0,0.0,0.0,0.49903893,1.0729979,0.0,3,0.0,0.0,0.0,0.0,0.0,0,0,0,0,0,1,1,0,0,0
225900000,11.32335,11.323415,-1.0,-1.0,0.0,0.0,0.49903893,1.0729979,0.0,3,0.0,0.0,0.0,0.0,0.0,0,0,0,0,0,1,1,0,0,0
226404000,11.32335,11.323415,-1.0,-1.0,0.0,0.0,0.49903893,1.0729979,0.0,3,0.0,0.0,0.0,0.0,0.0,0,0,0,0,0,1,1,0,0,0
226908000,11.32335,11.323415,-1.0,-1.0,0.0,0.0,0.49903893,1.0729979,0.0,3,0.0,0.0,0.0,0.0,0.0,0,0,0,0,0,1,1,0,0,0
227400000,11.32335,11.323415,-1.0,-1.0,0.0,0.0,0.49903893,1.0729979,0.0,3,0.0,0.0,0.0,0.0,0.0,0,0,0,0,0,1,1,0,0,0
227904000,11.32335,11.323415,-1.0,-1.0,0.0,0.0,0.49903893,1.0729979,0.0,3,0.0,0.0,0.0,0.0,0.0,0,0,0,0,0,1,1,0,0,0
228408000,11.32335,11.323415,-1.0,-1.0,0.0,0.0,0.49903893,1.0729979,0.0,3,0.0,0.0,0.0,0.0,0.0,0,0,0,0,0,1,1,0,0,0
228900000,11.32335,11.323415,-1.0,-1.0,0.0,0.0,0.49903893,1.0729979,0.0,3,0.0,0.0,0.0,0.0,0.0,0,0,0,0,0,1,1,0,0,0
229404000,11.32335,11.323415,-1.0,-1.0,0.0,0.0,0.49903893,1.0729979,0.0,3,0.0,0.0,0.0,0.0,0.0,0,0,0,0,0,1,1,0,0,0
229908000,11.32335,11.323415,-1.0,-1.0,0.0,0.0,0.49903893,1.0729979,0.0,3,0.0,0.0,0.0,0.0,0.0,0,0,0,0,0,1,1,0,0,0
230400000,11.32335,11.323415,-1.0,-1.0,0.0,0.0,0.49903893,1.0729979,0.0,3,0.0,0.0,0.0,0.0,0.0,0,0,0,0,0,1,1,0,0,0
230904000,11.32335,11.323415,-1.0,-1.0,0.0,0.0,0.49903893,1.0729979,0.0,3,0.0,0.0,0.0,0.0,0.0,0,0,0,0,0,1,1,0,0,0
231408000,11.32335,11.323415,-1.0,-1.0,0.0,0.0,0.49903893,1.0729979,0.0,3,0.0,0.0,0.0,0.0,0.0,0,0,0,0,0,1,1,0,0,0
231900000,11.32335,11.323415,-1.0,-1.0,0.0,0.0,0.49903893,1.0729979,0.0,3,0.0,0.0,0.0,0.0,0.0,0,0,0,0,0,1,1,0,0,0
232404000,11.32335,11.323415,-1.0,-1.0,0.0,0.0,0.49903893,1.0729979,0.0,3,0.0,0.0,0.0,0.0,0.0,0,0,0,0,0,1,1,0,0,0
232908000,11.32335,11.323415,-1.0,-1.0,0.0,0.0,0.49903893,1.0729979,0.0,3,0.0,0.0,0.0,0.0,0.0,0,0,0,0,0,1,1,0,0,0
233400000,11.32335,11.323415,-1.0,-1.0,0.0,0.0,0.49903893,1.0729979,0.0,3,0.0,0.0,0.0,0.0,0.0,0,0,0,0,0,1,1,0,0,0
233904000,11.32335,11.323415,-1.0,-1.0,0.0,0.0,0.49903893,1.0729979,0.0,3,0.0,0.0,0.0,0.0,0.0,0,0,0,0,0,1,1,0,0,0
234408000,11.32335,11.323415,-1.0,-1.0,0.0,0.0,0.49903893,1.0729979,0.0,3,0.0,0.0,0.0,0.0,0.0,0,0,0,0,0,1,1,0,0,0
234900000,11.32335,11.323415,-1.0,-1.0,0.0,0.0,0.49903893,1.0729979,0.0,3,0.0,0.0,0.0,0.0,0.0,0,0,0,0,0,1,1,0,0,0
235404000,11.32335,11.323415,-1.0,-1.0,0.0,0.0,0.49903893,1.0729979,0.0,3,0.0,0.0,0.0,0.0,0.0,0,0,0,0,0,1,1,0,0,0
235908000,11.32335,11.323415,-1.0,-1.0,0.0,0.0,0.49903893,1.0729979,0.0,3,0.0,0.0,0.0,0.0,0.0,0,0,0,0,0,1,1,0,0,0
236400000,11.32335,11.323415,-1.0,-1.0,0.0,0.0,0.49903893,1.0729979,0.0,3,0.0,0.0,0.0,0.0,0.0,0,0,0,0,0,1,1,0,0,0
236904000,11.32335,11.323415,-1.0,-1.0,0.0,0.0,0.49903893,1.0729979,0.0,3,0.0,0.0,0.0,0.0,0.0,0,0,0,0,0,1,1,0,0,0
237408000,11.32335,11.323415,-1.0,-1.0,0.0,0.0,0.49903893,1.0729979,0.0,3,0.0,0.0,0.0,0.0,0.0,0,0,0,0,0,1,1,0,0,0
237900000,11.32335,11.323415,-1.0,-1.0,0.0,0.0,0.49903893,1.0729979,0.0,3,0.0,0.0,0.0,0.0,0.0,0,0,0,0,0,1,1,0,0,0
238404000,11.32335,11.323415,-1.0,-1.0,0.0,0.0,0.49903893,1.0729979,0.0,3,0.0,0.0,0.0,0.0,0.0,0,0,0,0,0,1,1,0,0,0
238908000,11.32335,11.323415,-1.0,-1.0,0.0,0.0,0.49903893,1.0729979,0.0,3,0.0,0.0,0.0,0.0,0.0,0,0,0,0,0,1,1,0,0,0
239400000,12.150001,11.473934,-1.0,-1.0,0.0,0.0,0.59026307,1.0589219,0.0,3,0.0,0.0,0.0,0.0,0.0,0,0,0,0,0,1,1,0,0,0
239904000,12.150001,11.706735,-1.0,-1.0,0.0,0.0,0.73135394,1.0378642,0.0,3,0.0,0.0,0.0,0.0,0.0,0,0,0,0,0,1,1,0,0,0
