timestamp,heartbeat_time,data_rate,rate_multiplier,rate_rx,rate_tx,rate_txerr,remote_system_id,remote_component_id,remote_type,remote_system_status,type,mode,flow_control,forwarding,mavlink_v2,ftp,streams
1168000,0,4000000.0,1.0,0.0,0.0,0.0,0,0,0,0,0,0,0,0,1,1,36
1264000,0,4000000.0,1.0,0.0,0.0,0.0,0,0,0,0,0,2,0,0,1,1,43
1552000,1548000,4000000.0,1.0,0.0,0.0,0.0,255,0,6,4,0,0,0,0,1,1,37
2264000,0,4000000.0,1.0,0.0,0.0,0.0,0,0,0,0,0,2,0,0,1,1,43
2264000,2260000,4000000.0,1.0,0.020916333,1.6862549,0.0,255,0,6,4,0,0,0,0,1,1,37
2552000,2548000,4000000.0,1.0,0.020916333,1.6862549,0.0,255,0,6,4,0,0,0,0,1,1,37
3264000,0,4000000.0,1.0,0.0,9.372509,0.0,0,0,0,0,0,2,0,0,1,1,43
3548000,3544000,4000000.0,1.0,0.31573704,33.29482,0.0,255,0,6,4,0,0,0,0,1,1,37
4264000,0,4000000.0,1.0,0.0,23.544819,0.0,0,0,0,0,0,2,0,0,1,1,43
4548000,4544000,4000000.0,1.0,0.020916333,11.108564,0.0,255,0,6,4,0,0,0,0,1,1,37
5264000,0,4000000.0,1.0,0.0,23.406372,0.0,0,0,0,0,0,2,0,0,1,1,43
5548000,5544000,4000000.0,1.0,0.020916333,11.449203,0.0,255,0,6,4,0,0,0,0,1,1,37
6264000,0,4000000.0,1.0,0.0,23.605576,0.0,0,0,0,0,0,2,0,0,1,1,43
6544000,6544000,4000000.0,1.0,0.020916333,11.108564,0.0,255,0,6,4,0,0,0,0,1,1,37
7264000,0,4000000.0,1.0,0.0,23.484062,0.0,0,0,0,0,0,2,0,0,1,1,43
7544000,6544000,4000000.0,1.0,0.020916333,11.2539835,0.0,255,0,6,4,0,0,0,0,1,1,37
8264000,0,4000000.0,1.0,0.0,23.429281,0.0,0,0,0,0,0,2,0,0,1,1,43
8544000,8540000,4000000.0,1.0,0.020916354,11.095628,0.0,255,0,6,4,0,0,0,0,1,1,37
9264000,0,4000000.0,1.0,0.0,23.500023,0.0,0,0,0,0,0,2,0,0,1,1,43
9544000,9540000,4000000.0,1.0,0.038999956,11.961987,0.0,255,0,6,4,0,0,0,0,1,1,37
10264000,0,4000000.0,1.0,0.0,23.522974,0.0,0,0,0,0,0,2,0,0,1,1,43
10540000,10536000,4000000.0,1.0,0.020916333,11.108564,0.0,255,0,6,4,0,0,0,0,1,1,37
11264000,0,4000000.0,1.0,0.0,23.657368,0.0,0,0,0,0,0,2,0,0,1,1,43
11540000,11536000,4000000.0,1.0,0.046812747,11.464143,0.0,255,0,6,4,0,0,0,0,1,1,37
12264000,0,4000000.0,1.0,0.0,23.53685,0.0,0,0,0,0,0,2,0,0,1,1,43
12540000,12536000,4000000.0,1.0,0.020916333,12.742031,0.0,255,0,6,4,0,0,0,0,1,1,37
13264000,0,4000000.0,1.0,0.0,25.130476,0.0,0,0,0,0,0,2,0,0,1,1,43
13540000,13536000,4000000.0,1.0,0.020916333,11.624501,0.0,255,0,6,4,0,0,0,0,1,1,37
14264000,0,4000000.0,1.0,0.0,25.666332,0.0,0,0,0,0,0,2,0,0,1,1,43
14540000,14536000,4000000.0,1.0,0.020916333,10.972111,0.0,255,0,6,4,0,0,0,0,1,1,37
15264000,0,4000000.0,1.0,0.0,25.682268,0.0,0,0,0,0,0,2,0,0,1,1,43
15532000,15528000,4000000.0,1.0,0.020916333,11.2878475,0.0,255,0,6,4,0,0,0,0,1,1,37
16264000,0,4000000.0,1.0,0.0,25.718124,0.0,0,0,0,0,0,2,0,0,1,1,43
16532000,16528000,4000000.0,1.0,0.020916333,11.123505,0.0,255,0,6,4,0,0,0,0,1,1,37
17264000,0,4000000.0,1.0,0.0,25.651392,0.0,0,0,0,0,0,2,0,0,1,1,43
17532000,17528000,4000000.0,1.0,0.020916333,11.248007,0.0,255,0,6,4,0,0,0,0,1,1,37
18264000,0,4000000.0,1.0,0.0,25.757965,0.0,0,0,0,0,0,2,0,0,1,1,43
18532000,18528000,4000000.0,1.0,0.020916333,10.972111,0.0,255,0,6,4,0,0,0,0,1,1,37
19264000,0,4000000.0,1.0,0.0,25.598604,0.0,0,0,0,0,0,2,0,0,1,1,43
19532000,19528000,4000000.0,1.0,0.020916333,11.248007,0.0,255,0,6,4,0,0,0,0,1,1,37
20264000,0,4000000.0,1.0,0.0,26.002985,0.0,0,0,0,0,0,2,0,0,1,1,43
20528000,20528000,4000000.0,1.0,0.020916333,11.011951,0.0,255,0,6,4,0,0,0,0,1,1,37
21264000,0,4000000.0,1.0,0.0,25.598604,0.0,0,0,0,0,0,2,0,0,1,1,43
21528000,21524000,4000000.0,1.0,0.046812747,11.420318,0.0,255,0,6,4,0,0,0,0,1,1,37
22264000,0,4000000.0,1.0,0.0,25.785854,0.0,0,0,0,0,0,2,0,0,1,1,43
22528000,22524000,4000000.0,1.0,0.020916333,10.972111,0.0,255,0,6,4,0,0,0,0,1,1,37
23264000,0,4000000.0,1.0,0.0,25.678284,0.0,0,0,0,0,0,2,0,0,1,1,43
23524000,23520000,4000000.0,1.0,0.020916333,11.248007,0.0,255,0,6,4,0,0,0,0,1,1,37
24264000,0,4000000.0,1.0,0.0,25.718124,0.0,0,0,0,0,0,2,0,0,1,1,43
24524000,24520000,4000000.0,1.0,0.020916333,10.972111,0.0,255,0,6,4,0,0,0,0,1,1,37
25264000,0,4000000.0,1.0,0.0,25.682268,0.0,0,0,0,0,0,2,0,0,1,1,43
25524000,24520000,4000000.0,1.0,0.020916333,11.2878475,0.0,255,0,6,4,0,0,0,0,1,1,37
25536000,25532000,4000000.0,1.0,0.020916333,11.2878475,0.0,255,0,6,4,0,0,0,0,1,1,37
26264000,0,4000000.0,1.0,0.0,25.730078,0.0,0,0,0,0,0,2,0,0,1,1,43
26524000,26520000,4000000.0,1.0,0.020916333,11.123505,0.0,255,0,6,4,0,0,0,0,1,1,37
27264000,0,4000000.0,1.0,0.0,25.8496,0.0,0,0,0,0,0,2,0,0,1,1,43
27524000,27520000,4000000.0,1.0,0.020916333,11.248007,0.0,255,0,6,4,0,0,0,0,1,1,37
28264000,0,4000000.0,1.0,0.0,25.932268,0.0,0,0,0,0,0,2,0,0,1,1,43
28524000,27520000,4000000.0,1.0,0.020916333,10.972111,0.0,255,0,6,4,0,0,0,0,1,1,37
29264000,0,4000000.0,1.0,0.0,25.665337,0.0,0,0,0,0,0,2,0,0,1,1,43
29516000,29516000,4000000.0,1.0,0.020916333,11.248007,0.0,255,0,6,4,0,0,0,0,1,1,37
30264000,0,4000000.0,1.0,0.0,25.695217,0.0,0,0,0,0,0,2,0,0,1,1,43
30516000,29516000,4000000.0,1.0,0.020916333,11.011951,0.0,255,0,6,4,0,0,0,0,1,1,37
31264000,0,4000000.0,1.0,0.0,25.665337,0.0,0,0,0,0,0,2,0,0,1,1,43
31516000,31512000,4000000.0,1.0,0.046812747,11.420318,0.0,255,0,6,4,0,0,0,0,1,1,37
32264000,0,4000000.0,1.0,0.0,25.787846,0.0,0,0,0,0,0,2,0,0,1,1,43
32512000,32508000,4000000.0,1.0,0.020916333,10.972111,0.0,255,0,6,4,0,0,0,0,1,1,37
33264000,0,4000000.0,1.0,0.0,25.772934,0.0,0,0,0,0,0,2,0,0,1,1,43
33512000,33508000,4000000.0,1.0,0.020916333,11.248007,0.0,255,0,6,4,0,0,0,0,1,1,37
34264000,0,4000000.0,1.0,0.0,25.611528,0.0,0,0,0,0,0,2,0,0,1,1,43
34512000,34508000,4000000.0,1.0,0.020916333,10.972111,0.0,255,0,6,4,0,0,0,0,1,1,37
35264000,0,4000000.0,1.0,0.0,25.749002,0.0,0,0,0,0,0,2,0,0,1,1,43
35512000,35508000,4000000.0,1.0,0.020916333,11.2878475,0.0,255,0,6,4,0,0,0,0,1,1,37
36264000,0,4000000.0,1.0,0.0,25.852587,0.0,0,0,0,0,0,2,0,0,1,1,43
36512000,36508000,4000000.0,1.0,0.020916333,11.123505,0.0,255,0,6,4,0,0,0,0,1,1,37
37264000,0,4000000.0,1.0,0.0,25.772905,0.0,0,0,0,0,0,2,0,0,1,1,43
37512000,36508000,4000000.0,1.0,0.020916333,11.248007,0.0,255,0,6,4,0,0,0,0,1,1,37
37572000,37568000,4000000.0,1.0,0.020916333,11.248007,0.0,255,0,6,4,0,0,0,0,1,1,37
38264000,0,4000000.0,1.0,0.0,25.691233,0.0,0,0,0,0,0,2,0,0,1,1,43
38504000,38504000,4000000.0,1.0,0.020916333,10.972111,0.0,255,0,6,4,0,0,0,0,1,1,37
39264000,0,4000000.0,1.0,0.0,25.610556,0.0,0,0,0,0,0,2,0,0,1,1,43
39504000,39504000,4000000.0,1.0,0.020916333,11.248007,0.0,255,0,6,4,0,0,0,0,1,1,37
40264000,0,4000000.0,1.0,0.0,25.695217,0.0,0,0,0,0,0,2,0,0,1,1,43
40504000,40500000,4000000.0,1.0,0.020916333,10.999003,0.0,255,0,6,4,0,0,0,0,1,1,37
41264000,0,4000000.0,1.0,0.0,25.705177,0.0,0,0,0,0,0,2,0,0,1,1,43
41504000,40500000,4000000.0,1.0,0.046812747,11.433266,0.0,255,0,6,4,0,0,0,0,1,1,37
41512000,41508000,4000000.0,1.0,0.046812747,11.433266,0.0,255,0,6,4,0,0,0,0,1,1,37
42264000,0,4000000.0,1.0,0.0,25.719122,0.0,0,0,0,0,0,2,0,0,1,1,43
42508000,42504000,4000000.0,1.0,0.020916333,10.972111,0.0,255,0,6,4,0,0,0,0,1,1,37
43264000,0,4000000.0,1.0,0.0,25.745018,0.0,0,0,0,0,0,2,0,0,1,1,43
43500000,43496000,4000000.0,1.0,0.020916333,11.248007,0.0,255,0,6,4,0,0,0,0,1,1,37
44264000,0,4000000.0,1.0,0.0,25.611551,0.0,0,0,0,0,0,2,0,0,1,1,43
44500000,44496000,4000000.0,1.0,0.020916333,10.972111,0.0,255,0,6,4,0,0,0,0,1,1,37
45264000,0,4000000.0,1.0,0.0,25.990038,0.0,0,0,0,0,0,2,0,0,1,1,43
45496000,45496000,4000000.0,1.0,0.020916333,11.2878475,0.0,255,0,6,4,0,0,0,0,1,1,37
46264000,0,4000000.0,1.0,0.0,25.611551,0.0,0,0,0,0,0,2,0,0,1,1,43
46496000,46496000,4000000.0,1.0,0.020916333,11.110557,0.0,255,0,6,4,0,0,0,0,1,1,37
47264000,0,4000000.0,1.0,0.0,25.772905,0.0,0,0,0,0,0,2,0,0,1,1,43
47496000,47492000,4000000.0,1.0,0.020916333,11.260955,0.0,255,0,6,4,0,0,0,0,1,1,37
48264000,0,4000000.0,1.0,0.0,25.691233,0.0,0,0,0,0,0,2,0,0,1,1,43
48496000,48492000,4000000.0,1.0,0.020916333,10.972111,0.0,255,0,6,4,0,0,0,0,1,1,37
49264000,0,4000000.0,1.0,0.0,25.705177,0.0,0,0,0,0,0,2,0,0,1,1,43
49496000,48492000,4000000.0,1.0,0.020916333,11.248007,0.0,255,0,6,4,0,0,0,0,1,1,37
49504000,49500000,4000000.0,1.0,0.020916333,11.248007,0.0,255,0,6,4,0,0,0,0,1,1,37
50264000,0,4000000.0,1.0,0.0,25.695217,0.0,0,0,0,0,0,2,0,0,1,1,43
50496000,50492000,4000000.0,1.0,0.020916333,11.078684,0.0,255,0,6,4,0,0,0,0,1,1,37
51264000,0,4000000.0,1.0,0.0,25.717129,0.0,0,0,0,0,0,2,0,0,1,1,43
51492000,51488000,4000000.0,1.0,0.046812747,11.353584,0.0,255,0,6,4,0,0,0,0,1,1,37
52264000,0,4000000.0,1.0,0.0,25.955177,0.0,0,0,0,0,0,2,0,0,1,1,43
52492000,52488000,4000000.0,1.0,0.020916333,11.038844,0.0,255,0,6,4,0,0,0,0,1,1,37
53264000,0,4000000.0,1.0,0.0,25.986053,0.0,0,0,0,0,0,2,0,0,1,1,43
53492000,52488000,4000000.0,1.0,0.020916333,11.181273,0.0,255,0,6,4,0,0,0,0,1,1,37
53508000,53508000,4000000.0,1.0,0.020916333,11.181273,0.0,255,0,6,4,0,0,0,0,1,1,37
54264000,0,4000000.0,1.0,0.0,25.55677,0.0,0,0,0,0,0,2,0,0,1,1,43
54488000,54484000,4000000.0,1.0,0.020916333,11.038844,0.0,255,0,6,4,0,0,0,0,1,1,37
55264000,0,4000000.0,1.0,0.0,25.76195,0.0,0,0,0,0,0,2,0,0,1,1,43
55488000,54484000,4000000.0,1.0,0.020916333,11.221114,0.0,255,0,6,4,0,0,0,0,1,1,37
56264000,0,4000000.0,1.0,0.0,25.598604,0.0,0,0,0,0,0,2,0,0,1,1,43
56488000,56484000,4000000.0,1.0,0.020916333,11.190238,0.0,255,0,6,4,0,0,0,0,1,1,37
57264000,0,4000000.0,1.0,0.0,25.85458,0.0,0,0,0,0,0,2,0,0,1,1,43
57488000,56484000,4000000.0,1.0,0.020916333,11.181273,0.0,255,0,6,4,0,0,0,0,1,1,37
57496000,57496000,4000000.0,1.0,0.020916333,11.181273,0.0,255,0,6,4,0,0,0,0,1,1,37
58264000,0,4000000.0,1.0,0.0,25.706173,0.0,0,0,0,0,0,2,0,0,1,1,43
58496000,57496000,4000000.0,1.0,0.020916333,11.038844,0.0,255,0,6,4,0,0,0,0,1,1,37
58508000,58504000,4000000.0,1.0,0.020916333,11.038844,0.0,255,0,6,4,0,0,0,0,1,1,37
59264000,0,4000000.0,1.0,0.0,25.678284,0.0,0,0,0,0,0,2,0,0,1,1,43
59504000,59500000,4000000.0,1.0,0.020916333,11.181273,0.0,255,0,6,4,0,0,0,0,1,1,37
60264000,0,4000000.0,1.0,0.0,25.682268,0.0,0,0,0,0,0,2,0,0,1,1,43
60504000,59500000,4000000.0,1.0,0.020916333,11.078684,0.0,255,0,6,4,0,0,0,0,1,1,37
60532000,60528000,4000000.0,1.0,0.020916333,11.078684,0.0,255,0,6,4,0,0,0,0,1,1,37
61264000,0,4000000.0,1.0,0.0,25.919321,0.0,0,0,0,0,0,2,0,0,1,1,43
61504000,61500000,4000000.0,1.0,0.046812747,11.353584,0.0,255,0,6,4,0,0,0,0,1,1,37
62264000,0,4000000.0,1.0,0.0,25.719122,0.0,0,0,0,0,0,2,0,0,1,1,43
62480000,62476000,4000000.0,1.0,0.020916333,11.038844,0.0,255,0,6,4,0,0,0,0,1,1,37
63264000,0,4000000.0,1.0,0.0,25.745018,0.0,0,0,0,0,0,2,0,0,1,1,43
63480000,63476000,4000000.0,1.0,0.020916333,11.194222,0.0,255,0,6,4,0,0,0,0,1,1,37
64264000,0,4000000.0,1.0,0.0,25.611551,0.0,0,0,0,0,0,2,0,0,1,1,43
64479999,64476000,4000000.0,1.0,0.020916333,11.05478,0.0,255,0,6,4,0,0,0,0,1,1,37
65264000,0,4000000.0,1.0,0.0,25.694221,0.0,0,0,0,0,0,2,0,0,1,1,43
65476000,65472000,4000000.0,1.0,0.020916333,11.221114,0.0,255,0,6,4,0,0,0,0,1,1,37
66264000,0,4000000.0,1.0,0.0,25.693253,0.0,0,0,0,0,0,2,0,0,1,1,43
66476000,66472000,4000000.0,1.0,0.020916333,11.17729,0.0,255,0,6,4,0,0,0,0,1,1,37
67264000,0,4000000.0,1.0,0.0,25.786827,0.0,0,0,0,0,0,2,0,0,1,1,43
67472000,67472000,4000000.0,1.0,0.020916333,11.181273,0.0,255,0,6,4,0,0,0,0,1,1,37
68264000,0,4000000.0,1.0,0.0,25.6245,0.0,0,0,0,0,0,2,0,0,1,1,43
68472000,68468000,4000000.0,1.0,0.020916333,11.038844,0.0,255,0,6,4,0,0,0,0,1,1,37
69264000,0,4000000.0,1.0,0.0,25.679281,0.0,0,0,0,0,0,2,0,0,1,1,43
69472000,69468000,4000000.0,1.0,0.020916333,11.42231,0.0,255,0,6,4,0,0,0,0,1,1,37
70264000,0,4000000.0,1.0,0.0,25.924301,0.0,0,0,0,0,0,2,0,0,1,1,43
70472000,70468000,4000000.0,1.0,0.020916333,11.078684,0.0,255,0,6,4,0,0,0,0,1,1,37
71264000,0,4000000.0,1.0,0.0,25.679281,0.0,0,0,0,0,0,2,0,0,1,1,43
71468000,71464000,4000000.0,1.0,0.046812747,11.353584,0.0,255,0,6,4,0,0,0,0,1,1,37
72264000,0,4000000.0,1.0,0.0,25.707169,0.0,0,0,0,0,0,2,0,0,1,1,43
72468000,72464000,4000000.0,1.0,0.020916333,11.038844,0.0,255,0,6,4,0,0,0,0,1,1,37
73264000,0,4000000.0,1.0,0.0,25.758963,0.0,0,0,0,0,0,2,0,0,1,1,43
73464000,73460000,4000000.0,1.0,0.020916333,11.181273,0.0,255,0,6,4,0,0,0,0,1,1,37
74264000,0,4000000.0,1.0,0.0,25.63944,0.0,0,0,0,0,0,2,0,0,1,1,43
74464000,74460000,4000000.0,1.0,0.020916333,11.038844,0.0,255,0,6,4,0,0,0,0,1,1,37
75264000,0,4000000.0,1.0,0.0,25.762945,0.0,0,0,0,0,0,2,0,0,1,1,43
75464000,75460000,4000000.0,1.0,0.020916333,11.221114,0.0,255,0,6,4,0,0,0,0,1,1,37
76264000,0,4000000.0,1.0,0.0,25.651392,0.0,0,0,0,0,0,2,0,0,1,1,43
76464000,76460000,4000000.0,1.0,0.041832667,11.252987,0.0,255,0,6,4,0,0,0,0,1,1,37
77264000,0,4000000.0,1.0,0.0,25.918324,0.0,0,0,0,0,0,2,0,0,1,1,43
77464000,76460000,4000000.0,1.0,0.041832667,11.252987,0.0,255,0,6,4,0,0,0,0,1,1,37
77476000,77472000,4000000.0,1.0,0.0,11.118525,0.0,255,0,6,4,0,0,0,0,1,1,37
78264000,0,4000000.0,1.0,0.0,25.920317,0.0,0,0,0,0,0,2,0,0,1,1,43
78464000,78460000,4000000.0,1.0,0.0,11.118525,0.0,255,0,6,4,0,0,0,0,1,1,37
79264000,0,4000000.0,1.0,0.0,25.6245,0.0,0,0,0,0,0,2,0,0,1,1,43
79460000,79456000,4000000.0,1.0,0.041832667,11.101593,0.0,255,0,6,4,0,0,0,0,1,1,37
80264000,0,4000000.0,1.0,0.0,25.683264,0.0,0,0,0,0,0,2,0,0,1,1,43
80460000,80456000,4000000.0,1.0,0.020916333,11.131474,0.0,255,0,6,4,0,0,0,0,1,1,37
81264000,0,4000000.0,1.0,0.0,25.679281,0.0,0,0,0,0,0,2,0,0,1,1,43
81456000,81452000,4000000.0,1.0,0.020916333,11.128485,0.0,255,0,6,4,0,0,0,0,1,1,37
82264000,0,4000000.0,1.0,0.0,25.775894,0.0,0,0,0,0,0,2,0,0,1,1,43
82456000,82452000,4000000.0,1.0,0.046812747,11.303783,0.0,255,0,6,4,0,0,0,0,1,1,37
83264000,0,4000000.0,1.0,0.0,25.78685,0.0,0,0,0,0,0,2,0,0,1,1,43
83452000,83452000,4000000.0,1.0,0.020916333,11.088644,0.0,255,0,6,4,0,0,0,0,1,1,37
84264000,0,4000000.0,1.0,0.0,25.612547,0.0,0,0,0,0,0,2,0,0,1,1,43
84452000,83452000,4000000.0,1.0,0.020916333,11.131474,0.0,255,0,6,4,0,0,0,0,1,1,37
85264000,0,4000000.0,1.0,0.0,25.749998,0.0,0,0,0,0,0,2,0,0,1,1,43
85452000,85448000,4000000.0,1.0,0.020916333,11.088644,0.0,255,0,6,4,0,0,0,0,1,1,37
86264000,0,4000000.0,1.0,0.0,25.87948,0.0,0,0,0,0,0,2,0,0,1,1,43
86448000,86448000,4000000.0,1.0,0.753984,11.438246,0.0,255,0,6,4,0,0,0,0,1,1,37
87264000,0,4000000.0,1.0,0.0,25.773903,0.0,0,0,0,0,0,2,0,0,1,1,43
87448000,87444000,4000000.0,1.0,0.020916333,11.313744,0.0,255,0,6,4,0,0,0,0,1,1,37
88264000,0,4000000.0,1.0,0.0,25.692228,0.0,0,0,0,0,0,2,0,0,1,1,43
88448000,88444000,4000000.0,1.0,0.020916333,11.057768,0.0,255,0,6,4,0,0,0,0,1,1,37
89264000,0,4000000.0,1.0,0.0,25.611551,0.0,0,0,0,0,0,2,0,0,1,1,43
89444000,89444000,4000000.0,1.0,0.020916333,11.16235,0.0,255,0,6,4,0,0,0,0,1,1,37
90264000,0,4000000.0,1.0,0.0,25.696213,0.0,0,0,0,0,0,2,0,0,1,1,43
90444000,89444000,4000000.0,1.0,0.020916333,11.057768,0.0,255,0,6,4,0,0,0,0,1,1,37
91264000,0,4000000.0,1.0,0.0,25.706173,0.0,0,0,0,0,0,2,0,0,1,1,43
91444000,90444000,4000000.0,1.0,0.020916333,11.20219,0.0,255,0,6,4,0,0,0,0,1,1,37
91492000,91488000,4000000.0,1.0,0.020916333,11.20219,0.0,255,0,6,4,0,0,0,0,1,1,37
92264000,0,4000000.0,1.0,0.0,25.944221,0.0,0,0,0,0,0,2,0,0,1,1,43
92492000,91488000,4000000.0,1.0,0.06474103,11.250995,0.0,255,0,6,4,0,0,0,0,1,1,37
92552000,92548000,4000000.0,1.0,0.0438247,12.378485,0.0,255,0,6,4,0,0,0,0,1,1,37
93264000,0,4000000.0,1.0,0.0,26.168324,0.0,0,0,0,0,0,2,0,0,1,1,43
93444000,93440000,4000000.0,1.0,0.0438247,12.378485,0.0,255,0,6,4,0,0,0,0,1,1,37
94264000,0,4000000.0,1.0,0.0,26.923304,0.0,0,0,0,0,0,2,0,0,1,1,43
94444000,94440000,4000000.0,1.0,0.041832667,16.56474,0.0,255,0,6,4,0,0,0,0,1,1,37
95264000,0,4000000.0,1.0,0.0,26.83167,0.0,0,0,0,0,0,2,0,0,1,1,43
95440000,95436000,4000000.0,1.0,0.020916333,16.537848,0.0,255,0,6,4,0,0,0,0,1,1,37
96264000,0,4000000.0,1.0,0.0,26.667328,0.0,0,0,0,0,0,2,0,0,1,1,43
96440000,96436000,4000000.0,1.0,0.020916333,16.428286,0.0,255,0,6,4,0,0,0,0,1,1,37
97264000,0,4000000.0,1.0,0.0,26.855576,0.0,0,0,0,0,0,2,0,0,1,1,43
97436000,97436000,4000000.0,1.0,0.020916333,16.645416,0.0,255,0,6,4,0,0,0,0,1,1,37
98264000,0,4000000.0,1.0,0.0,26.74701,0.0,0,0,0,0,0,2,0,0,1,1,43
98436000,97436000,4000000.0,1.0,0.020916333,16.43227,0.0,255,0,6,4,0,0,0,0,1,1,37
99264000,0,4000000.0,1.0,0.0,26.83167,0.0,0,0,0,0,0,2,0,0,1,1,43
99436000,99432000,4000000.0,1.0,0.020916333,16.556772,0.0,255,0,6,4,0,0,0,0,1,1,37
100264000,0,4000000.0,1.0,0.0,26.750994,0.0,0,0,0,0,0,2,0,0,1,1,43
100432000,100428000,4000000.0,1.0,0.020916333,16.388445,0.0,255,0,6,4,0,0,0,0,1,1,37
101264000,0,4000000.0,1.0,0.0,26.799799,0.0,0,0,0,0,0,2,0,0,1,1,43
101432000,101428000,4000000.0,1.0,0.020916333,16.533863,0.0,255,0,6,4,0,0,0,0,1,1,37
102264000,0,4000000.0,1.0,0.0,27.010954,0.0,0,0,0,0,0,2,0,0,1,1,43
102432000,102428000,4000000.0,1.0,0.046812747,16.560755,0.0,255,0,6,4,0,0,0,0,1,1,37
103264000,0,4000000.0,1.0,0.0,27.08167,0.0,0,0,0,0,0,2,0,0,1,1,43
103432000,103428000,4000000.0,1.0,0.020916333,16.550795,0.0,255,0,6,4,0,0,0,0,1,1,37
104264000,0,4000000.0,1.0,0.0,26.612547,0.0,0,0,0,0,0,2,0,0,1,1,43
104428000,104424000,4000000.0,1.0,0.020916333,16.449202,0.0,255,0,6,4,0,0,0,0,1,1,37
105264000,0,4000000.0,1.0,0.0,26.83167,0.0,0,0,0,0,0,2,0,0,1,1,43
105428000,105424000,4000000.0,1.0,0.020916333,16.494022,0.0,255,0,6,4,0,0,0,0,1,1,37
106264000,0,4000000.0,1.0,0.0,26.680277,0.0,0,0,0,0,0,2,0,0,1,1,43
106424000,106424000,4000000.0,1.0,0.020916333,16.428286,0.0,255,0,6,4,0,0,0,0,1,1,37
107264000,0,4000000.0,1.0,0.0,26.911352,0.0,0,0,0,0,0,2,0,0,1,1,43
107424000,106424000,4000000.0,1.0,0.020916333,16.645416,0.0,255,0,6,4,0,0,0,0,1,1,37
108264000,0,4000000.0,1.0,0.0,26.787846,0.0,0,0,0,0,0,2,0,0,1,1,43
108424000,108420000,4000000.0,1.0,0.020916333,16.43227,0.0,255,0,6,4,0,0,0,0,1,1,37
109264000,0,4000000.0,1.0,0.0,26.735058,0.0,0,0,0,0,0,2,0,0,1,1,43
109424000,109420000,4000000.0,1.0,0.020916333,16.556772,0.0,255,0,6,4,0,0,0,0,1,1,37
110264000,0,4000000.0,1.0,0.0,26.763943,0.0,0,0,0,0,0,2,0,0,1,1,43
110424000,110420000,4000000.0,1.0,0.020916333,16.388445,0.0,255,0,6,4,0,0,0,0,1,1,37
111264000,0,4000000.0,1.0,0.0,26.976093,0.0,0,0,0,0,0,2,0,0,1,1,43
111420000,111416000,4000000.0,1.0,0.020916333,16.533863,0.0,255,0,6,4,0,0,0,0,1,1,37
112264000,0,4000000.0,1.0,0.0,26.850595,0.0,0,0,0,0,0,2,0,0,1,1,43
112420000,112416000,4000000.0,1.0,0.046812747,16.560755,0.0,255,0,6,4,0,0,0,0,1,1,37
113264000,0,4000000.0,1.0,0.0,26.81474,0.0,0,0,0,0,0,2,0,0,1,1,43
113420000,113416000,4000000.0,1.0,0.020916333,16.537848,0.0,255,0,6,4,0,0,0,0,1,1,37
114264000,0,4000000.0,1.0,0.0,26.625496,0.0,0,0,0,0,0,2,0,0,1,1,43
114416000,114412000,4000000.0,1.0,0.020916333,16.451193,0.0,255,0,6,4,0,0,0,0,1,1,37
115264000,0,4000000.0,1.0,0.0,26.858562,0.0,0,0,0,0,0,2,0,0,1,1,43
115416000,115412000,4000000.0,1.0,0.020916333,16.506971,0.0,255,0,6,4,0,0,0,0,1,1,37
116264000,0,4000000.0,1.0,0.0,26.680277,0.0,0,0,0,0,0,2,0,0,1,1,43
116416000,116412000,4000000.0,1.0,0.020916333,16.415337,0.0,255,0,6,4,0,0,0,0,1,1,37
117264000,0,4000000.0,1.0,0.0,27.092627,0.0,0,0,0,0,0,2,0,0,1,1,43
117412000,117408000,4000000.0,1.0,0.020916333,16.645416,0.0,255,0,6,4,0,0,0,0,1,1,37
118264000,0,4000000.0,1.0,0.0,27.31175,0.0,0,0,0,0,0,2,0,0,1,1,43
118412000,118408000,4000000.0,1.0,0.020916333,17.020914,0.0,255,0,6,4,0,0,0,0,1,1,37
119264000,0,4000000.0,1.0,0.0,27.052786,0.0,0,0,0,0,0,2,0,0,1,1,43
119412000,119408000,4000000.0,1.0,0.020916333,16.745018,0.0,255,0,6,4,0,0,0,0,1,1,37
120264000,0,4000000.0,1.0,0.0,26.763943,0.0,0,0,0,0,0,2,0,0,1,1,43
120408000,120404000,4000000.0,1.0,0.020916333,16.43227,0.0,255,0,6,4,0,0,0,0,1,1,37
121264000,0,4000000.0,1.0,0.0,26.735058,0.0,0,0,0,0,0,2,0,0,1,1,43
121408000,121404000,4000000.0,1.0,0.020916333,16.546812,0.0,255,0,6,4,0,0,0,0,1,1,37
122264000,0,4000000.0,1.0,0.0,26.787846,0.0,0,0,0,0,0,2,0,0,1,1,43
122408000,122404000,4000000.0,1.0,0.046812747,16.547808,0.0,255,0,6,4,0,0,0,0,1,1,37
123264000,0,4000000.0,1.0,0.0,26.81474,0.0,0,0,0,0,0,2,0,0,1,1,43
123404000,123404000,4000000.0,1.0,0.020916333,16.550795,0.0,255,0,6,4,0,0,0,0,1,1,37
124264000,0,4000000.0,1.0,0.0,26.763943,0.0,0,0,0,0,0,2,0,0,1,1,43
124404000,124400000,4000000.0,1.0,0.020916333,16.438246,0.0,255,0,6,4,0,0,0,0,1,1,37
125264000,0,4000000.0,1.0,0.0,27.478085,0.0,0,0,0,0,0,2,0,0,1,1,43
125404000,125400000,4000000.0,1.0,0.020916333,16.943226,0.0,255,0,6,4,0,0,0,0,1,1,37
126264000,0,4000000.0,1.0,0.0,26.915337,0.0,0,0,0,0,0,2,0,0,1,1,43
126400000,126396000,4000000.0,1.0,0.020916333,16.6245,0.0,255,0,6,4,0,0,0,0,1,1,37
127264000,0,4000000.0,1.0,0.0,27.07171,0.0,0,0,0,0,0,2,0,0,1,1,43
127400000,127396000,4000000.0,1.0,0.020916333,16.862549,0.0,255,0,6,4,0,0,0,0,1,1,37
128264000,0,4000000.0,1.0,0.0,26.988045,0.0,0,0,0,0,0,2,0,0,1,1,43
128396000,128396000,4000000.0,1.0,0.020916333,16.419321,0.0,255,0,6,4,0,0,0,0,1,1,37
129264000,0,4000000.0,1.0,0.0,26.748034,0.0,0,0,0,0,0,2,0,0,1,1,43
129396000,129396000,4000000.0,1.0,0.020916354,16.463163,0.0,255,0,6,4,0,0,0,0,1,1,37
130264000,0,4000000.0,1.0,0.0,26.696188,0.0,0,0,0,0,0,2,0,0,1,1,43
130396000,130391999,4000000.0,1.0,0.020916313,16.268908,0.0,255,0,6,4,0,0,0,0,1,1,37
131264000,0,4000000.0,1.0,0.0,27.153383,0.0,0,0,0,0,0,2,0,0,1,1,43
131396000,131391999,4000000.0,1.0,0.020916333,16.661354,0.0,255,0,6,4,0,0,0,0,1,1,37
132264000,0,4000000.0,1.0,0.0,26.887476,0.0,0,0,0,0,0,2,0,0,1,1,43
132396000,132391999,4000000.0,1.0,0.046812795,16.572725,0.0,255,0,6,4,0,0,0,0,1,1,37
133264000,0,4000000.0,1.0,0.0,26.886427,0.0,0,0,0,0,0,2,0,0,1,1,43
133391999,133388000,4000000.0,1.0,0.020916313,16.444206,0.0,255,0,6,4,0,0,0,0,1,1,37
134264000,0,4000000.0,1.0,0.0,26.667328,0.0,0,0,0,0,0,2,0,0,1,1,43
134392000,134388000,4000000.0,1.0,0.020916333,16.312748,0.0,255,0,6,4,0,0,0,0,1,1,37
135264000,0,4000000.0,1.0,0.0,26.83167,0.0,0,0,0,0,0,2,0,0,1,1,43
135392000,135388000,4000000.0,1.0,0.020916333,16.400396,0.0,255,0,6,4,0,0,0,0,1,1,37
136264000,0,4000000.0,1.0,0.0,26.908363,0.0,0,0,0,0,0,2,0,0,1,1,43
136388000,136384000,4000000.0,1.0,0.020916333,16.415337,0.0,255,0,6,4,0,0,0,0,1,1,37
137264000,0,4000000.0,1.0,0.0,26.983065,0.0,0,0,0,0,0,2,0,0,1,1,43
137388000,137384000,4000000.0,1.0,0.020916333,16.710157,0.0,255,0,6,4,0,0,0,0,1,1,37
138264000,0,4000000.0,1.0,0.0,26.837646,0.0,0,0,0,0,0,2,0,0,1,1,43
138388000,138384000,4000000.0,1.0,0.020916333,16.585655,0.0,255,0,6,4,0,0,0,0,1,1,37
139264000,0,4000000.0,1.0,0.0,26.748005,0.0,0,0,0,0,0,2,0,0,1,1,43
139384000,139380000,4000000.0,1.0,0.020916333,16.506971,0.0,255,0,6,4,0,0,0,0,1,1,37
140264000,0,4000000.0,1.0,0.0,26.790834,0.0,0,0,0,0,0,2,0,0,1,1,43
140384000,140380000,4000000.0,1.0,0.020916333,16.375496,0.0,255,0,6,4,0,0,0,0,1,1,37
141264000,0,4000000.0,1.0,0.0,26.748005,0.0,0,0,0,0,0,2,0,0,1,1,43
141380000,141376000,4000000.0,1.0,0.020916333,16.546812,0.0,255,0,6,4,0,0,0,0,1,1,37
142264000,0,4000000.0,1.0,0.0,26.774899,0.0,0,0,0,0,0,2,0,0,1,1,43
142380000,142376000,4000000.0,1.0,0.046812747,16.547808,0.0,255,0,6,4,0,0,0,0,1,1,37
143264000,0,4000000.0,1.0,0.0,26.837646,0.0,0,0,0,0,0,2,0,0,1,1,43
143380000,143376000,4000000.0,1.0,0.020916333,16.665337,0.0,255,0,6,4,0,0,0,0,1,1,37
144264000,0,4000000.0,1.0,0.0,26.999002,0.0,0,0,0,0,0,2,0,0,1,1,43
144380000,144376000,4000000.0,1.0,0.020916333,16.479082,0.0,255,0,6,4,0,0,0,0,1,1,37
145264000,0,4000000.0,1.0,0.0,27.208164,0.0,0,0,0,0,0,2,0,0,1,1,43
145376000,145376000,4000000.0,1.0,0.020916333,16.759958,0.0,255,0,6,4,0,0,0,0,1,1,37
146264000,0,4000000.0,1.0,0.0,26.763943,0.0,0,0,0,0,0,2,0,0,1,1,43
146376000,146372000,4000000.0,1.0,0.020916333,16.518923,0.0,255,0,6,4,0,0,0,0,1,1,37
147264000,0,4000000.0,1.0,0.0,26.908363,0.0,0,0,0,0,0,2,0,0,1,1,43
147376000,147372000,4000000.0,1.0,0.020916333,16.749002,0.0,255,0,6,4,0,0,0,0,1,1,37
148264000,0,4000000.0,1.0,0.0,26.768923,0.0,0,0,0,0,0,2,0,0,1,1,43
148376000,148372000,4000000.0,1.0,0.020916333,16.485058,0.0,255,0,6,4,0,0,0,0,1,1,37
149264000,0,4000000.0,1.0,0.0,26.827686,0.0,0,0,0,0,0,2,0,0,1,1,43
149372000,149368000,4000000.0,1.0,0.020916333,16.509958,0.0,255,0,6,4,0,0,0,0,1,1,37
150264000,0,4000000.0,1.0,0.0,26.772905,0.0,0,0,0,0,0,2,0,0,1,1,43
150372000,150368000,4000000.0,1.0,0.020916333,16.391434,0.0,255,0,6,4,0,0,0,0,1,1,37
151264000,0,4000000.0,1.0,0.0,26.795815,0.0,0,0,0,0,0,2,0,0,1,1,43
151372000,151368000,4000000.0,1.0,0.020916333,16.536852,0.0,255,0,6,4,0,0,0,0,1,1,37
152264000,0,4000000.0,1.0,0.0,27.032866,0.0,0,0,0,0,0,2,0,0,1,1,43
152368000,152364000,4000000.0,1.0,0.046812747,16.563744,0.0,255,0,6,4,0,0,0,0,1,1,37
153264000,0,4000000.0,1.0,0.0,27.06474,0.0,0,0,0,0,0,2,0,0,1,1,43
153364000,153360000,4000000.0,1.0,0.020916333,16.84462,0.0,255,0,6,4,0,0,0,0,1,1,37
154264000,0,4000000.0,1.0,0.0,26.77689,0.0,0,0,0,0,0,2,0,0,1,1,43
154364000,154360000,4000000.0,1.0,0.020916333,16.533863,0.0,255,0,6,4,0,0,0,0,1,1,37
155264000,0,4000000.0,1.0,0.0,26.840635,0.0,0,0,0,0,0,2,0,0,1,1,43
155360000,155360000,4000000.0,1.0,0.020916333,16.509958,0.0,255,0,6,4,0,0,0,0,1,1,37
156264000,0,4000000.0,1.0,0.0,26.689241,0.0,0,0,0,0,0,2,0,0,1,1,43
156360000,155360000,4000000.0,1.0,0.020916333,16.431274,0.0,255,0,6,4,0,0,0,0,1,1,37
157264000,0,4000000.0,1.0,0.0,26.865536,0.0,0,0,0,0,0,2,0,0,1,1,43
157360000,156360000,4000000.0,1.0,0.020916333,16.605576,0.0,255,0,6,4,0,0,0,0,1,1,37
158264000,0,4000000.0,1.0,0.0,26.762945,0.0,0,0,0,0,0,2,0,0,1,1,43
158360000,158356000,4000000.0,1.0,0.020916333,16.465137,0.0,255,0,6,4,0,0,0,0,1,1,37
159264000,0,4000000.0,1.0,0.0,26.735058,0.0,0,0,0,0,0,2,0,0,1,1,43
159360000,159356000,4000000.0,1.0,0.020916333,16.38745,0.0,255,0,6,4,0,0,0,0,1,1,37
160264000,0,4000000.0,1.0,0.0,26.763943,0.0,0,0,0,0,0,2,0,0,1,1,43
160360000,160356000,4000000.0,1.0,0.020916333,16.388445,0.0,255,0,6,4,0,0,0,0,1,1,37
161264000,0,4000000.0,1.0,0.0,27.646412,0.0,0,0,0,0,0,2,0,0,1,1,43
161356000,161356000,4000000.0,1.0,0.020916333,17.14442,0.0,255,0,6,4,0,0,0,0,1,1,37
162264000,0,4000000.0,1.0,0.0,27.022905,0.0,0,0,0,0,0,2,0,0,1,1,43
162356000,162352000,4000000.0,1.0,0.046812747,16.791832,0.0,255,0,6,4,0,0,0,0,1,1,37
163264000,0,4000000.0,1.0,0.0,27.173304,0.0,0,0,0,0,0,2,0,0,1,1,43
163356000,163352000,4000000.0,1.0,0.020916333,16.787848,0.0,255,0,6,4,0,0,0,0,1,1,37
164264000,0,4000000.0,1.0,0.0,26.709162,0.0,0,0,0,0,0,2,0,0,1,1,43
164352000,164348000,4000000.0,1.0,0.020916333,16.486053,0.0,255,0,6,4,0,0,0,0,1,1,37
165264000,0,4000000.0,1.0,0.0,26.799799,0.0,0,0,0,0,0,2,0,0,1,1,43
165352000,165348000,4000000.0,1.0,0.020916333,16.42231,0.0,255,0,6,4,0,0,0,0,1,1,37
166264000,0,4000000.0,1.0,0.0,26.630476,0.0,0,0,0,0,0,2,0,0,1,1,43
166352000,166348000,4000000.0,1.0,0.020916333,16.546812,0.0,255,0,6,4,0,0,0,0,1,1,37
167264000,0,4000000.0,1.0,0.0,26.792826,0.0,0,0,0,0,0,2,0,0,1,1,43
167352000,167348000,4000000.0,1.0,0.020916333,16.532867,0.0,255,0,6,4,0,0,0,0,1,1,37
168264000,0,4000000.0,1.0,0.0,26.709162,0.0,0,0,0,0,0,2,0,0,1,1,43
168348000,168344000,4000000.0,1.0,0.020916333,16.401394,0.0,255,0,6,4,0,0,0,0,1,1,37
169264000,0,4000000.0,1.0,0.0,26.88446,0.0,0,0,0,0,0,2,0,0,1,1,43
169348000,169344000,4000000.0,1.0,0.020916333,16.381474,0.0,255,0,6,4,0,0,0,0,1,1,37
170264000,0,4000000.0,1.0,0.0,27.11952,0.0,0,0,0,0,0,2,0,0,1,1,43
170344000,170340000,4000000.0,1.0,0.020916333,16.72709,0.0,255,0,6,4,0,0,0,0,1,1,37
171264000,0,4000000.0,1.0,0.0,26.805775,0.0,0,0,0,0,0,2,0,0,1,1,43
171344000,171340000,4000000.0,1.0,0.020916333,16.613544,0.0,255,0,6,4,0,0,0,0,1,1,37
172264000,0,4000000.0,1.0,0.0,26.774899,0.0,0,0,0,0,0,2,0,0,1,1,43
172340000,172336000,4000000.0,1.0,0.046812747,16.728086,0.0,255,0,6,4,0,0,0,0,1,1,37
173264000,0,4000000.0,1.0,0.0,26.934261,0.0,0,0,0,0,0,2,0,0,1,1,43
173340000,173336000,4000000.0,1.0,0.020916333,16.469122,0.0,255,0,6,4,0,0,0,0,1,1,37
174264000,0,4000000.0,1.0,0.0,26.718124,0.0,0,0,0,0,0,2,0,0,1,1,43
174340000,174336000,4000000.0,1.0,0.020916333,16.498007,0.0,255,0,6,4,0,0,0,0,1,1,37
175264000,0,4000000.0,1.0,0.0,26.772905,0.0,0,0,0,0,0,2,0,0,1,1,43
175340000,175336000,4000000.0,1.0,0.020916333,16.317728,0.0,255,0,6,4,0,0,0,0,1,1,37
176264000,0,4000000.0,1.0,0.0,26.660357,0.0,0,0,0,0,0,2,0,0,1,1,43
176336000,176332000,4000000.0,1.0,0.020916333,16.60458,0.0,255,0,6,4,0,0,0,0,1,1,37
177264000,0,4000000.0,1.0,0.0,26.932268,0.0,0,0,0,0,0,2,0,0,1,1,43
177336000,177332000,4000000.0,1.0,0.020916333,16.470118,0.0,255,0,6,4,0,0,0,0,1,1,37
178264000,0,4000000.0,1.0,0.0,26.937248,0.0,0,0,0,0,0,2,0,0,1,1,43
178336000,178332000,4000000.0,1.0,0.020916333,16.46215,0.0,255,0,6,4,0,0,0,0,1,1,37
179264000,0,4000000.0,1.0,0.0,27.067726,0.0,0,0,0,0,0,2,0,0,1,1,43
179332000,179328000,4000000.0,1.0,0.020916333,16.862549,0.0,255,0,6,4,0,0,0,0,1,1,37
180264000,0,4000000.0,1.0,0.0,26.990038,0.0,0,0,0,0,0,2,0,0,1,1,43
180332000,180328000,4000000.0,1.0,0.020916333,16.776892,0.0,255,0,6,4,0,0,0,0,1,1,37
181264000,0,4000000.0,1.0,0.0,26.785854,0.0,0,0,0,0,0,2,0,0,1,1,43
181332000,181328000,4000000.0,1.0,0.020916333,16.497011,0.0,255,0,6,4,0,0,0,0,1,1,37
182264000,0,4000000.0,1.0,0.0,26.793823,0.0,0,0,0,0,0,2,0,0,1,1,43
182332000,182328000,4000000.0,1.0,0.046812747,16.64741,0.0,255,0,6,4,0,0,0,0,1,1,37
183264000,0,4000000.0,1.0,0.0,26.80478,0.0,0,0,0,0,0,2,0,0,1,1,43
183328000,183324000,4000000.0,1.0,0.020916333,16.320715,0.0,255,0,6,4,0,0,0,0,1,1,37
184264000,0,4000000.0,1.0,0.0,26.630476,0.0,0,0,0,0,0,2,0,0,1,1,43
184324000,184320000,4000000.0,1.0,0.020916333,16.46215,0.0,255,0,6,4,0,0,0,0,1,1,37
185264000,0,4000000.0,1.0,0.0,26.768923,0.0,0,0,0,0,0,2,0,0,1,1,43
185324000,185320000,4000000.0,1.0,0.020916333,16.320715,0.0,255,0,6,4,0,0,0,0,1,1,37
186264000,0,4000000.0,1.0,0.0,26.871511,0.0,0,0,0,0,0,2,0,0,1,1,43
186324000,186320000,4000000.0,1.0,0.020916333,16.607569,0.0,255,0,6,4,0,0,0,0,1,1,37
187264000,0,4000000.0,1.0,0.0,26.855576,0.0,0,0,0,0,0,2,0,0,1,1,43
187324000,187320000,4000000.0,1.0,0.020916333,16.47211,0.0,255,0,6,4,0,0,0,0,1,1,37
188264000,0,4000000.0,1.0,0.0,26.709162,0.0,0,0,0,0,0,2,0,0,1,1,43
188324000,188320000,4000000.0,1.0,0.020916333,16.46215,0.0,255,0,6,4,0,0,0,0,1,1,37
189264000,0,4000000.0,1.0,0.0,26.685257,0.0,0,0,0,0,0,2,0,0,1,1,43
189320000,189316000,4000000.0,1.0,0.020916333,16.320715,0.0,255,0,6,4,0,0,0,0,1,1,37
190264000,0,4000000.0,1.0,0.0,26.753983,0.0,0,0,0,0,0,2,0,0,1,1,43
190320000,190316000,4000000.0,1.0,0.020916333,16.491034,0.0,255,0,6,4,0,0,0,0,1,1,37
191264000,0,4000000.0,1.0,0.0,26.704182,0.0,0,0,0,0,0,2,0,0,1,1,43
191320000,191316000,4000000.0,1.0,0.020916333,16.530874,0.0,255,0,6,4,0,0,0,0,1,1,37
192264000,0,4000000.0,1.0,0.0,26.787846,0.0,0,0,0,0,0,2,0,0,1,1,43
192316000,192312000,4000000.0,1.0,0.046812747,16.684261,0.0,255,0,6,4,0,0,0,0,1,1,37
193264000,0,4000000.0,1.0,0.0,26.81474,0.0,0,0,0,0,0,2,0,0,1,1,43
193316000,193312000,4000000.0,1.0,0.020916333,16.370516,0.0,255,0,6,4,0,0,0,0,1,1,37
194264000,0,4000000.0,1.0,0.0,26.866531,0.0,0,0,0,0,0,2,0,0,1,1,43
194316000,194312000,4000000.0,1.0,0.020916333,16.511951,0.0,255,0,6,4,0,0,0,0,1,1,37
195264000,0,4000000.0,1.0,0.0,26.818724,0.0,0,0,0,0,0,2,0,0,1,1,43
195312000,195308000,4000000.0,1.0,0.020916333,16.370516,0.0,255,0,6,4,0,0,0,0,1,1,37
196264000,0,4000000.0,1.0,0.0,26.680277,0.0,0,0,0,0,0,2,0,0,1,1,43
196312000,196308000,4000000.0,1.0,0.020916333,16.658365,0.0,255,0,6,4,0,0,0,0,1,1,37
197264000,0,4000000.0,1.0,0.0,26.842627,0.0,0,0,0,0,0,2,0,0,1,1,43
197312000,197308000,4000000.0,1.0,0.020916333,16.521912,0.0,255,0,6,4,0,0,0,0,1,1,37
198264000,0,4000000.0,1.0,0.0,26.759958,0.0,0,0,0,0,0,2,0,0,1,1,43
198312000,198308000,4000000.0,1.0,0.020916333,16.524899,0.0,255,0,6,4,0,0,0,0,1,1,37
199264000,0,4000000.0,1.0,0.0,26.83167,0.0,0,0,0,0,0,2,0,0,1,1,43
199304000,199304000,4000000.0,1.0,0.020916333,16.357569,0.0,255,0,6,4,0,0,0,0,1,1,37
200264000,0,4000000.0,1.0,0.0,26.750994,0.0,0,0,0,0,0,2,0,0,1,1,43
200304000,199304000,4000000.0,1.0,0.020916333,16.524899,0.0,255,0,6,4,0,0,0,0,1,1,37
201264000,0,4000000.0,1.0,0.0,26.799799,0.0,0,0,0,0,0,2,0,0,1,1,43
201304000,201300000,4000000.0,1.0,0.020916333,16.503983,0.0,255,0,6,4,0,0,0,0,1,1,37
202264000,0,4000000.0,1.0,0.0,27.010954,0.0,0,0,0,0,0,2,0,0,1,1,43
202304000,202300000,4000000.0,1.0,0.046812747,16.69721,0.0,255,0,6,4,0,0,0,0,1,1,37
203264000,0,4000000.0,1.0,0.0,27.068724,0.0,0,0,0,0,0,2,0,0,1,1,43
203304000,203300000,4000000.0,1.0,0.020916333,16.357569,0.0,255,0,6,4,0,0,0,0,1,1,37
204264000,0,4000000.0,1.0,0.0,26.612547,0.0,0,0,0,0,0,2,0,0,1,1,43
204304000,204300000,4000000.0,1.0,0.020916333,16.55478,0.0,255,0,6,4,0,0,0,0,1,1,37
205264000,0,4000000.0,1.0,0.0,26.83167,0.0,0,0,0,0,0,2,0,0,1,1,43
205300000,205296000,4000000.0,1.0,0.020916333,16.357569,0.0,255,0,6,4,0,0,0,0,1,1,37
206264000,0,4000000.0,1.0,0.0,26.667328,0.0,0,0,0,0,0,2,0,0,1,1,43
206300000,206296000,4000000.0,1.0,0.020916333,16.671314,0.0,255,0,6,4,0,0,0,0,1,1,37
207264000,0,4000000.0,1.0,0.0,26.924301,0.0,0,0,0,0,0,2,0,0,1,1,43
207300000,207296000,4000000.0,1.0,0.020916333,16.508963,0.0,255,0,6,4,0,0,0,0,1,1,37
208264000,0,4000000.0,1.0,0.0,26.774899,0.0,0,0,0,0,0,2,0,0,1,1,43
208296000,208292000,4000000.0,1.0,0.020916333,16.524899,0.0,255,0,6,4,0,0,0,0,1,1,37
209264000,0,4000000.0,1.0,0.0,26.748005,0.0,0,0,0,0,0,2,0,0,1,1,43
209296000,209292000,4000000.0,1.0,0.020916333,16.357569,0.0,255,0,6,4,0,0,0,0,1,1,37
210264000,0,4000000.0,1.0,0.0,26.750994,0.0,0,0,0,0,0,2,0,0,1,1,43
210296000,210292000,4000000.0,1.0,0.020916333,16.524899,0.0,255,0,6,4,0,0,0,0,1,1,37
211264000,0,4000000.0,1.0,0.0,26.989042,0.0,0,0,0,0,0,2,0,0,1,1,43
211292000,211288000,4000000.0,1.0,0.020916333,16.503983,0.0,255,0,6,4,0,0,0,0,1,1,37
212264000,0,4000000.0,1.0,0.0,26.837646,0.0,0,0,0,0,0,2,0,0,1,1,43
212292000,212288000,4000000.0,1.0,0.046812747,16.69721,0.0,255,0,6,4,0,0,0,0,1,1,37
213264000,0,4000000.0,1.0,0.0,26.827686,0.0,0,0,0,0,0,2,0,0,1,1,43
213292000,213288000,4000000.0,1.0,0.020916333,16.357569,0.0,255,0,6,4,0,0,0,0,1,1,37
214264000,0,4000000.0,1.0,0.0,26.667328,0.0,0,0,0,0,0,2,0,0,1,1,43
214288000,214284000,4000000.0,1.0,0.020916333,16.524899,0.0,255,0,6,4,0,0,0,0,1,1,37
215264000,0,4000000.0,1.0,0.0,26.871511,0.0,0,0,0,0,0,2,0,0,1,1,43
215288000,215284000,4000000.0,1.0,0.020916333,16.357569,0.0,255,0,6,4,0,0,0,0,1,1,37
216264000,0,4000000.0,1.0,0.0,26.667328,0.0,0,0,0,0,0,2,0,0,1,1,43
216288000,216284000,4000000.0,1.0,0.020916333,16.671314,0.0,255,0,6,4,0,0,0,0,1,1,37
217264000,0,4000000.0,1.0,0.0,26.855576,0.0,0,0,0,0,0,2,0,0,1,1,43
217284000,217280000,4000000.0,1.0,0.020916333,16.521912,0.0,255,0,6,4,0,0,0,0,1,1,37
218264000,0,4000000.0,1.0,0.0,26.759958,0.0,0,0,0,0,0,2,0,0,1,1,43
218284000,218280000,4000000.0,1.0,0.020916333,16.511951,0.0,255,0,6,4,0,0,0,0,1,1,37
219264000,0,4000000.0,1.0,0.0,26.921312,0.0,0,0,0,0,0,2,0,0,1,1,43
219284000,219280000,4000000.0,1.0,0.020916333,16.370516,0.0,255,0,6,4,0,0,0,0,1,1,37
220264000,0,4000000.0,1.0,0.0,26.763943,0.0,0,0,0,0,0,2,0,0,1,1,43
220280000,220276000,4000000.0,1.0,0.020916333,16.511951,0.0,255,0,6,4,0,0,0,0,1,1,37
221264000,0,4000000.0,1.0,0.0,26.735058,0.0,0,0,0,0,0,2,0,0,1,1,43
221280000,221276000,4000000.0,1.0,0.020916333,16.516932,0.0,255,0,6,4,0,0,0,0,1,1,37
222264000,0,4000000.0,1.0,0.0,26.787846,0.0,0,0,0,0,0,2,0,0,1,1,43
222280000,222276000,4000000.0,1.0,0.046812747,16.69721,0.0,255,0,6,4,0,0,0,0,1,1,37
223264000,0,4000000.0,1.0,0.0,26.827686,0.0,0,0,0,0,0,2,0,0,1,1,43
223276000,223272000,4000000.0,1.0,0.020916333,16.370516,0.0,255,0,6,4,0,0,0,0,1,1,37
224264000,0,4000000.0,1.0,0.0,26.750994,0.0,0,0,0,0,0,2,0,0,1,1,43
224276000,224272000,4000000.0,1.0,0.020916333,16.511951,0.0,255,0,6,4,0,0,0,0,1,1,37
225264000,0,4000000.0,1.0,0.0,26.83167,0.0,0,0,0,0,0,2,0,0,1,1,43
225276000,225272000,4000000.0,1.0,0.020916333,16.370516,0.0,255,0,6,4,0,0,0,0,1,1,37
226264000,0,4000000.0,1.0,0.0,26.719122,0.0,0,0,0,0,0,2,0,0,1,1,43
226272000,226268000,4000000.0,1.0,0.020916333,16.658365,0.0,255,0,6,4,0,0,0,0,1,1,37
227264000,0,4000000.0,1.0,0.0,27.228085,0.0,0,0,0,0,0,2,0,0,1,1,43
227272000,227268000,4000000.0,1.0,0.020916333,16.521912,0.0,255,0,6,4,0,0,0,0,1,1,37
228264000,0,4000000.0,1.0,0.0,26.74701,0.0,0,0,0,0,0,2,0,0,1,1,43
228272000,228268000,4000000.0,1.0,0.020916333,16.511951,0.0,255,0,6,4,0,0,0,0,1,1,37
229264000,0,4000000.0,1.0,0.0,26.748005,0.0,0,0,0,0,0,2,0,0,1,1,43
229268000,229264000,4000000.0,1.0,0.020916333,16.370516,0.0,255,0,6,4,0,0,0,0,1,1,37
230264000,0,4000000.0,1.0,0.0,26.696213,0.0,0,0,0,0,0,2,0,0,1,1,43
230268000,230264000,4000000.0,1.0,0.020916333,16.511951,0.0,255,0,6,4,0,0,0,0,1,1,37
231264000,0,4000000.0,1.0,0.0,26.748005,0.0,0,0,0,0,0,2,0,0,1,1,43
231268000,231264000,4000000.0,1.0,0.020916333,16.516932,0.0,255,0,6,4,0,0,0,0,1,1,37
232264000,232260000,4000000.0,1.0,0.046812747,16.684261,0.0,255,0,6,4,0,0,0,0,1,1,37
232264000,0,4000000.0,1.0,0.0,26.856571,0.0,0,0,0,0,0,2,0,0,1,1,43
233264000,233260000,4000000.0,1.0,0.020916333,16.370516,0.0,255,0,6,4,0,0,0,0,1,1,37
233264000,0,4000000.0,1.0,0.0,26.842627,0.0,0,0,0,0,0,2,0,0,1,1,43
234260000,234260000,4000000.0,1.0,0.020916333,16.511951,0.0,255,0,6,4,0,0,0,0,1,1,37
234264000,0,4000000.0,1.0,0.0,26.680277,0.0,0,0,0,0,0,2,0,0,1,1,43
235260000,235256000,4000000.0,1.0,0.020916333,16.370516,0.0,255,0,6,4,0,0,0,0,1,1,37
235264000,0,4000000.0,1.0,0.0,26.818724,0.0,0,0,0,0,0,2,0,0,1,1,43
236256000,236256000,4000000.0,1.0,0.020916333,16.8994,0.0,255,0,6,4,0,0,0,0,1,1,37
236264000,0,4000000.0,1.0,0.0,26.921312,0.0,0,0,0,0,0,2,0,0,1,1,43
237256000,236256000,4000000.0,1.0,0.020916333,16.521912,0.0,255,0,6,4,0,0,0,0,1,1,37
237264000,0,4000000.0,1.0,0.0,26.905376,0.0,0,0,0,0,0,2,0,0,1,1,43
238256000,238252000,4000000.0,1.0,0.020916333,16.511951,0.0,255,0,6,4,0,0,0,0,1,1,37
238264000,0,4000000.0,1.0,0.0,26.759958,0.0,0,0,0,0,0,2,0,0,1,1,43
239256000,239252000,4000000.0,1.0,0.020916333,16.441233,0.0,255,0,6,4,0,0,0,0,1,1,37
239264000,0,4000000.0,1.0,0.0,26.789839,0.0,0,0,0,0,0,2,0,0,1,1,43
