timestamp,vel_pos_innov[0],vel_pos_innov[1],vel_pos_innov[2],vel_pos_innov[3],vel_pos_innov[4],vel_pos_innov[5],mag_innov[0],mag_innov[1],mag_innov[2],heading_innov,airspeed_innov,beta_innov,flow_innov[0],flow_innov[1],hagl_innov,vel_pos_innov_var[0],vel_pos_innov_var[1],vel_pos_innov_var[2],vel_pos_innov_var[3],vel_pos_innov_var[4],vel_pos_innov_var[5],mag_innov_var[0],mag_innov_var[1],mag_innov_var[2],heading_innov_var,airspeed_innov_var,beta_innov_var,flow_innov_var[0],flow_innov_var[1],hagl_innov_var,output_tracking_error[0],output_tracking_error[1],output_tracking_error[2],drag_innov[0],drag_innov[1],drag_innov_var[0],drag_innov_var[1],aux_vel_innov[0],aux_vel_innov[1]
3136000,0.0,0.0,0.0,0.0058310553,0.0003541473,-0.0758667,0.0,0.0,0.0,-0.0021829307,0.0,0.0,0.0,0.0,0.0,0.0,0.0,0.0,0.27092218,0.27092227,4.1940155,0.0,0.0,0.0,0.09157509,0.0,0.0,0.0,0.0,0.0,0.0006525313,0.021314265,0.023301255,0.0,0.0,0.0,0.0,0.0,0.0
3336000,0.0,0.0,0.0,0.008764313,0.0006838914,0.031188965,0.0,0.0,0.0,0.00065660477,0.0,0.0,0.0,0.0,0.0,0.0,0.0,0.0,0.26845747,0.26845765,4.1906824,0.0,0.0,0.0,0.09138769,0.0,0.0,0.0,0.0,0.0,0.00026379255,0.029676342,0.034944586,0.0,0.0,0.0,0.0,0.0,0.0
3536000,0.0,0.0,0.0,0.012132349,0.0010847067,-0.03024292,0.0,0.0,0.0,-0.012611717,0.0,0.0,0.0,0.0,0.0,0.0,0.0,0.0,0.26764277,0.267643,4.187905,0.0,0.0,0.0,0.09126422,0.0,0.0,0.0,0.0,0.0,0.00019994406,0.025886066,0.03370424,0.0,0.0,0.0,0.0,0.0,0.0
3736000,0.0,0.0,0.0,0.01540456,0.0014397555,-0.05419922,0.0,0.0,0.0,0.015480787,0.0,0.0,0.0,0.0,0.0,0.0,0.0,0.0,0.26709682,0.26709718,4.180052,0.0,0.0,0.0,0.09115704,0.0,0.0,0.0,0.0,0.0,0.00042848033,0.029741803,0.039781246,0.0,0.0,0.0,0.0,0.0,0.0
3936000,0.0,0.0,0.0,0.01796139,0.00160324,-0.11566162,0.0,0.0,0.0,0.01234448,0.0,0.0,0.0,0.0,0.0,0.0,0.0,0.0,0.2669948,0.26699528,4.1723123,0.0,0.0,0.0,0.09108326,0.0,0.0,0.0,0.0,0.0,0.0007886399,0.02331815,0.031788256,0.0,0.0,0.0,0.0,0.0,0.0
4140000,0.0,0.0,0.0,0.020355856,0.0017650475,-0.070007324,0.0,0.0,0.0,-0.003950864,0.0,0.0,0.0,0.0,0.0,0.0,0.0,0.0,0.26759705,0.26759762,4.166454,0.0,0.0,0.0,0.09102069,0.0,0.0,0.0,0.0,0.0,0.0011633917,0.019084802,0.02077367,0.0,0.0,0.0,0.0,0.0,0.0
4340000,0.0,0.0,0.0,0.02147791,0.002013992,0.006286621,0.0,0.0,0.0,0.011868358,0.0,0.0,0.0,0.0,0.0,0.0,0.0,0.0,0.26785564,0.26785627,4.1605506,0.0,0.0,0.0,0.09097606,0.0,0.0,0.0,0.0,0.0,0.0011629917,0.019636344,0.020475458,0.0,0.0,0.0,0.0,0.0,0.0
4540000,0.0,0.0,0.0,0.022482917,0.0020924762,-0.05731201,0.0,0.0,0.0,-0.0042893887,0.0,0.0,0.0,0.0,0.0,0.0,0.0,0.0,0.26812655,0.26812714,4.155628,0.0,0.0,0.0,0.09093924,0.0,0.0,0.0,0.0,0.0,0.0014098311,0.022036225,0.022320187,0.0,0.0,0.0,0.0,0.0,0.0
4748000,0.0,0.0,0.0,0.02280032,0.0016461468,-0.1138916,0.0,0.0,0.0,0.0014024377,0.0,0.0,0.0,0.0,0.0,0.0,0.0,0.0,0.26787433,0.26787487,4.1502385,0.0,0.0,0.0,0.09090983,0.0,0.0,0.0,0.0,0.0,0.0016282316,0.021771459,0.021964489,0.0,0.0,0.0,0.0,0.0,0.0
4940000,0.0,0.0,0.0,0.022563167,0.0014636957,0.02420044,0.0,0.0,0.0,-0.010335833,0.0,0.0,0.0,0.0,0.0,0.0,0.0,0.0,0.26748806,0.26748854,4.1462545,0.0,0.0,0.0,0.09088967,0.0,0.0,0.0,0.0,0.0,0.0017978649,0.020436706,0.021907784,0.0,0.0,0.0,0.0,0.0,0.0
5140000,0.0,0.0,0.0,0.022628978,0.0015325529,-0.14849854,0.0,0.0,0.0,0.0054878294,0.0,0.0,0.0,0.0,0.0,0.0,0.0,0.0,0.2670137,0.26701412,4.1429386,0.0,0.0,0.0,0.09087282,0.0,0.0,0.0,0.0,0.0,0.0017312818,0.019524137,0.021242123,0.0,0.0,0.0,0.0,0.0,0.0
5340000,0.0,0.0,0.0,0.022908358,0.0020653761,-0.12988281,0.0,0.0,0.0,0.0075042546,0.0,0.0,0.0,0.0,0.0,0.0,0.0,0.0,0.26692387,0.26692426,4.142244,0.0,0.0,0.0,0.090864,0.0,0.0,0.0,0.0,0.0,0.0016828751,0.017204236,0.020081831,0.0,0.0,0.0,0.0,0.0,0.0
5540000,0.0,0.0,0.0,0.022758933,0.0027050239,0.02420044,0.0,0.0,0.0,-0.008361161,0.0,0.0,0.0,0.0,0.0,0.0,0.0,0.0,0.2664508,0.26645115,4.140415,0.0,0.0,0.0,0.090855174,0.0,0.0,0.0,0.0,0.0,0.001879754,0.019837424,0.02601889,0.0,0.0,0.0,0.0,0.0,0.0
5740000,0.0,0.0,0.0,0.02279174,0.002982992,-0.0652771,0.0,0.0,0.0,0.005664408,0.0,0.0,0.0,0.0,0.0,0.0,0.0,0.0,0.26600134,0.2660017,4.138932,0.0,0.0,0.0,0.09084943,0.0,0.0,0.0,0.0,0.0,0.0017643656,0.016340751,0.02296503,0.0,0.0,0.0,0.0,0.0,0.0
5940000,0.0,0.0,0.0,0.023632972,0.003244657,-0.115875244,0.0,0.0,0.0,-0.0044329464,0.0,0.0,0.0,0.0,0.0,0.0,0.0,0.0,0.26590914,0.26590955,4.1393094,0.0,0.0,0.0,0.09084793,0.0,0.0,0.0,0.0,0.0,0.001971796,0.016193422,0.022930987,0.0,0.0,0.0,0.0,0.0,0.0
6140000,0.0,0.0,0.0,0.023734484,0.0034102893,-0.05130005,0.0,0.0,0.0,0.022314817,0.0,0.0,0.0,0.0,0.0,0.0,0.0,0.0,0.26556835,0.26556873,4.1381874,0.0,0.0,0.0,0.09084535,0.0,0.0,0.0,0.0,0.0,0.0019344358,0.012094994,0.017755562,0.0,0.0,0.0,0.0,0.0,0.0
6340000,0.0,0.0,0.0,0.023071112,0.0033338114,-0.08999634,0.0,0.0,0.0,0.011142254,0.0,0.0,0.0,0.0,0.0,0.0,0.0,0.0,0.26524675,0.26524714,4.1370153,0.0,0.0,0.0,0.09084374,0.0,0.0,0.0,0.0,0.0,0.0020285891,0.012402104,0.018123236,0.0,0.0,0.0,0.0,0.0,0.0
6540000,0.0,0.0,0.0,0.022084715,0.0032317003,-0.10708618,0.0,0.0,0.0,-0.0073468387,0.0,0.0,0.0,0.0,0.0,0.0,0.0,0.0,0.2649512,0.2649516,4.1356664,0.0,0.0,0.0,0.090842746,0.0,0.0,0.0,0.0,0.0,0.0020892138,0.016365165,0.024318097,0.0,0.0,0.0,0.0,0.0,0.0
6740000,0.0,0.0,0.0,0.021483317,0.0036379755,-0.14437866,0.0,0.0,0.0,0.003308326,0.0,0.0,0.0,0.0,0.0,0.0,0.0,0.0,0.2649946,0.264995,4.135707,0.0,0.0,0.0,0.090844564,0.0,0.0,0.0,0.0,0.0,0.0019648538,0.01131993,0.01816485,0.0,0.0,0.0,0.0,0.0,0.0
6940000,0.0,0.0,0.0,0.020349244,0.0045490884,-0.24838257,0.0,0.0,0.0,0.003386736,0.0,0.0,0.0,0.0,0.0,0.0,0.0,0.0,0.26476073,0.26476115,4.1340027,0.0,0.0,0.0,0.09084392,0.0,0.0,0.0,0.0,0.0,0.0019559292,0.012413686,0.020236664,0.0,0.0,0.0,0.0,0.0,0.0
7140000,0.0,0.0,0.0,0.019230036,0.0057781516,-0.23800659,0.0,0.0,0.0,-0.009957582,0.0,0.0,0.0,0.0,0.0,0.0,0.0,0.0,0.26451498,0.26451546,4.132102,0.0,0.0,0.0,0.09084289,0.0,0.0,0.0,0.0,0.0,0.0018380808,0.0056339707,0.01036318,0.0,0.0,0.0,0.0,0.0,0.0
7340000,0.0,0.0,0.0,0.018461782,0.0073764115,-0.083343506,0.0,0.0,0.0,0.0013028979,0.0,0.0,0.0,0.0,0.0,0.0,0.0,0.0,0.26455277,0.2645533,4.131348,0.0,0.0,0.0,0.09084441,0.0,0.0,0.0,0.0,0.0,0.001800792,0.0038364271,0.006323111,0.0,0.0,0.0,0.0,0.0,0.0
7540000,0.0,0.0,0.0,0.017670088,0.008073374,-0.16003418,0.0,0.0,0.0,-0.0049032867,0.0,0.0,0.0,0.0,0.0,0.0,0.0,0.0,0.26432633,0.2643269,4.1291842,0.0,0.0,0.0,0.090842724,0.0,0.0,0.0,0.0,0.0,0.001756886,0.0045901514,0.0049138726,0.0,0.0,0.0,0.0,0.0,0.0
7748000,0.0,0.0,0.0,0.016722668,0.00834577,-0.14761353,0.0,0.0,0.0,-0.007397443,0.0,0.0,0.0,0.0,0.0,0.0,0.0,0.0,0.26408112,0.26408172,4.1267405,0.0,0.0,0.0,0.090840615,0.0,0.0,0.0,0.0,0.0,0.0016981937,0.006613462,0.008214192,0.0,0.0,0.0,0.0,0.0,0.0
7940000,0.0,0.0,0.0,0.015494782,0.008352622,-0.03857422,0.0,0.0,0.0,-0.011845797,0.0,0.0,0.0,0.0,0.0,0.0,0.0,0.0,0.26381758,0.26381814,4.124169,0.0,0.0,0.0,0.09083789,0.0,0.0,0.0,0.0,0.0,0.0015803988,0.006239535,0.007376753,0.0,0.0,0.0,0.0,0.0,0.0
8147999,0.0,0.0,0.0,0.014351873,0.008030089,-0.09353638,0.0,0.0,0.0,-0.00702855,0.0,0.0,0.0,0.0,0.0,0.0,0.0,0.0,0.2638129,0.26381344,4.1229296,0.0,0.0,0.0,0.09083724,0.0,0.0,0.0,0.0,0.0,0.0013570518,0.009767259,0.013582651,0.0,0.0,0.0,0.0,0.0,0.0
8348000,0.0,0.0,0.0,0.012702063,0.0075504896,0.06851196,0.0,0.0,0.0,-0.0024079978,0.0,0.0,0.0,0.0,0.0,0.0,0.0,0.0,0.26354635,0.26354682,4.120264,0.0,0.0,0.0,0.09083332,0.0,0.0,0.0,0.0,0.0,0.0013012599,0.014513012,0.022423852,0.0,0.0,0.0,0.0,0.0,0.0
8548000,0.0,0.0,0.0,0.011266038,0.0069152405,-0.024017334,0.0,0.0,0.0,0.00198102,0.0,0.0,0.0,0.0,0.0,0.0,0.0,0.0,0.26309696,0.26309738,4.116662,0.0,0.0,0.0,0.09082647,0.0,0.0,0.0,0.0,0.0,0.0010875551,0.011094088,0.015862148,0.0,0.0,0.0,0.0,0.0,0.0
8748000,0.0,0.0,0.0,0.010343458,0.0069224196,-0.11904907,0.0,0.0,0.0,-0.0062896907,0.0,0.0,0.0,0.0,0.0,0.0,0.0,0.0,0.26310137,0.26310176,4.1154146,0.0,0.0,0.0,0.09082427,0.0,0.0,0.0,0.0,0.0,0.0009342963,0.010199616,0.012599614,0.0,0.0,0.0,0.0,0.0,0.0
8948000,0.0,0.0,0.0,0.009465671,0.007158482,0.07644653,0.0,0.0,0.0,0.011320412,0.0,0.0,0.0,0.0,0.0,0.0,0.0,0.0,0.26285592,0.2628563,4.1129093,0.0,0.0,0.0,0.090818785,0.0,0.0,0.0,0.0,0.0,0.00086818147,0.012275422,0.016346103,0.0,0.0,0.0,0.0,0.0,0.0
9148000,0.0,0.0,0.0,0.0088175535,0.007445698,-0.011291504,0.0,0.0,0.0,0.0013016462,0.0,0.0,0.0,0.0,0.0,0.0,0.0,0.0,0.2625903,0.26259068,4.1103926,0.0,0.0,0.0,0.090812765,0.0,0.0,0.0,0.0,0.0,0.0009313894,0.013714512,0.019504497,0.0,0.0,0.0,0.0,0.0,0.0
9348000,0.0,0.0,0.0,0.008242229,0.0077427896,-0.038757324,0.0,0.0,0.0,0.0047240257,0.0,0.0,0.0,0.0,0.0,0.0,0.0,0.0,0.26252383,0.26252422,4.1089835,0.0,0.0,0.0,0.090808995,0.0,0.0,0.0,0.0,0.0,0.00069598266,0.015283476,0.023067767,0.0,0.0,0.0,0.0,0.0,0.0
9548000,0.0,0.0,0.0,0.00761778,0.008043329,0.038024902,0.0,0.0,0.0,0.0044923127,0.0,0.0,0.0,0.0,0.0,0.0,0.0,0.0,0.26225936,0.26225975,4.1065316,0.0,0.0,0.0,0.09080209,0.0,0.0,0.0,0.0,0.0,0.00066743843,0.0133269075,0.018930743,0.0,0.0,0.0,0.0,0.0,0.0
9748000,0.0,0.0,0.0,0.007178876,0.008540869,-0.069122314,0.0,0.0,0.0,0.004264295,0.0,0.0,0.0,0.0,0.0,0.0,0.0,0.0,0.26199964,0.26200005,4.1042886,0.0,0.0,0.0,0.09079535,0.0,0.0,0.0,0.0,0.0,0.0005797086,0.01249766,0.016766211,0.0,0.0,0.0,0.0,0.0,0.0
9948000,0.0,0.0,0.0,0.0065430566,0.008682501,-0.043060303,0.0,0.0,0.0,0.008645207,0.0,0.0,0.0,0.0,0.0,0.0,0.0,0.0,0.26172978,0.26173016,4.1019173,0.0,0.0,0.0,0.090787716,0.0,0.0,0.0,0.0,0.0,0.000755085,0.013066121,0.018255195,0.0,0.0,0.0,0.0,0.0,0.0
10148000,0.0,0.0,0.0,0.005754892,0.008886448,0.023223877,0.0,0.0,0.0,0.008567661,0.0,0.0,0.0,0.0,0.0,0.0,0.0,0.0,0.26166126,0.26166165,4.1005855,0.0,0.0,0.0,0.09078251,0.0,0.0,0.0,0.0,0.0,0.0007608842,0.010370526,0.011613026,0.0,0.0,0.0,0.0,0.0,0.0
10348000,0.0,0.0,0.0,0.0048927953,0.008532295,-0.07876587,0.0,0.0,0.0,0.012349755,0.0,0.0,0.0,0.0,0.0,0.0,0.0,0.0,0.2614129,0.26141322,4.0983458,0.0,0.0,0.0,0.090774335,0.0,0.0,0.0,0.0,0.0,0.0006947987,0.00983587,0.0102487,0.0,0.0,0.0,0.0,0.0,0.0
10548000,0.0,0.0,0.0,0.0039709685,0.008089322,-0.05090332,0.0,0.0,0.0,0.009313583,0.0,0.0,0.0,0.0,0.0,0.0,0.0,0.0,0.26116893,0.26116922,4.0961704,0.0,0.0,0.0,0.090765916,0.0,0.0,0.0,0.0,0.0,0.0012400592,0.010405976,0.011784048,0.0,0.0,0.0,0.0,0.0,0.0
10748000,0.0,0.0,0.0,0.0036852364,0.0077051446,-0.00491333,0.0,0.0,0.0,0.003678441,0.0,0.0,0.0,0.0,0.0,0.0,0.0,0.0,0.2610972,0.26109746,4.0949073,0.0,0.0,0.0,0.09075996,0.0,0.0,0.0,0.0,0.0,0.0013894646,0.012021511,0.016334252,0.0,0.0,0.0,0.0,0.0,0.0
10948000,0.0,0.0,0.0,0.0036151304,0.006825246,-0.10699463,0.0,0.0,0.0,0.015225291,0.0,0.0,0.0,0.0,0.0,0.0,0.0,0.0,0.26087672,0.26087695,4.0928745,0.0,0.0,0.0,0.09075124,0.0,0.0,0.0,0.0,0.0,0.00090141874,0.012214673,0.017846245,0.0,0.0,0.0,0.0,0.0,0.0
11148000,0.0,0.0,0.0,0.003340852,0.005664338,0.042053223,0.0,0.0,0.0,0.00296399,0.0,0.0,0.0,0.0,0.0,0.0,0.0,0.0,0.26066878,0.260669,4.091051,0.0,0.0,0.0,0.09074336,0.0,0.0,0.0,0.0,0.0,0.00034915644,0.012959659,0.020734577,0.0,0.0,0.0,0.0,0.0,0.0
11348000,0.0,0.0,0.0,0.0030803876,0.0040257825,0.07608032,0.0,0.0,0.0,-0.0029408336,0.0,0.0,0.0,0.0,0.0,0.0,0.0,0.0,0.26045138,0.26045153,4.0891423,0.0,0.0,0.0,0.09866924,0.0,0.0,0.0,0.0,0.0,0.00020721395,0.011740439,0.018425856,0.0,0.0,0.0,0.0,0.0,0.0
11548000,0.0,0.0,0.0,0.0,0.0,0.03955078,0.0,0.0,0.0,-0.008593261,0.0,0.0,0.0,0.0,0.0,0.3125,0.3125,0.625,2.0,2.0,4.078254,0.0,0.0,0.0,0.09489714,0.0,0.0,0.0,0.0,0.0,0.005264905,0.012344565,0.021994425,0.0,0.0,0.0,0.0,0.0,0.0
11748000,-0.019158443,-0.004576082,-0.038219944,-0.001863033,-0.0004467863,-0.122558594,0.0,0.0,0.0,0.013177961,0.0,0.0,0.0,0.0,0.0,0.3012703,0.3012702,0.6188956,1.5020123,1.5020123,4.071605,0.0,0.0,0.0,0.09328925,0.0,0.0,0.0,0.0,0.0,0.00464183,0.011389837,0.014423059,0.0,0.0,0.0,0.0,0.0,0.0
11948000,0.0022869818,-0.004362424,-0.052799765,0.009035023,-0.0009445777,-0.08444214,0.0,0.0,0.0,0.005431533,0.0,0.0,0.0,0.0,0.0,0.2955373,0.29553714,0.6135131,1.3381062,1.3381062,4.068923,0.0,0.0,0.0,0.09247807,0.0,0.0,0.0,0.0,0.0,0.0011731351,0.008824124,0.009278429,0.0,0.0,0.0,0.0,0.0,0.0
12148000,-0.010279511,0.0048984787,-0.02690494,-0.006396086,-0.0013322576,-0.057891846,0.0,0.0,0.0,-0.0038187802,0.0,0.0,0.0,0.0,0.0,0.29294622,0.292946,0.60847825,1.2576412,1.2576412,4.068549,0.0,0.0,0.0,0.092034444,0.0,0.0,0.0,0.0,0.0,0.00088509877,0.00878897,0.0106833065,0.0,0.0,0.0,0.0,0.0,0.0
12348000,-0.0063665006,-0.010084531,-0.043807596,-0.0059054084,-0.0028102584,0.0049743652,0.0,0.0,0.0,0.013314068,0.0,0.0,0.0,0.0,0.0,0.29225937,0.2922593,0.60390127,1.2106525,1.2106525,4.068837,0.0,0.0,0.0,0.09169541,0.0,0.0,0.0,0.0,0.0,0.0010722963,0.0080279615,0.009583594,0.0,0.0,0.0,0.0,0.0,0.0
12548000,-0.01281869,-0.010217091,-0.048527293,-0.0052907136,-0.0035039107,-0.08053589,0.0,0.0,0.0,-0.011795133,0.0,0.0,0.0,0.0,0.0,0.29268986,0.2926901,0.5994494,1.1805089,1.1805089,4.0691667,0.0,0.0,0.0,0.09147857,0.0,0.0,0.0,0.0,0.0,9.198182e-05,0.007760953,0.00886897,0.0,0.0,0.0,0.0,0.0,0.0
12748000,0.00031215532,-0.002596812,-0.021297924,-0.0035599973,-0.0032731204,0.01965332,0.0,0.0,0.0,-0.004611492,0.0,0.0,0.0,0.0,0.0,0.293668,0.29366854,0.59555346,1.1600692,1.1600692,4.0698137,0.0,0.0,0.0,0.09129481,0.0,0.0,0.0,0.0,0.0,0.0011221305,0.00730456,0.009341296,0.0,0.0,0.0,0.0,0.0,0.0
12948000,0.002063864,-0.001099906,0.022746025,-0.0028202757,-0.0027747853,-0.04876709,0.0,0.0,0.0,-0.00886032,0.0,0.0,0.0,0.0,0.0,0.2947868,0.29478765,0.59176636,1.145733,1.145733,4.0705,0.0,0.0,0.0,0.09116831,0.0,0.0,0.0,0.0,0.0,0.0006182965,0.008426263,0.012579871,0.0,0.0,0.0,0.0,0.0,0.0
13148000,0.001091954,0.0082655335,-0.018870218,-0.0023955465,-0.0024497267,-0.15219116,0.0,0.0,0.0,0.013461143,0.0,0.0,0.0,0.0,0.0,0.29576838,0.29576933,0.58860195,1.1354631,1.1354632,4.07071,0.0,0.0,0.0,0.091054685,0.0,0.0,0.0,0.0,0.0,0.00016520901,0.005246335,0.006174411,0.0,0.0,0.0,0.0,0.0,0.0
13348000,-0.0053515076,-0.012685632,0.008702131,0.009540574,-0.003573825,-0.022827148,0.0,0.0,0.0,-0.011987478,0.0,0.0,0.0,0.0,0.0,0.29642558,0.29642707,0.5855659,1.1280042,1.1280044,4.0705957,0.0,0.0,0.0,0.09096359,0.0,0.0,0.0,0.0,0.0,0.00034854436,0.006846654,0.009168659,0.0,0.0,0.0,0.0,0.0,0.0
13548000,0.007080051,-0.008540988,-0.01123965,-0.0009801007,-0.0015146539,-0.0018920898,0.0,0.0,0.0,-0.0024874806,0.0,0.0,0.0,0.0,0.0,0.29670122,0.29670292,0.5829019,1.1225338,1.122534,4.0704827,0.0,0.0,0.0,0.09089729,0.0,0.0,0.0,0.0,0.0,0.00010142292,0.0065729707,0.009735355,0.0,0.0,0.0,0.0,0.0,0.0
13748000,0.009347733,0.0045708586,0.00026332535,-0.00026165874,0.00058659894,-0.007293701,0.0,0.0,0.0,-0.001871407,0.0,0.0,0.0,0.0,0.0,0.29657608,0.29657817,0.5807955,1.1184889,1.1184893,4.0698333,0.0,0.0,0.0,0.09083476,0.0,0.0,0.0,0.0,0.0,0.000698729,0.0053457962,0.007923991,0.0,0.0,0.0,0.0,0.0,0.0
13948000,-0.0013522096,0.012253945,-0.01954173,0.00044171535,0.0005608347,0.008453369,0.0,0.0,0.0,-0.00048306584,0.0,0.0,0.0,0.0,0.0,0.29609698,0.29609916,0.57880706,1.1154745,1.1154749,4.068881,0.0,0.0,0.0,0.09078798,0.0,0.0,0.0,0.0,0.0,0.00055819534,0.0056637744,0.009295696,0.0,0.0,0.0,0.0,0.0,0.0
14148000,-0.00789682,0.018083585,-0.014580132,0.0026405675,0.006155795,-0.013977051,0.0,0.0,0.0,0.0026513338,0.0,0.0,0.0,0.0,0.0,0.295305,0.29530758,0.5772877,1.1132082,1.1132088,4.06786,0.0,0.0,0.0,0.09074344,0.0,0.0,0.0,0.0,0.0,0.00051098224,0.0053082015,0.007974275,0.0,0.0,0.0,0.0,0.0,0.0
14348000,0.01727112,-0.00751122,-0.004356118,0.0064421543,-0.0056356173,0.041992188,0.0,0.0,0.0,0.00891611,0.0,0.0,0.0,0.0,0.0,0.2943004,0.2943033,0.5758571,1.1114879,1.1114886,4.06708,0.0,0.0,0.0,0.09071026,0.0,0.0,0.0,0.0,0.0,0.00019553353,0.0042428295,0.006459602,0.0,0.0,0.0,0.0,0.0,0.0
14548000,0.016413312,0.0027080984,-0.0020770123,0.0066551734,0.0022471342,0.026031494,0.0,0.0,0.0,0.002938658,0.0,0.0,0.0,0.0,0.0,0.29312927,0.29313216,0.5748082,1.1101662,1.110167,4.06586,0.0,0.0,0.0,0.090677895,0.0,0.0,0.0,0.0,0.0,0.00055540743,0.003901369,0.0060692327,0.0,0.0,0.0,0.0,0.0,0.0
14748000,0.018177776,-0.0056973957,0.008463509,0.006887165,-0.007159038,0.040222168,0.0,0.0,0.0,-0.004586816,0.0,0.0,0.0,0.0,0.0,0.2918584,0.2918614,0.5738269,1.1091361,1.1091369,4.0645895,0.0,0.0,0.0,0.090650395,0.0,0.0,0.0,0.0,0.0,0.00024696163,0.0050775935,0.009595036,0.0,0.0,0.0,0.0,0.0,0.0
14948000,-0.0026990734,-0.0055022687,0.005687982,0.007050031,-0.006706568,0.05429077,0.0,0.0,0.0,-0.0013495386,0.0,0.0,0.0,0.0,0.0,0.2905353,0.29053825,0.57303613,1.1083194,1.1083205,4.0636573,0.0,0.0,0.0,0.09063003,0.0,0.0,0.0,0.0,0.0,0.00030457557,0.0052564694,0.010211141,0.0,0.0,0.0,0.0,0.0,0.0
15148000,-0.012539629,-0.012948079,0.015711999,0.010307942,-0.0060241786,0.06542969,0.0,0.0,0.0,-0.004305452,0.0,0.0,0.0,0.0,0.0,0.2891894,0.2891921,0.5725128,1.1076579,1.107659,4.0623927,0.0,0.0,0.0,0.09060981,0.0,0.0,0.0,0.0,0.0,0.0003589659,0.0062418827,0.0127289705,0.0,0.0,0.0,0.0,0.0,0.0
15348000,0.021092033,0.006138712,-0.014213745,0.015212626,-0.004092234,-0.09921265,0.0,0.0,0.0,0.008766383,0.0,0.0,0.0,0.0,0.0,0.28785443,0.28785717,0.57202697,1.1071084,1.1071094,4.061197,0.0,0.0,0.0,0.090594314,0.0,0.0,0.0,0.0,0.0,0.00014696686,0.0040125563,0.008230515,0.0,0.0,0.0,0.0,0.0,0.0
15548000,0.012343345,-0.00342685,0.028739288,0.014876728,-0.005460833,0.096221924,0.0,0.0,0.0,-0.02189964,0.0,0.0,0.0,0.0,0.0,0.28655377,0.28655663,0.57175374,1.1066399,1.106641,4.0600257,0.0,0.0,0.0,0.09057945,0.0,0.0,0.0,0.0,0.0,0.00025798785,0.0035184787,0.0066387816,0.0,0.0,0.0,0.0,0.0,0.0
15748000,0.011079939,0.005246096,0.012498014,0.018186197,-0.0053995084,-0.024291992,0.0,0.0,0.0,0.0005123615,0.0,0.0,0.0,0.0,0.0,0.2876706,0.2876736,0.5714982,1.1145291,1.1145309,4.0592365,0.0,0.0,0.0,0.09056887,0.0,0.0,0.0,0.0,0.0,0.0006781849,0.0017622666,0.0024816997,0.0,0.0,0.0,0.0,0.0,0.0
15948000,0.03352321,0.0030414462,-0.0072977506,0.018813113,-0.006891813,-0.10232544,0.0,0.0,0.0,-0.013063371,0.0,0.0,0.0,0.0,0.0,0.28583246,0.2858355,0.57136744,1.1129365,1.1129384,4.058213,0.0,0.0,0.0,0.09055807,0.0,0.0,0.0,0.0,0.0,0.00044614763,0.0028650528,0.005271116,0.0,0.0,0.0,0.0,0.0,0.0
16148000,0.019746171,-0.03581675,-0.024624474,0.015423443,-0.008008691,-0.021728516,0.0,0.0,0.0,-0.0070043504,0.0,0.0,0.0,0.0,0.0,0.2842199,0.28422266,0.5713837,1.111551,1.1115528,4.057285,0.0,0.0,0.0,0.09054899,0.0,0.0,0.0,0.0,0.0,0.00034989376,0.004904189,0.008636474,0.0,0.0,0.0,0.0,0.0,0.0
16348000,0.019902643,0.009216996,0.035117466,0.014495637,-0.0019260541,-0.013641357,0.0,0.0,0.0,0.008464277,0.0,0.0,0.0,0.0,0.0,0.28281248,0.2828152,0.5713906,1.1103349,1.1103368,4.056477,0.0,0.0,0.0,0.090542115,0.0,0.0,0.0,0.0,0.0,0.00026318003,0.0027410556,0.0050399117,0.0,0.0,0.0,0.0,0.0,0.0
16555999,0.018173438,-0.004847613,0.0103179235,0.013810111,-0.004058039,-0.13568115,0.0,0.0,0.0,0.00021034479,0.0,0.0,0.0,0.0,0.0,0.28172493,0.28172755,0.57148564,1.1099194,1.1099213,4.055529,0.0,0.0,0.0,0.09053433,0.0,0.0,0.0,0.0,0.0,0.0003672042,0.0018796388,0.0036209463,0.0,0.0,0.0,0.0,0.0,0.0
16756000,0.016326068,-0.0052624187,0.024851672,0.01306297,-0.003877204,0.076416016,0.0,0.0,0.0,0.0063941777,0.0,0.0,0.0,0.0,0.0,0.2805883,0.28059074,0.57159203,1.1088606,1.1088625,4.055204,0.0,0.0,0.0,0.09053052,0.0,0.0,0.0,0.0,0.0,0.00016741254,0.002719602,0.005439847,0.0,0.0,0.0,0.0,0.0,0.0
16956000,-0.0032089148,0.026036879,0.016977292,0.012562129,-0.003749606,-0.051940918,0.0,0.0,0.0,-0.006616026,0.0,0.0,0.0,0.0,0.0,0.2795937,0.2795961,0.57179534,1.1079131,1.107915,4.05473,0.0,0.0,0.0,0.090526275,0.0,0.0,0.0,0.0,0.0,7.099956e-05,0.0035436214,0.0074124546,0.0,0.0,0.0,0.0,0.0,0.0
17156000,0.018013429,-0.008508694,0.02678027,0.015344435,-0.0088131055,-0.056732178,0.0,0.0,0.0,0.0011899471,0.0,0.0,0.0,0.0,0.0,0.27872714,0.2787294,0.57195616,1.1070597,1.1070616,4.054316,0.0,0.0,0.0,0.09052308,0.0,0.0,0.0,0.0,0.0,0.00015569612,0.0029594954,0.007049549,0.0,0.0,0.0,0.0,0.0,0.0
17356000,0.018168498,-0.011220566,0.05719918,0.014928985,-0.008826849,0.0032348633,0.0,0.0,0.0,-0.01645279,0.0,0.0,0.0,0.0,0.0,0.27797073,0.27797297,0.5722005,1.106287,1.1062889,4.0543056,0.0,0.0,0.0,0.090521246,0.0,0.0,0.0,0.0,0.0,0.00016647369,0.0044525308,0.011436645,0.0,0.0,0.0,0.0,0.0,0.0
17556000,0.02631274,-0.009076456,0.022723332,0.014152518,-0.008264998,0.07644653,0.0,0.0,0.0,-0.0070967674,0.0,0.0,0.0,0.0,0.0,0.27731758,0.2773196,0.57238656,1.1055844,1.1055863,4.0540648,0.0,0.0,0.0,0.09051919,0.0,0.0,0.0,0.0,0.0,0.00023226836,0.0038368618,0.009759485,0.0,0.0,0.0,0.0,0.0,0.0
17756000,0.0018229363,-0.007784733,0.020799413,0.011794842,-0.007943863,0.0025024414,0.0,0.0,0.0,0.0036901832,0.0,0.0,0.0,0.0,0.0,0.27675438,0.2767561,0.57264435,1.1049442,1.1049461,4.053969,0.0,0.0,0.0,0.09051748,0.0,0.0,0.0,0.0,0.0,0.00043528315,0.0027107124,0.0060852575,0.0,0.0,0.0,0.0,0.0,0.0
17956000,0.013632976,-0.008449502,0.010857014,0.012989908,-0.0077397972,-0.094818115,0.0,0.0,0.0,0.005541861,0.0,0.0,0.0,0.0,0.0,0.27626795,0.27626967,0.57283163,1.104359,1.1043608,4.0539527,0.0,0.0,0.0,0.09051618,0.0,0.0,0.0,0.0,0.0,0.00011861746,0.0016697285,0.0026868049,0.0,0.0,0.0,0.0,0.0,0.0
18156000,0.017604794,-0.010139825,0.026235357,0.0128233535,-0.0077808904,-0.11831665,0.0,0.0,0.0,0.0063227117,0.0,0.0,0.0,0.0,0.0,0.27584803,0.27585003,0.5730101,1.1038234,1.1038253,4.054195,0.0,0.0,0.0,0.0905162,0.0,0.0,0.0,0.0,0.0,0.00012093129,0.0014227477,0.001962075,0.0,0.0,0.0,0.0,0.0,0.0
18356000,0.0012090541,-0.013484663,0.005083613,0.012978855,-0.00059481943,0.027038574,0.0,0.0,0.0,0.0045336485,0.0,0.0,0.0,0.0,0.0,0.2755055,0.27550775,0.573251,1.1033338,1.1033357,4.0543146,0.0,0.0,0.0,0.090515494,0.0,0.0,0.0,0.0,0.0,0.0003362289,0.0020875786,0.0033229752,0.0,0.0,0.0,0.0,0.0,0.0
18556000,0.010757696,0.005638754,0.027486652,0.02681756,-0.0013800873,-0.02368164,0.0,0.0,0.0,-0.0065065026,0.0,0.0,0.0,0.0,0.0,0.27521497,0.27521694,0.573403,1.1028867,1.1028885,4.054368,0.0,0.0,0.0,0.09051492,0.0,0.0,0.0,0.0,0.0,0.0002837326,0.0013301182,0.0019303251,0.0,0.0,0.0,0.0,0.0,0.0
18756000,0.0027972907,-0.030074403,0.029447995,0.01617283,-0.012957159,0.028289795,0.0,0.0,0.0,0.00041002035,0.0,0.0,0.0,0.0,0.0,0.2749791,0.27498117,0.5736176,1.1024795,1.1024812,4.0548644,0.0,0.0,0.0,0.09051557,0.0,0.0,0.0,0.0,0.0,0.00042717936,0.002799675,0.004841772,0.0,0.0,0.0,0.0,0.0,0.0
18956000,0.040395282,-0.022896113,0.018545372,0.018826257,-0.011659532,0.119781494,0.0,0.0,0.0,-0.010880023,0.0,0.0,0.0,0.0,0.0,0.27479398,0.27479565,0.57373226,1.1021103,1.102112,4.054983,0.0,0.0,0.0,0.09051522,0.0,0.0,0.0,0.0,0.0,0.00033496882,0.0036535158,0.007949655,0.0,0.0,0.0,0.0,0.0,0.0
19156000,0.005598467,-0.031078208,0.0077720154,0.026093654,-0.011849025,0.041625977,0.0,0.0,0.0,0.0032587945,0.0,0.0,0.0,0.0,0.0,0.27465287,0.27465424,0.5739107,1.1017771,1.1017787,4.055241,0.0,0.0,0.0,0.09051501,0.0,0.0,0.0,0.0,0.0,0.00028160936,0.0031699457,0.005944804,0.0,0.0,0.0,0.0,0.0,0.0
19356000,0.016670346,-0.050221525,-0.0020184126,0.014897333,-0.010626184,-0.0074157715,0.0,0.0,0.0,0.003456384,0.0,0.0,0.0,0.0,0.0,0.27454856,0.27454993,0.5739853,1.1014781,1.1014796,4.0555077,0.0,0.0,0.0,0.090514824,0.0,0.0,0.0,0.0,0.0,0.00031162513,0.00418114,0.0068711997,0.0,0.0,0.0,0.0,0.0,0.0
19556000,0.007289607,-0.018698039,0.016569292,0.014814699,-0.00687651,0.08666992,0.0,0.0,0.0,-0.00505203,0.0,0.0,0.0,0.0,0.0,0.27447915,0.27448052,0.5740374,1.1012123,1.1012138,4.055955,0.0,0.0,0.0,0.09051555,0.0,0.0,0.0,0.0,0.0,0.00024603392,0.002571738,0.004402223,0.0,0.0,0.0,0.0,0.0,0.0
19756000,-0.0022774767,-0.018940665,0.0075540487,0.015994677,-0.007531726,-0.047546387,0.0,0.0,0.0,-0.003937483,0.0,0.0,0.0,0.0,0.0,0.2744281,0.27442932,0.5741593,1.1009774,1.100979,4.0562267,0.0,0.0,0.0,0.090515316,0.0,0.0,0.0,0.0,0.0,0.00040426516,0.0025635108,0.00457268,0.0,0.0,0.0,0.0,0.0,0.0
19956000,0.01863089,-0.01989644,0.026459754,0.018510977,-0.008131424,-0.016326904,0.0,0.0,0.0,0.0032277107,0.0,0.0,0.0,0.0,0.0,0.27440187,0.274403,0.57417244,1.1007723,1.1007737,4.056346,0.0,0.0,0.0,0.090514936,0.0,0.0,0.0,0.0,0.0,0.00022767266,0.0015620965,0.0025846616,0.0,0.0,0.0,0.0,0.0,0.0
20156000,0.009131793,-0.020154657,0.05618145,0.018228585,-0.008636138,0.04083252,0.0,0.0,0.0,0.011342227,0.0,0.0,0.0,0.0,0.0,0.27439073,0.27439186,0.57426274,1.100595,1.1005963,4.056903,0.0,0.0,0.0,0.09051557,0.0,0.0,0.0,0.0,0.0,0.00019654626,0.0021970628,0.0043300367,0.0,0.0,0.0,0.0,0.0,0.0
20356000,0.018132357,-0.020618934,0.034577996,0.019058736,-0.009113496,-0.1053772,0.0,0.0,0.0,0.0011087656,0.0,0.0,0.0,0.0,0.0,0.27439234,0.27439332,0.5742417,1.100444,1.1004453,4.0569954,0.0,0.0,0.0,0.09051503,0.0,0.0,0.0,0.0,0.0,0.00019374203,0.0011148984,0.0015202153,0.0,0.0,0.0,0.0,0.0,0.0
20556000,0.014754873,-0.022210425,0.0036800373,0.018125825,-0.009711011,0.09863281,0.0,0.0,0.0,0.0060373545,0.0,0.0,0.0,0.0,0.0,0.27440083,0.2744015,0.5743032,1.1003171,1.1003183,4.0571966,0.0,0.0,0.0,0.090514444,0.0,0.0,0.0,0.0,0.0,0.00027458704,0.0012523752,0.0022516449,0.0,0.0,0.0,0.0,0.0,0.0
20756000,0.010085017,-0.03329596,0.025291458,0.018129533,-0.012577319,0.03439331,0.0,0.0,0.0,-0.0059137046,0.0,0.0,0.0,0.0,0.0,0.2760154,0.27601564,0.57437044,1.1071371,1.1071383,4.0580573,0.0,0.0,0.0,0.09051374,0.0,0.0,0.0,0.0,0.0,0.00027326867,0.0032457206,0.0055564623,0.0,0.0,0.0,0.0,0.0,0.0
20956000,-0.0019510351,-0.009935327,0.025275774,0.016830472,-0.010765532,0.1409607,0.0,0.0,0.0,-0.0065675676,0.0,0.0,0.0,0.0,0.0,0.27572635,0.2757264,0.5742962,1.1061872,1.1061883,4.05839,0.0,0.0,0.0,0.09051388,0.0,0.0,0.0,0.0,0.0,0.0003333757,0.0027289607,0.005845385,0.0,0.0,0.0,0.0,0.0,0.0
21156000,-0.004630009,-0.020998785,0.02469878,0.016790532,-0.020115124,0.06933594,0.0,0.0,0.0,0.005706519,0.0,0.0,0.0,0.0,0.0,0.27548668,0.2754865,0.5743157,1.1053565,1.1053574,4.0584955,0.0,0.0,0.0,0.09051292,0.0,0.0,0.0,0.0,0.0,0.00020106019,0.0036803212,0.007942481,0.0,0.0,0.0,0.0,0.0,0.0
21356000,-0.004822718,-0.029744238,0.053920783,0.016799215,-0.011691524,-0.022064209,0.0,0.0,0.0,0.004638195,0.0,0.0,0.0,0.0,0.0,0.2752846,0.27528432,0.5742279,1.1046302,1.104631,4.0584455,0.0,0.0,0.0,0.09051182,0.0,0.0,0.0,0.0,0.0,0.0003132794,0.0041074553,0.007484726,0.0,0.0,0.0,0.0,0.0,0.0
21556000,0.006099738,-0.02105329,0.020855285,0.016946958,-0.017977724,-0.009277344,0.0,0.0,0.0,-0.0027995706,0.0,0.0,0.0,0.0,0.0,0.27511668,0.27511644,0.57423913,1.1039958,1.1039964,4.058824,0.0,0.0,0.0,0.090511546,0.0,0.0,0.0,0.0,0.0,0.00025615797,0.0029079393,0.0050865635,0.0,0.0,0.0,0.0,0.0,0.0
21756000,0.0029390259,-0.020446772,0.050601892,0.0155428955,-0.01743413,0.02923584,0.0,0.0,0.0,0.0030041337,0.0,0.0,0.0,0.0,0.0,0.27496484,0.27496442,0.57414734,1.1034423,1.1034429,4.0587373,0.0,0.0,0.0,0.09051023,0.0,0.0,0.0,0.0,0.0,0.00032289984,0.0025878549,0.004409171,0.0,0.0,0.0,0.0,0.0,0.0
21956000,-0.0008385796,-0.020235661,0.03024947,0.01388103,-0.016972287,0.04623413,0.0,0.0,0.0,-0.0014603436,0.0,0.0,0.0,0.0,0.0,0.27482608,0.27482545,0.5740545,1.1029602,1.1029607,4.0587425,0.0,0.0,0.0,0.09050871,0.0,0.0,0.0,0.0,0.0,0.00022467635,0.0024063159,0.004083942,0.0,0.0,0.0,0.0,0.0,0.0
22156000,-0.0023104565,-0.021163177,0.021608612,0.012455376,-0.009286075,-0.08816528,0.0,0.0,0.0,-0.003450811,0.0,0.0,0.0,0.0,0.0,0.2746959,0.27469522,0.5740623,1.1025406,1.102541,4.058723,0.0,0.0,0.0,0.09050705,0.0,0.0,0.0,0.0,0.0,0.00021573647,0.0021072088,0.0035350434,0.0,0.0,0.0,0.0,0.0,0.0
22356000,-0.005263621,-0.02019012,0.012983171,0.010806946,-0.009738434,0.117248535,0.0,0.0,0.0,-0.009940773,0.0,0.0,0.0,0.0,0.0,0.27456963,0.27456877,0.57397276,1.1021758,1.1021761,4.0589104,0.0,0.0,0.0,0.0905063,0.0,0.0,0.0,0.0,0.0,0.00020843322,0.0022860325,0.0035626409,0.0,0.0,0.0,0.0,0.0,0.0
22556000,-0.0039644702,-0.020851362,0.043964617,0.009637725,-0.010108937,0.037841797,0.0,0.0,0.0,0.010559648,0.0,0.0,0.0,0.0,0.0,0.27444795,0.2744472,0.57398534,1.1018591,1.1018592,4.058864,0.0,0.0,0.0,0.090504386,0.0,0.0,0.0,0.0,0.0,0.00023166407,0.0025628966,0.004367224,0.0,0.0,0.0,0.0,0.0,0.0
22756000,-0.010266965,-0.020066315,-0.0035492536,0.008790745,-0.010523167,0.010284424,0.0,0.0,0.0,-0.016200036,0.0,0.0,0.0,0.0,0.0,0.27432337,0.2743229,0.57389945,1.1015836,1.1015837,4.0586934,0.0,0.0,0.0,0.09050248,0.0,0.0,0.0,0.0,0.0,0.0002795864,0.0025238069,0.0038533572,0.0,0.0,0.0,0.0,0.0,0.0
22956000,-0.028659388,-0.02080999,0.008432554,0.009330017,-0.010958023,-0.03189087,0.0,0.0,0.0,0.00064629316,0.0,0.0,0.0,0.0,0.0,0.27420217,0.27420172,0.5739169,1.1013442,1.1013443,4.0589466,0.0,0.0,0.0,0.09050121,0.0,0.0,0.0,0.0,0.0,0.00027067642,0.0042885616,0.007134392,0.0,0.0,0.0,0.0,0.0,0.0
23156000,0.00399213,-0.018573003,0.041636318,0.013097112,-0.011000543,0.03378296,0.0,0.0,0.0,0.0133475065,0.0,0.0,0.0,0.0,0.0,0.27407485,0.27407438,0.5738389,1.1011363,1.1011363,4.058767,0.0,0.0,0.0,0.0904991,0.0,0.0,0.0,0.0,0.0,0.00030865907,0.0021239694,0.0042592515,0.0,0.0,0.0,0.0,0.0,0.0
23356000,0.0027227239,-0.026490306,0.020979566,0.0119771175,-0.0034176619,0.07485962,0.0,0.0,0.0,0.0013394058,0.0,0.0,0.0,0.0,0.0,0.27394494,0.2739444,0.57376415,1.1009547,1.1009545,4.0586805,0.0,0.0,0.0,0.090496734,0.0,0.0,0.0,0.0,0.0,0.0002812601,0.0018243608,0.0025952908,0.0,0.0,0.0,0.0,0.0,0.0
23556000,0.0032995618,-0.004197929,0.05955816,0.011131303,-0.0026504337,-0.027496338,0.0,0.0,0.0,0.008695841,0.0,0.0,0.0,0.0,0.0,0.2738138,0.2738133,0.5737903,1.1007959,1.1007959,4.058585,0.0,0.0,0.0,0.09049427,0.0,0.0,0.0,0.0,0.0,0.0003169596,0.001433531,0.0027815169,0.0,0.0,0.0,0.0,0.0,0.0
23756000,-0.015140097,-0.013367209,0.029528115,0.021498479,-0.0044959006,0.14593506,0.0,0.0,0.0,-0.0039232075,0.0,0.0,0.0,0.0,0.0,0.2736733,0.27367285,0.57372415,1.1006554,1.1006553,4.058716,0.0,0.0,0.0,0.09049273,0.0,0.0,0.0,0.0,0.0,0.00014769941,0.0017029168,0.0030946578,0.0,0.0,0.0,0.0,0.0,0.0
23956000,0.01555967,-0.013531289,0.048703887,0.011463021,-0.012364671,-0.002960205,0.0,0.0,0.0,0.006334007,0.0,0.0,0.0,0.0,0.0,0.27353206,0.27353156,0.5737584,1.1005304,1.1005301,4.0586214,0.0,0.0,0.0,0.09049008,0.0,0.0,0.0,0.0,0.0,0.00047360465,0.0010416902,0.0017591363,0.0,0.0,0.0,0.0,0.0,0.0
24156000,0.011467932,-0.015863847,0.045647744,0.00917401,-0.012396481,0.106292725,0.0,0.0,0.0,-0.009506971,0.0,0.0,0.0,0.0,0.0,0.27338493,0.27338427,0.5736978,1.1004182,1.100418,4.0584216,0.0,0.0,0.0,0.090487555,0.0,0.0,0.0,0.0,0.0,0.000324572,0.0017665967,0.0031874152,0.0,0.0,0.0,0.0,0.0,0.0
24356000,0.009470658,0.0012465548,0.06424436,0.006957005,-0.012495632,0.07946777,0.0,0.0,0.0,0.0076670945,0.0,0.0,0.0,0.0,0.0,0.27322686,0.27322617,0.57373774,1.1003153,1.1003151,4.0586452,0.0,0.0,0.0,0.09048555,0.0,0.0,0.0,0.0,0.0,0.00017432008,0.0030581946,0.0067496723,0.0,0.0,0.0,0.0,0.0,0.0
24556000,-0.0014559148,-0.033128735,0.025488999,0.0048526293,-0.015728544,0.15261841,0.0,0.0,0.0,-0.000107795,0.0,0.0,0.0,0.0,0.0,0.2730611,0.27306044,0.57368445,1.1002198,1.1002196,4.0584555,0.0,0.0,0.0,0.09048289,0.0,0.0,0.0,0.0,0.0,0.00022317807,0.0019926834,0.004094632,0.0,0.0,0.0,0.0,0.0,0.0
24756000,0.018887881,0.009861749,0.0058544204,0.0043083336,-0.013983717,0.100097656,0.0,0.0,0.0,-0.0002693832,0.0,0.0,0.0,0.0,0.0,0.2728938,0.27289313,0.5736334,1.10013,1.1001297,4.058363,0.0,0.0,0.0,0.090479955,0.0,0.0,0.0,0.0,0.0,0.00015606497,0.001810993,0.002863686,0.0,0.0,0.0,0.0,0.0,0.0
24956000,-0.013820318,-0.023269495,-0.01259869,0.0008360981,-0.018535381,-0.11758423,0.0,0.0,0.0,0.001375109,0.0,0.0,0.0,0.0,0.0,0.2727255,0.27272475,0.57367957,1.1000438,1.1000435,4.0582695,0.0,0.0,0.0,0.09047695,0.0,0.0,0.0,0.0,0.0,0.00022707913,0.0027217034,0.006999881,0.0,0.0,0.0,0.0,0.0,0.0
25156000,-0.013706423,-0.021460377,0.02071928,0.0019646906,-0.018252522,-0.006286621,0.0,0.0,0.0,0.017279387,0.0,0.0,0.0,0.0,0.0,0.27254957,0.27254874,0.5736341,1.0999594,1.0999591,4.0584054,0.0,0.0,0.0,0.09047491,0.0,0.0,0.0,0.0,0.0,0.00020066736,0.0027441632,0.0060978928,0.0,0.0,0.0,0.0,0.0,0.0
25356000,-0.01420592,0.010402657,0.018958397,0.002970667,-0.017855233,0.056518555,0.0,0.0,0.0,-0.0015904605,0.0,0.0,0.0,0.0,0.0,0.2723762,0.27237535,0.57368547,1.0998768,1.0998765,4.0583243,0.0,0.0,0.0,0.09047182,0.0,0.0,0.0,0.0,0.0,0.0002601617,0.002557655,0.0041883145,0.0,0.0,0.0,0.0,0.0,0.0
25556000,-0.004773003,-0.02172246,0.0312561,0.0038751534,-0.021652441,-0.009857178,0.0,0.0,0.0,-0.009118587,0.0,0.0,0.0,0.0,0.0,0.2721949,0.27219397,0.573642,1.0997945,1.0997941,4.0581417,0.0,0.0,0.0,0.09046894,0.0,0.0,0.0,0.0,0.0,0.00013649347,0.0019032815,0.0039826585,0.0,0.0,0.0,0.0,0.0,0.0
25756000,-0.004773003,-0.02172246,0.0312561,0.0038751534,-0.021652441,-0.04711914,0.0,0.0,0.0,0.010029495,0.0,0.0,0.0,0.0,0.0,0.2721949,0.27219397,0.573642,1.0997945,1.0997941,4.058383,0.0,0.0,0.0,0.090466484,0.0,0.0,0.0,0.0,0.0,0.00012988568,0.0013701017,0.0026157324,0.0,0.0,0.0,0.0,0.0,0.0
25956000,-0.008055748,-0.027832799,0.039645016,0.0023284398,-0.015009873,0.06896973,0.0,0.0,0.0,0.013158888,0.0,0.0,0.0,0.0,0.0,0.27342424,0.27342305,0.5737506,1.1071,1.1070995,4.058193,0.0,0.0,0.0,0.09046355,0.0,0.0,0.0,0.0,0.0,0.00040646704,0.0013546633,0.0030688385,0.0,0.0,0.0,0.0,0.0,0.0
26156000,-0.00058504473,-0.01231706,-0.018843759,0.0012193127,-0.019985188,0.030090332,0.0,0.0,0.0,-0.0067825615,0.0,0.0,0.0,0.0,0.0,0.27295968,0.27295834,0.57379395,1.106077,1.1060765,4.0581036,0.0,0.0,0.0,0.090460315,0.0,0.0,0.0,0.0,0.0,0.00029049837,0.0010149974,0.003441313,0.0,0.0,0.0,0.0,0.0,0.0
26356000,-0.011351259,-0.020367805,0.020442432,-0.0010279019,-0.01838678,-0.07595825,0.0,0.0,0.0,0.0034292042,0.0,0.0,0.0,0.0,0.0,0.27254814,0.2725469,0.57374316,1.1051656,1.105165,4.0580134,0.0,0.0,0.0,0.09045706,0.0,0.0,0.0,0.0,0.0,0.00018436927,0.0011749562,0.0026808842,0.0,0.0,0.0,0.0,0.0,0.0
26556000,-0.022753661,-0.009108966,0.07474165,-0.0016333109,-0.015817873,-0.0793457,0.0,0.0,0.0,-0.0059124827,0.0,0.0,0.0,0.0,0.0,0.27217448,0.27217323,0.57369316,1.1043504,1.1043499,4.0581493,0.0,0.0,0.0,0.09045475,0.0,0.0,0.0,0.0,0.0,0.0001403595,0.0019191393,0.003604997,0.0,0.0,0.0,0.0,0.0,0.0
26756000,-0.012902989,-0.026483761,0.066436455,-0.00094782695,-0.014689999,0.04119873,0.0,0.0,0.0,-0.010880828,0.0,0.0,0.0,0.0,0.0,0.2718366,0.27183536,0.57373977,1.1036197,1.1036191,4.0580716,0.0,0.0,0.0,0.09045146,0.0,0.0,0.0,0.0,0.0,0.00041962846,0.002350072,0.0051983413,0.0,0.0,0.0,0.0,0.0,0.0
26956000,-0.0154470075,-0.0032723579,0.025959956,-0.0019945407,-0.01816366,0.06436157,0.0,0.0,0.0,-0.006216496,0.0,0.0,0.0,0.0,0.0,0.27153397,0.27153268,0.5736922,1.1029631,1.1029625,4.05789,0.0,0.0,0.0,0.09044845,0.0,0.0,0.0,0.0,0.0,0.00032721134,0.0016478729,0.0031628185,0.0,0.0,0.0,0.0,0.0,0.0
27156000,-0.017331002,-0.011833434,0.04942616,-0.0031587966,-0.008863476,0.09408569,0.0,0.0,0.0,-0.0022512674,0.0,0.0,0.0,0.0,0.0,0.2712512,0.27124992,0.57374203,1.102371,1.1023704,4.058131,0.0,0.0,0.0,0.09044578,0.0,0.0,0.0,0.0,0.0,0.00026694903,0.001803027,0.003534701,0.0,0.0,0.0,0.0,0.0,0.0
27356000,-0.00785204,-0.0076373247,0.049559303,-0.003774498,-0.0063642976,0.13320923,0.0,0.0,0.0,-0.0073964596,0.0,0.0,0.0,0.0,0.0,0.2709972,0.27099591,0.57369566,1.1018366,1.101836,4.0579624,0.0,0.0,0.0,0.09044277,0.0,0.0,0.0,0.0,0.0,0.00033703374,0.0016491384,0.003523687,0.0,0.0,0.0,0.0,0.0,0.0
27556000,-0.030147418,0.016211266,0.03187774,-0.006183432,-0.0038232673,0.016571045,0.0,0.0,0.0,-7.876754e-05,0.0,0.0,0.0,0.0,0.0,0.27075675,0.2707554,0.5737457,1.101352,1.1013514,4.0578938,0.0,0.0,0.0,0.09043945,0.0,0.0,0.0,0.0,0.0,0.00012367309,0.0031866794,0.006236182,0.0,0.0,0.0,0.0,0.0,0.0
27756000,-0.0021028612,0.0071246894,0.027460288,-0.00582821,-0.0043231677,-0.12207031,0.0,0.0,0.0,-0.00030335784,0.0,0.0,0.0,0.0,0.0,0.27052814,0.27052674,0.57370186,1.1009109,1.1009102,4.057824,0.0,0.0,0.0,0.09043614,0.0,0.0,0.0,0.0,0.0,7.420362e-05,0.0026365644,0.0051687234,0.0,0.0,0.0,0.0,0.0,0.0
27956000,-0.03505346,0.018547643,0.061841108,-0.009762629,-0.0033592316,0.117248535,0.0,0.0,0.0,-0.0019567013,0.0,0.0,0.0,0.0,0.0,0.2703216,0.27032024,0.573658,1.1005094,1.1005088,4.0579767,0.0,0.0,0.0,0.09043373,0.0,0.0,0.0,0.0,0.0,0.00019727105,0.0036510609,0.0070373593,0.0,0.0,0.0,0.0,0.0,0.0
28156000,-0.023553288,0.019899698,0.053466905,-0.009378819,-0.003871499,0.10977173,0.0,0.0,0.0,0.0039723814,0.0,0.0,0.0,0.0,0.0,0.27012873,0.2701274,0.5737093,1.1001437,1.100143,4.0579176,0.0,0.0,0.0,0.09043043,0.0,0.0,0.0,0.0,0.0,0.00047689636,0.0038434165,0.0075569088,0.0,0.0,0.0,0.0,0.0,0.0
28356000,-0.022949057,0.008757061,0.05480658,-0.010054511,-0.004132183,-0.027404785,0.0,0.0,0.0,0.011197716,0.0,0.0,0.0,0.0,0.0,0.26994562,0.26994434,0.5736666,1.0998089,1.0998081,4.0577517,0.0,0.0,0.0,0.090427436,0.0,0.0,0.0,0.0,0.0,0.00027856958,0.0031590145,0.006345867,0.0,0.0,0.0,0.0,0.0,0.0
28556000,-0.016043967,0.008288697,0.023315886,-0.011183859,-0.0032880048,0.10745239,0.0,0.0,0.0,-2.592802e-06,0.0,0.0,0.0,0.0,0.0,0.26977867,0.2697774,0.5737201,1.0995023,1.0995016,4.0580087,0.0,0.0,0.0,0.09042472,0.0,0.0,0.0,0.0,0.0,0.00022057806,0.0028428684,0.00661822,0.0,0.0,0.0,0.0,0.0,0.0
28756000,-0.049531795,-0.011567991,0.04597842,-0.013524519,-0.0022654622,0.085632324,0.0,0.0,0.0,0.0031509101,0.0,0.0,0.0,0.0,0.0,0.26961252,0.26961124,0.5736774,1.0992197,1.0992188,4.0578527,0.0,0.0,0.0,0.09042175,0.0,0.0,0.0,0.0,0.0,0.00022073781,0.0029739323,0.006444434,0.0,0.0,0.0,0.0,0.0,0.0
28956000,-0.028426573,0.008831101,0.061307646,-0.011951808,0.0010633387,0.13677979,0.0,0.0,0.0,-0.012456894,0.0,0.0,0.0,0.0,0.0,0.26945236,0.26945117,0.57373035,1.0989586,1.0989578,4.057798,0.0,0.0,0.0,0.0904185,0.0,0.0,0.0,0.0,0.0,0.0002985388,0.0031249286,0.00749312,0.0,0.0,0.0,0.0,0.0,0.0
29156000,-0.026484815,0.012601304,0.0005226992,-0.012736405,0.0019817224,0.20419312,0.0,0.0,0.0,0.005019009,0.0,0.0,0.0,0.0,0.0,0.26930586,0.26930466,0.5736892,1.0987169,1.098716,4.057741,0.0,0.0,0.0,0.090415254,0.0,0.0,0.0,0.0,0.0,0.00023968074,0.0026663286,0.006579371,0.0,0.0,0.0,0.0,0.0,0.0
29356000,-0.024264151,0.0077203847,0.07285518,-0.013584285,0.0022555627,0.0619812,0.0,0.0,0.0,9.250641e-05,0.0,0.0,0.0,0.0,0.0,0.26916534,0.2691643,0.5736477,1.0984927,1.0984919,4.0579033,0.0,0.0,0.0,0.09041288,0.0,0.0,0.0,0.0,0.0,0.000118354226,0.002520842,0.0061202995,0.0,0.0,0.0,0.0,0.0,0.0
29556000,-0.0036361814,0.009977966,0.06184952,-0.014188864,0.0028495165,0.13162231,0.0,0.0,0.0,0.0122124255,0.0,0.0,0.0,0.0,0.0,0.26903033,0.26902932,0.5737008,1.0982835,1.0982827,4.057854,0.0,0.0,0.0,0.090409674,0.0,0.0,0.0,0.0,0.0,0.00019502688,0.003306105,0.009138224,0.0,0.0,0.0,0.0,0.0,0.0
29756000,-0.024903988,-0.0048323656,0.030267214,-0.01733301,0.0028743183,0.034454346,0.0,0.0,0.0,0.009908497,0.0,0.0,0.0,0.0,0.0,0.26890248,0.26890156,0.5736597,1.0980885,1.0980878,4.0576963,0.0,0.0,0.0,0.09040678,0.0,0.0,0.0,0.0,0.0,0.00026689356,0.0022712252,0.0070592384,0.0,0.0,0.0,0.0,0.0,0.0
29956000,-0.019965915,0.026152754,0.03894657,-0.0069095567,0.011845671,0.13693237,0.0,0.0,0.0,0.0074678957,0.0,0.0,0.0,0.0,0.0,0.26878005,0.2687791,0.57371455,1.0979058,1.0979049,4.057961,0.0,0.0,0.0,0.09040413,0.0,0.0,0.0,0.0,0.0,0.00024362784,0.0027274059,0.0073211463,0.0,0.0,0.0,0.0,0.0,0.0
30156000,-0.028233374,-0.018047696,0.06883694,-0.02083824,0.008433607,0.03665161,0.0,0.0,0.0,-0.0033929646,0.0,0.0,0.0,0.0,0.0,0.2686623,0.2686614,0.573673,1.0977339,1.0977331,4.057812,0.0,0.0,0.0,0.09040129,0.0,0.0,0.0,0.0,0.0,0.00016645016,0.0011807223,0.0031581437,0.0,0.0,0.0,0.0,0.0,0.0
30356000,-0.02447002,0.0015970846,0.06738605,-0.020820104,0.0026935756,0.12188721,0.0,0.0,0.0,0.011485964,0.0,0.0,0.0,0.0,0.0,0.26855,0.26854914,0.5737267,1.0975721,1.0975714,4.0577636,0.0,0.0,0.0,0.09039818,0.0,0.0,0.0,0.0,0.0,0.0002808182,0.0013402737,0.0034082748,0.0,0.0,0.0,0.0,0.0,0.0
30556000,-0.034614228,-0.0031329761,0.08770108,-0.02093314,0.0020669461,0.08654785,0.0,0.0,0.0,0.008020073,0.0,0.0,0.0,0.0,0.0,0.26843882,0.26843798,0.57368636,1.0974188,1.0974181,4.057712,0.0,0.0,0.0,0.090395086,0.0,0.0,0.0,0.0,0.0,0.00016755481,0.0033859154,0.009087818,0.0,0.0,0.0,0.0,0.0,0.0
30756000,-0.024184113,-0.006612544,0.035540696,-0.01976099,0.0012641756,0.2345581,0.0,0.0,0.0,0.0077402294,0.0,0.0,0.0,0.0,0.0,0.26833254,0.2683317,0.5736455,1.0972728,1.097272,4.057879,0.0,0.0,0.0,0.09039278,0.0,0.0,0.0,0.0,0.0,0.00021658244,0.0019724367,0.005760773,0.0,0.0,0.0,0.0,0.0,0.0
30956000,-0.022851257,0.0054955757,-0.014249444,-0.02185555,0.0007574355,0.10220337,0.0,0.0,0.0,0.009530574,0.0,0.0,0.0,0.0,0.0,0.2692092,0.26920828,0.5738102,1.1032941,1.1032932,4.058502,0.0,0.0,0.0,0.09038975,0.0,0.0,0.0,0.0,0.0,0.0003527879,0.0015494805,0.0042266003,0.0,0.0,0.0,0.0,0.0,0.0
31156000,-0.022858327,-0.0068161977,0.059569787,-0.021221967,-0.001065939,0.023010254,0.0,0.0,0.0,0.004769534,0.0,0.0,0.0,0.0,0.0,0.26893207,0.26893112,0.57375664,1.1024269,1.102426,4.058327,0.0,0.0,0.0,0.09038703,0.0,0.0,0.0,0.0,0.0,0.00045729734,0.0016432442,0.0038019416,0.0,0.0,0.0,0.0,0.0,0.0
31356000,-0.0223815,0.0082959905,0.07058358,-0.020799441,-0.0020653736,0.06225586,0.0,0.0,0.0,0.0018159151,0.0,0.0,0.0,0.0,0.0,0.26868942,0.2686884,0.5738012,1.101647,1.1016462,4.058578,0.0,0.0,0.0,0.0903845,0.0,0.0,0.0,0.0,0.0,0.0005135036,0.0019087144,0.003972732,0.0,0.0,0.0,0.0,0.0,0.0
31556000,-0.02088328,-0.023986565,0.04877072,-0.02037784,-0.005510516,0.15475464,0.0,0.0,0.0,-0.016349465,0.0,0.0,0.0,0.0,0.0,0.26847586,0.26847482,0.5737501,1.1009449,1.100944,4.058411,0.0,0.0,0.0,0.090381816,0.0,0.0,0.0,0.0,0.0,0.00014665369,0.0025793028,0.0055299443,0.0,0.0,0.0,0.0,0.0,0.0
31756000,-0.038265206,-0.015262145,0.068256974,-0.019793047,-0.004948664,0.0049743652,0.0,0.0,0.0,0.0087711215,0.0,0.0,0.0,0.0,0.0,0.26828608,0.268285,0.5736991,1.1003118,1.100311,4.058343,0.0,0.0,0.0,0.09037887,0.0,0.0,0.0,0.0,0.0,0.00041792673,0.0035515197,0.007312821,0.0,0.0,0.0,0.0,0.0,0.0
31956000,-0.01745005,-0.01770587,0.056452405,-0.016623566,-0.0059618065,0.124816895,0.0,0.0,0.0,0.008188844,0.0,0.0,0.0,0.0,0.0,0.26811725,0.26811612,0.5737444,1.0997403,1.0997396,4.0582714,0.0,0.0,0.0,0.09037598,0.0,0.0,0.0,0.0,0.0,0.00022112021,0.003625672,0.008442408,0.0,0.0,0.0,0.0,0.0,0.0
32155999,-0.01745005,-0.01770587,0.056452405,-0.016623566,-0.0059618065,-9.1552734e-05,0.0,0.0,0.0,0.008086354,0.0,0.0,0.0,0.0,0.0,0.26811725,0.26811612,0.5737444,1.0997403,1.0997396,4.0584254,0.0,0.0,0.0,0.09037381,0.0,0.0,0.0,0.0,0.0,0.0002969974,0.0011669155,0.0029976673,0.0,0.0,0.0,0.0,0.0,0.0
32356000,-0.0061434545,-0.03808769,0.047001928,-0.016655901,-0.0068251737,0.06561279,0.0,0.0,0.0,-0.0071749985,0.0,0.0,0.0,0.0,0.0,0.26804283,0.26804164,0.57373726,1.0997237,1.099723,4.058355,0.0,0.0,0.0,0.09037096,0.0,0.0,0.0,0.0,0.0,0.00011142563,0.0019366061,0.004142074,0.0,0.0,0.0,0.0,0.0,0.0
32563999,-0.023945458,-0.013041437,0.03787441,-0.017352946,-0.0058058123,0.1774292,0.0,0.0,0.0,0.016443312,0.0,0.0,0.0,0.0,0.0,0.26797077,0.2679695,0.57372856,1.0996969,1.0996962,4.0582805,0.0,0.0,0.0,0.09036815,0.0,0.0,0.0,0.0,0.0,0.0002207321,0.0013011501,0.0031792694,0.0,0.0,0.0,0.0,0.0,0.0
32764000,0.00021887291,-0.024498872,0.0064182505,-0.0040583042,-0.00851457,0.14315796,0.0,0.0,0.0,0.012392402,0.0,0.0,0.0,0.0,0.0,0.26782608,0.26782477,0.57367796,1.0991639,1.0991632,4.058428,0.0,0.0,0.0,0.090366036,0.0,0.0,0.0,0.0,0.0,0.00020460063,0.0019933092,0.004859211,0.0,0.0,0.0,0.0,0.0,0.0
32964000,0.002300595,-0.016035262,0.05815631,-0.016828533,-0.009923138,0.19174194,0.0,0.0,0.0,0.0012917519,0.0,0.0,0.0,0.0,0.0,0.26777005,0.26776868,0.5737664,1.0991768,1.099176,4.0580454,0.0,0.0,0.0,0.09036287,0.0,0.0,0.0,0.0,0.0,8.860795e-05,0.0021433295,0.0051160273,0.0,0.0,0.0,0.0,0.0,0.0
33164000,-0.0073470753,-0.03026825,0.03579161,-0.017152693,-0.020554692,0.0128479,0.0,0.0,0.0,0.005870253,0.0,0.0,0.0,0.0,0.0,0.26771754,0.267716,0.5736642,1.0991783,1.0991776,4.058504,0.0,0.0,0.0,0.0903612,0.0,0.0,0.0,0.0,0.0,0.00017125728,0.0019072754,0.0042834096,0.0,0.0,0.0,0.0,0.0,0.0
33371999,-0.019675318,-0.05171032,0.033801492,-0.016567992,-0.021287212,0.1000061,0.0,0.0,0.0,-0.008445621,0.0,0.0,0.0,0.0,0.0,0.26759198,0.2675903,0.57370853,1.0986786,1.0986778,4.0584207,0.0,0.0,0.0,0.09035849,0.0,0.0,0.0,0.0,0.0,0.00025460354,0.00224956,0.005707134,0.0,0.0,0.0,0.0,0.0,0.0
33572000,-0.0052963695,-0.033461895,0.0395889,-0.014418114,-0.012529051,0.062286377,0.0,0.0,0.0,-0.007881314,0.0,0.0,0.0,0.0,0.0,0.26755497,0.26755318,0.57369924,1.0987175,1.0987167,4.058335,0.0,0.0,0.0,0.09035582,0.0,0.0,0.0,0.0,0.0,0.00017797352,0.0021917406,0.0058819787,0.0,0.0,0.0,0.0,0.0,0.0
33772000,0.004184738,-0.05478647,0.04436041,-0.013619795,-0.014332989,0.042236328,0.0,0.0,0.0,-7.5787306e-05,0.0,0.0,0.0,0.0,0.0,0.26751867,0.26751673,0.57368976,1.0987451,1.0987443,4.058171,0.0,0.0,0.0,0.09035343,0.0,0.0,0.0,0.0,0.0,0.00021206863,0.0024531314,0.005275609,0.0,0.0,0.0,0.0,0.0,0.0
33972000,-0.0060411957,-0.033910394,0.07536229,-0.014142994,-0.013489532,0.014526367,0.0,0.0,0.0,-0.0038425326,0.0,0.0,0.0,0.0,0.0,0.2674038,0.2674018,0.57373977,1.0982733,1.0982724,4.0581064,0.0,0.0,0.0,0.090350814,0.0,0.0,0.0,0.0,0.0,0.0003430661,0.0020825719,0.005087515,0.0,0.0,0.0,0.0,0.0,0.0
34172000,-0.0056380522,-0.047236346,0.09308745,-0.013328361,-0.0153720835,0.0687561,0.0,0.0,0.0,-0.011237621,0.0,0.0,0.0,0.0,0.0,0.2673037,0.26730156,0.5736935,1.0978489,1.0978479,4.058256,0.0,0.0,0.0,0.09034885,0.0,0.0,0.0,0.0,0.0,0.0003602791,0.0017745754,0.004043123,0.0,0.0,0.0,0.0,0.0,0.0
34372000,-0.007185434,-0.03885544,0.046889327,-0.012686636,-0.023582667,0.066223145,0.0,0.0,0.0,-0.0031396747,0.0,0.0,0.0,0.0,0.0,0.26721647,0.26721418,0.57364726,1.0974672,1.0974662,4.0581994,0.0,0.0,0.0,0.0903463,0.0,0.0,0.0,0.0,0.0,0.0002121958,0.0015697158,0.0037689127,0.0,0.0,0.0,0.0,0.0,0.0
34572000,-0.0060789897,-0.03133858,0.029450167,-0.01203644,-0.024848169,0.04916382,0.0,0.0,0.0,-0.011288762,0.0,0.0,0.0,0.0,0.0,0.2671408,0.26713842,0.57369876,1.0971241,1.097123,4.0581403,0.0,0.0,0.0,0.09034377,0.0,0.0,0.0,0.0,0.0,0.000170522,0.0014471483,0.00348213,0.0,0.0,0.0,0.0,0.0,0.0
34772000,-0.0079834405,-0.061409075,0.067860074,-0.01168605,-0.019541908,0.05670166,0.0,0.0,0.0,-0.000490278,0.0,0.0,0.0,0.0,0.0,0.26706883,0.26706636,0.57365483,1.0968151,1.0968139,4.0579734,0.0,0.0,0.0,0.09034151,0.0,0.0,0.0,0.0,0.0,0.0002055455,0.0017777868,0.0042865314,0.0,0.0,0.0,0.0,0.0,0.0
34972000,-0.010226249,-0.037878845,0.020703869,-0.011567969,-0.018564487,0.08938599,0.0,0.0,0.0,0.011038035,0.0,0.0,0.0,0.0,0.0,0.26700884,0.26700637,0.57370615,1.0965375,1.0965363,4.0582356,0.0,0.0,0.0,0.09033939,0.0,0.0,0.0,0.0,0.0,0.00014660833,0.0017606929,0.004627159,0.0,0.0,0.0,0.0,0.0,0.0
35172000,-0.011542849,-0.03562331,0.029907698,-0.0115792435,-0.027256465,0.051940918,0.0,0.0,0.0,0.0014749169,0.0,0.0,0.0,0.0,0.0,0.2669493,0.2669468,0.5736625,1.0962875,1.0962862,4.058078,0.0,0.0,0.0,0.09033719,0.0,0.0,0.0,0.0,0.0,0.00017210639,0.0014549474,0.0039565153,0.0,0.0,0.0,0.0,0.0,0.0
35372000,-0.024439069,-0.056560505,0.026502836,-0.011655944,-0.020532478,0.08755493,0.0,0.0,0.0,-0.00035369396,0.0,0.0,0.0,0.0,0.0,0.26689735,0.26689482,0.57371616,1.0960628,1.0960613,4.0580206,0.0,0.0,0.0,0.09033477,0.0,0.0,0.0,0.0,0.0,0.00018223884,0.0015365143,0.004098372,0.0,0.0,0.0,0.0,0.0,0.0
35572000,-0.015439139,-0.04433117,0.06489952,-0.010933049,-0.019325033,0.08029175,0.0,0.0,0.0,-0.006313443,0.0,0.0,0.0,0.0,0.0,0.2668489,0.26684633,0.57367367,1.0958601,1.0958587,4.0581765,0.0,0.0,0.0,0.090333,0.0,0.0,0.0,0.0,0.0,0.00023414416,0.0013929753,0.00422984,0.0,0.0,0.0,0.0,0.0,0.0
35772000,-0.017149977,-0.044537894,-0.007476311,-0.011362651,-0.019373177,-0.009490967,0.0,0.0,0.0,-0.0009958446,0.0,0.0,0.0,0.0,0.0,0.26680404,0.26680142,0.5736308,1.0956777,1.0956762,4.058127,0.0,0.0,0.0,0.09033064,0.0,0.0,0.0,0.0,0.0,0.000149816,0.0028261328,0.007941964,0.0,0.0,0.0,0.0,0.0,0.0
35972000,-0.015994208,-0.033124115,0.012489304,-0.011906248,-0.019360377,0.002746582,0.0,0.0,0.0,-0.0011032224,0.0,0.0,0.0,0.0,0.0,0.26676303,0.2667604,0.57368505,1.0955137,1.0955122,4.0580745,0.0,0.0,0.0,0.09032831,0.0,0.0,0.0,0.0,0.0,0.00017775098,0.0021275342,0.005920526,0.0,0.0,0.0,0.0,0.0,0.0
36172000,-0.016745012,-0.02541638,0.009381838,-0.012424809,-0.020652613,-0.077178955,0.0,0.0,0.0,0.0041418374,0.0,0.0,0.0,0.0,0.0,0.26672626,0.26672357,0.5736439,1.0953659,1.0953642,4.057914,0.0,0.0,0.0,0.09032618,0.0,0.0,0.0,0.0,0.0,0.00024247041,0.0021162643,0.005627761,0.0,0.0,0.0,0.0,0.0,0.0
36372000,-0.021447273,-0.016200032,0.007272809,-0.013029632,-0.023342516,0.08380127,0.0,0.0,0.0,0.005004406,0.0,0.0,0.0,0.0,0.0,0.2666913,0.26668864,0.57369757,1.0952327,1.0952309,4.0581822,0.0,0.0,0.0,0.09032423,0.0,0.0,0.0,0.0,0.0,0.00010266002,0.002174217,0.00541017,0.0,0.0,0.0,0.0,0.0,0.0
36572000,-0.013288723,-0.037320092,0.054973938,-0.01387379,-0.026909253,0.0024719238,0.0,0.0,0.0,-0.011658847,0.0,0.0,0.0,0.0,0.0,0.26665917,0.26665655,0.5736561,1.0951124,1.0951107,4.05803,0.0,0.0,0.0,0.09032219,0.0,0.0,0.0,0.0,0.0,0.00016112828,0.0021125008,0.0061549423,0.0,0.0,0.0,0.0,0.0,0.0
36772000,-0.016161649,-0.056478705,-0.008227796,-0.016180843,-0.027662741,0.044189453,0.0,0.0,0.0,-0.008541733,0.0,0.0,0.0,0.0,0.0,0.26662952,0.26662692,0.5737114,1.0950041,1.0950022,4.057979,0.0,0.0,0.0,0.09031996,0.0,0.0,0.0,0.0,0.0,0.00026601265,0.002803978,0.008060944,0.0,0.0,0.0,0.0,0.0,0.0
36972000,-0.021023959,-0.03459189,0.002134487,-0.007551875,-0.018314883,-0.043151855,0.0,0.0,0.0,-0.0032618642,0.0,0.0,0.0,0.0,0.0,0.26659963,0.26659712,0.57367045,1.0949059,1.0949038,4.05814,0.0,0.0,0.0,0.090318285,0.0,0.0,0.0,0.0,0.0,0.0001453999,0.0031630485,0.009183397,0.0,0.0,0.0,0.0,0.0,0.0
37172000,-0.032239,-0.033850417,-0.026770284,-0.021986032,-0.02705605,0.14993286,0.0,0.0,0.0,-0.0098721385,0.0,0.0,0.0,0.0,0.0,0.26657113,0.2665687,0.5736289,1.0948166,1.0948145,4.058095,0.0,0.0,0.0,0.09031612,0.0,0.0,0.0,0.0,0.0,0.00038335685,0.0032661927,0.009262757,0.0,0.0,0.0,0.0,0.0,0.0
37372000,-0.033772178,-0.034211796,-0.056368407,-0.022864943,-0.027695827,-0.005554199,0.0,0.0,0.0,0.009399205,0.0,0.0,0.0,0.0,0.0,0.26654485,0.26654246,0.5736841,1.0947354,1.0947334,4.0580473,0.0,0.0,0.0,0.09031398,0.0,0.0,0.0,0.0,0.0,0.00015085893,0.0032078163,0.008665432,0.0,0.0,0.0,0.0,0.0,0.0
37572000,-0.03225197,-0.040737286,0.024192493,-0.023448985,-0.02792637,-0.024658203,0.0,0.0,0.0,0.008620501,0.0,0.0,0.0,0.0,0.0,0.26651904,0.26651675,0.57364374,1.0946618,1.0946597,4.057891,0.0,0.0,0.0,0.0903121,0.0,0.0,0.0,0.0,0.0,0.00018902417,0.002099508,0.0060320753,0.0,0.0,0.0,0.0,0.0,0.0
37772000,-0.03192696,-0.02168866,0.037465423,-0.024121895,-0.027146373,0.0032348633,0.0,0.0,0.0,-0.0039131045,0.0,0.0,0.0,0.0,0.0,0.26649132,0.2664891,0.5736979,1.0945938,1.0945916,4.058163,0.0,0.0,0.0,0.090310305,0.0,0.0,0.0,0.0,0.0,0.00015207734,0.0018104126,0.0049204812,0.0,0.0,0.0,0.0,0.0,0.0
37972000,-0.031040573,-0.062120236,0.059360795,-0.024780653,-0.028754009,0.06417847,0.0,0.0,0.0,-0.0015527904,0.0,0.0,0.0,0.0,0.0,0.2664652,0.26646298,0.5736569,1.0945313,1.0945292,4.0580144,0.0,0.0,0.0,0.09030843,0.0,0.0,0.0,0.0,0.0,0.00017815358,0.00076739007,0.0026255734,0.0,0.0,0.0,0.0,0.0,0.0
38172000,-0.031910002,-0.01835177,0.060450792,-0.02545984,-0.025276523,-0.006011963,0.0,0.0,0.0,0.00075796247,0.0,0.0,0.0,0.0,0.0,0.2664407,0.26643857,0.5737125,1.0944738,1.0944716,4.057966,0.0,0.0,0.0,0.09030638,0.0,0.0,0.0,0.0,0.0,0.00013934322,0.0017027063,0.004894684,0.0,0.0,0.0,0.0,0.0,0.0
38372000,-0.04046886,-0.016389033,-0.016619598,-0.025913486,-0.026500132,-0.018676758,0.0,0.0,0.0,0.005845517,0.0,0.0,0.0,0.0,0.0,0.26641706,0.26641503,0.57367176,1.0944203,1.094418,4.05813,0.0,0.0,0.0,0.09030483,0.0,0.0,0.0,0.0,0.0,0.00019170942,0.0023331328,0.0057098875,0.0,0.0,0.0,0.0,0.0,0.0
38572000,-0.029756717,-0.029755978,0.04888399,-0.027772458,-0.030342996,-0.00048828125,0.0,0.0,0.0,-0.014042556,0.0,0.0,0.0,0.0,0.0,0.26723686,0.2672347,0.5737405,1.1000867,1.1000841,4.0580683,0.0,0.0,0.0,0.09030283,0.0,0.0,0.0,0.0,0.0,0.00014494015,0.0011893873,0.0030526784,0.0,0.0,0.0,0.0,0.0,0.0
38772000,-0.029978378,-0.03173549,0.00068578124,-0.027759202,-0.030156087,0.009796143,0.0,0.0,0.0,-0.004672408,0.0,0.0,0.0,0.0,0.0,0.2670743,0.2670722,0.57378393,1.0994011,1.0993986,4.0580034,0.0,0.0,0.0,0.090300865,0.0,0.0,0.0,0.0,0.0,0.0003650418,0.0012446725,0.003118713,0.0,0.0,0.0,0.0,0.0,0.0
38972000,-0.039613973,-0.021964895,-0.05335562,-0.027628122,-0.037552476,-0.051452637,0.0,0.0,0.0,0.0016646087,0.0,0.0,0.0,0.0,0.0,0.26693037,0.26692837,0.57373214,1.0987824,1.0987799,4.0578294,0.0,0.0,0.0,0.0902991,0.0,0.0,0.0,0.0,0.0,0.0002589732,0.002388347,0.00533795,0.0,0.0,0.0,0.0,0.0,0.0
39172000,-0.026913755,-0.036045358,0.03310811,-0.026130825,-0.03836498,0.039245605,0.0,0.0,0.0,2.0176172e-05,0.0,0.0,0.0,0.0,0.0,0.26680595,0.26680395,0.57377815,1.0982238,1.0982214,4.058083,0.0,0.0,0.0,0.09029743,0.0,0.0,0.0,0.0,0.0,0.00027238097,0.0012838074,0.0033465687,0.0,0.0,0.0,0.0,0.0,0.0
39372000,-0.026709963,-0.046856113,0.06490861,-0.025890011,-0.030276539,-0.06518555,0.0,0.0,0.0,-0.010554701,0.0,0.0,0.0,0.0,0.0,0.2667019,0.26669997,0.57372713,1.0977201,1.0977178,4.057917,0.0,0.0,0.0,0.09029572,0.0,0.0,0.0,0.0,0.0,0.00028537845,0.0016365967,0.0038288054,0.0,0.0,0.0,0.0,0.0,0.0
39572000,-0.030067844,-0.043994486,0.007995108,-0.026108071,-0.029214757,0.02456665,0.0,0.0,0.0,-0.01110965,0.0,0.0,0.0,0.0,0.0,0.26661104,0.2666093,0.573773,1.0972663,1.097264,4.0578513,0.0,0.0,0.0,0.090293825,0.0,0.0,0.0,0.0,0.0,0.00020497173,0.0016829361,0.0039307475,0.0,0.0,0.0,0.0,0.0,0.0
39772000,-0.02668559,-0.020529848,0.055066064,-0.025808832,-0.027962679,0.10586548,0.0,0.0,0.0,-0.0006259978,0.0,0.0,0.0,0.0,0.0,0.26653004,0.2665284,0.5737245,1.0968571,1.0968548,4.0579967,0.0,0.0,0.0,0.0902924,0.0,0.0,0.0,0.0,0.0,0.00017703619,0.0010104313,0.0025587303,0.0,0.0,0.0,0.0,0.0,0.0
39972000,-0.045481704,-0.019019233,0.050963413,-0.025536925,-0.036708564,0.041900635,0.0,0.0,0.0,-0.010302991,0.0,0.0,0.0,0.0,0.0,0.26646024,0.26645875,0.5736763,1.0964885,1.0964863,4.057937,0.0,0.0,0.0,0.09029057,0.0,0.0,0.0,0.0,0.0,0.00030094135,0.001399233,0.0028457446,0.0,0.0,0.0,0.0,0.0,0.0
40172000,-0.023107812,-0.03833948,0.052982666,-0.022947162,-0.02964811,-0.009155273,0.0,0.0,0.0,0.00017037988,0.0,0.0,0.0,0.0,0.0,0.26640365,0.26640224,0.5737239,1.0961573,1.0961553,4.057875,0.0,0.0,0.0,0.09028874,0.0,0.0,0.0,0.0,0.0,0.00025729288,0.0012333537,0.002987026,0.0,0.0,0.0,0.0,0.0,0.0
40372000,-0.02310264,-0.037696544,0.015982274,-0.023063723,-0.028322892,0.14758301,0.0,0.0,0.0,-0.0061805844,0.0,0.0,0.0,0.0,0.0,0.2663536,0.26635227,0.5736773,1.0958599,1.0958579,4.0577054,0.0,0.0,0.0,0.09028712,0.0,0.0,0.0,0.0,0.0,0.00017720096,0.0016254168,0.0049114716,0.0,0.0,0.0,0.0,0.0,0.0
40572000,-0.042568788,-0.028057925,0.102819584,-0.022852125,-0.027166186,0.031097412,0.0,0.0,0.0,-0.0011783838,0.0,0.0,0.0,0.0,0.0,0.2663092,0.26630792,0.5737277,1.095593,1.0955911,4.057962,0.0,0.0,0.0,0.0902856,0.0,0.0,0.0,0.0,0.0,0.0002068045,0.0020256462,0.004734303,0.0,0.0,0.0,0.0,0.0,0.0
40772000,-0.030785186,-0.035179045,0.066870585,-0.02020311,-0.026862942,0.1171875,0.0,0.0,0.0,-0.0036514103,0.0,0.0,0.0,0.0,0.0,0.26627123,0.2662701,0.5736819,1.0953536,1.0953518,4.057801,0.0,0.0,0.0,0.09028401,0.0,0.0,0.0,0.0,0.0,0.00025469394,0.0029759307,0.007991125,0.0,0.0,0.0,0.0,0.0,0.0
40972000,-0.03557943,-0.026428077,0.0696878,-0.019556178,-0.03320861,0.030761719,0.0,0.0,0.0,0.008250982,0.0,0.0,0.0,0.0,0.0,0.2662406,0.26623955,0.57373226,1.09514,1.0951383,4.0577407,0.0,0.0,0.0,0.090282276,0.0,0.0,0.0,0.0,0.0,0.00017863332,0.0021959466,0.00580535,0.0,0.0,0.0,0.0,0.0,0.0
41172000,-0.024346758,-0.025703343,0.07537949,-0.018743077,-0.025128901,0.12799072,0.0,0.0,0.0,-0.017170817,0.0,0.0,0.0,0.0,0.0,0.26621187,0.26621094,0.57368875,1.0949492,1.0949477,4.0578904,0.0,0.0,0.0,0.090280965,0.0,0.0,0.0,0.0,0.0,0.0001726548,0.0019669277,0.0052107903,0.0,0.0,0.0,0.0,0.0,0.0
41372000,-0.03627403,-0.043105986,0.090419605,-0.019611167,-0.024921944,0.087005615,0.0,0.0,0.0,-0.0035667121,0.0,0.0,0.0,0.0,0.0,0.26618704,0.26618624,0.5736452,1.0947789,1.0947773,4.0578375,0.0,0.0,0.0,0.090279266,0.0,0.0,0.0,0.0,0.0,0.00028489914,0.0033851077,0.00909866,0.0,0.0,0.0,0.0,0.0,0.0
41572000,-0.026164422,-0.019915303,0.10186653,-0.018879745,-0.014601713,0.0496521,0.0,0.0,0.0,-0.01185146,0.0,0.0,0.0,0.0,0.0,0.26616773,0.26616704,0.5736967,1.0946274,1.094626,4.057782,0.0,0.0,0.0,0.0902776,0.0,0.0,0.0,0.0,0.0,0.00024521246,0.0025838197,0.006714209,0.0,0.0,0.0,0.0,0.0,0.0
41772000,-0.018097132,-0.035576858,0.082476296,-0.019919336,-0.022113554,0.031707764,0.0,0.0,0.0,-0.0016753674,0.0,0.0,0.0,0.0,0.0,0.26615214,0.2661516,0.57365423,1.0944933,1.0944918,4.0576186,0.0,0.0,0.0,0.0902761,0.0,0.0,0.0,0.0,0.0,0.00026294662,0.0023641328,0.0063944436,0.0,0.0,0.0,0.0,0.0,0.0
41972000,-0.027630152,-0.012599005,0.08517505,-0.021709144,-0.019148199,0.04699707,0.0,0.0,0.0,-0.0001823008,0.0,0.0,0.0,0.0,0.0,0.26613876,0.2661383,0.573708,1.0943744,1.0943732,4.0578814,0.0,0.0,0.0,0.0902747,0.0,0.0,0.0,0.0,0.0,0.0001583684,0.0020687098,0.0052810083,0.0,0.0,0.0,0.0,0.0,0.0
42172000,-0.016057348,-0.009031772,0.11648679,-0.021950964,-0.018349962,0.14956665,0.0,0.0,0.0,-0.0121560395,0.0,0.0,0.0,0.0,0.0,0.26612654,0.26612613,0.5736657,1.0942695,1.0942684,4.0577264,0.0,0.0,0.0,0.09027323,0.0,0.0,0.0,0.0,0.0,0.0001029796,0.0033951025,0.00843052,0.0,0.0,0.0,0.0,0.0,0.0
42372000,-0.04353946,-0.008544919,0.055055343,-0.023043133,-0.017499069,0.07589722,0.0,0.0,0.0,-0.0048847497,0.0,0.0,0.0,0.0,0.0,0.2661173,0.26611692,0.57371885,1.094177,1.094176,4.057673,0.0,0.0,0.0,0.09027164,0.0,0.0,0.0,0.0,0.0,0.00034256213,0.0030966552,0.008187905,0.0,0.0,0.0,0.0,0.0,0.0
42572000,-0.025301225,-0.005110319,0.08482984,-0.020980133,-0.016419198,0.067993164,0.0,0.0,0.0,-0.011946827,0.0,0.0,0.0,0.0,0.0,0.26610875,0.26610848,0.57367814,1.094096,1.094095,4.0578284,0.0,0.0,0.0,0.09027043,0.0,0.0,0.0,0.0,0.0,0.00036021,0.0028553128,0.0072608483,0.0,0.0,0.0,0.0,0.0,0.0
42772000,-0.03311483,-0.0021224378,0.08492751,-0.021106394,-0.015122848,0.18432617,0.0,0.0,0.0,-0.0133241415,0.0,0.0,0.0,0.0,0.0,0.2661,0.26609972,0.57363707,1.0940247,1.0940238,4.0577817,0.0,0.0,0.0,0.09026887,0.0,0.0,0.0,0.0,0.0,0.00039140324,0.0038807571,0.010410537,0.0,0.0,0.0,0.0,0.0,0.0
42972000,-0.022055151,0.0022033702,0.104806826,-0.03134399,-0.013426515,0.15979004,0.0,0.0,0.0,-0.002941966,0.0,0.0,0.0,0.0,0.0,0.26609313,0.2660929,0.5736906,1.0939622,1.0939615,4.0577326,0.0,0.0,0.0,0.09026733,0.0,0.0,0.0,0.0,0.0,0.00026448054,0.004184072,0.011019997,0.0,0.0,0.0,0.0,0.0,0.0
43172000,-0.019788451,0.0039215516,0.14671029,-0.01926914,-0.011797892,0.20727539,0.0,0.0,0.0,0.01564467,0.0,0.0,0.0,0.0,0.0,0.26608375,0.2660835,0.57365,1.093907,1.0939063,4.0575747,0.0,0.0,0.0,0.09026595,0.0,0.0,0.0,0.0,0.0,7.9543664e-05,0.005093187,0.013129601,0.0,0.0,0.0,0.0,0.0,0.0
43372000,-0.019788451,0.0039215516,0.14671029,-0.01926914,-0.011797892,0.029327393,0.0,0.0,0.0,0.002898872,0.0,0.0,0.0,0.0,0.0,0.26608375,0.2660835,0.57365,1.093907,1.0939063,4.058514,0.0,0.0,0.0,0.09026466,0.0,0.0,0.0,0.0,0.0,4.38501e-05,0.0034355405,0.009166056,0.0,0.0,0.0,0.0,0.0,0.0
43572000,-0.014734218,0.008544664,0.07795418,-0.02076698,-0.009539876,0.10058594,0.0,0.0,0.0,-0.003461361,0.0,0.0,0.0,0.0,0.0,0.2669668,0.2669665,0.57375914,1.0999714,1.0999708,4.058342,0.0,0.0,0.0,0.09026332,0.0,0.0,0.0,0.0,0.0,7.1689625e-05,0.003306607,0.008553303,0.0,0.0,0.0,0.0,0.0,0.0
43772000,-0.012662103,0.00048556458,0.12842631,-0.019818638,-0.007651398,0.06518555,0.0,0.0,0.0,-0.008362204,0.0,0.0,0.0,0.0,0.0,0.26681355,0.26681328,0.57380354,1.0992507,1.0992501,4.0582695,0.0,0.0,0.0,0.09026185,0.0,0.0,0.0,0.0,0.0,4.6327343e-05,0.0030503212,0.007640577,0.0,0.0,0.0,0.0,0.0,0.0
43972000,-0.0021439046,0.015157924,0.10634643,-0.019092608,-0.012083631,0.19577026,0.0,0.0,0.0,-0.008328974,0.0,0.0,0.0,0.0,0.0,0.2666828,0.26668254,0.57375056,1.098603,1.0986025,4.0584126,0.0,0.0,0.0,0.090260744,0.0,0.0,0.0,0.0,0.0,0.00020494976,0.0038727345,0.010052684,0.0,0.0,0.0,0.0,0.0,0.0
44172000,-0.02564442,0.011348249,0.0876885,-0.01991396,-0.0015076306,0.0881958,0.0,0.0,0.0,0.003142655,0.0,0.0,0.0,0.0,0.0,0.26656783,0.26656753,0.5736977,1.0980204,1.0980201,4.0583467,0.0,0.0,0.0,0.0902593,0.0,0.0,0.0,0.0,0.0,7.656049e-05,0.002934432,0.0075384467,0.0,0.0,0.0,0.0,0.0,0.0
44372000,-0.01695157,0.02371794,0.08699971,-0.01842141,0.0017180168,0.24465942,0.0,0.0,0.0,0.00040516257,0.0,0.0,0.0,0.0,0.0,0.26647198,0.26647168,0.5737437,1.0974971,1.0974967,4.058278,0.0,0.0,0.0,0.09025788,0.0,0.0,0.0,0.0,0.0,5.951534e-05,0.0031116577,0.0077831615,0.0,0.0,0.0,0.0,0.0,0.0
