timestamp,rollspeed,pitchspeed,yawspeed,rollspeed_integ,pitchspeed_integ,yawspeed_integ,additional_integ1
1904000,-0.012728876,-0.00015377809,-0.005073129,0.0,0.0,0.0,0.0
1932000,0.0031970819,-0.009468565,0.00097275124,0.0,0.0,0.0,0.0
1964000,-0.005147573,-0.021469511,0.008401261,0.0,0.0,0.0,0.0
1996000,0.0020346604,0.0017622777,-0.0019110438,0.0,0.0,0.0,0.0
2028000,0.008046326,-0.0044997456,0.0046739145,0.0,0.0,0.0,0.0
2064000,0.0020063943,0.000860736,0.0020910455,0.0,0.0,0.0,0.0
2096000,0.0010404869,-0.0076198806,0.012564285,0.0,0.0,0.0,0.0
2124000,0.011934321,-0.016528351,-0.0051274165,0.0,0.0,0.0,0.0
2156000,-0.0071482593,-0.0067587732,0.008682901,0.0,0.0,0.0,0.0
2192000,-0.0023281497,0.008126821,-0.0032282923,0.0,0.0,0.0,0.0
2224000,0.0011203035,-0.0012026525,0.0038732183,0.0,0.0,0.0,0.0
2252000,0.0014575055,-0.013702519,0.0046286033,0.0,0.0,0.0,0.0
2288000,0.0064764703,0.0028085033,0.002512087,0.0,0.0,0.0,0.0
2320000,-0.00731241,-0.012417648,0.008295836,0.0,0.0,0.0,0.0
2348000,-0.009247631,-0.008924724,-0.0065022665,0.0,0.0,0.0,0.0
2380000,-0.004809514,-0.0058323783,0.007443521,0.0,0.0,0.0,0.0
2412000,0.0067075468,-0.0027047042,0.0046794866,0.0,0.0,0.0,0.0
2444000,0.0059088664,-0.0049826484,-0.0057471558,0.0,0.0,0.0,0.0
2476000,-0.00690071,-0.011279337,0.008972154,0.0,0.0,0.0,0.0
2512000,0.006712578,-0.006132433,0.0037295297,0.0,0.0,0.0,0.0
2540000,0.0005978469,-0.0050147213,0.0040133903,0.0,0.0,0.0,0.0
2572000,-0.004408022,-0.008073197,-0.0027356239,0.0,0.0,0.0,0.0
2604000,-0.0032504392,-0.0066616465,-0.0040858546,0.0,0.0,0.0,0.0
2636000,0.004926592,-0.0029840542,-0.0012215035,0.0,0.0,0.0,0.0
2668000,0.0009367089,-0.0014990037,-0.0102105625,0.0,0.0,0.0,0.0
2700000,0.0064643975,0.0035291796,0.0022815918,0.0,0.0,0.0,0.0
2732000,-0.00523168,0.0011732576,-0.008050423,0.0,0.0,0.0,0.0
2764000,0.003995382,-0.0050824923,-0.0043527368,0.0,0.0,0.0,0.0
2796000,0.0027617498,-0.01070407,0.0068640807,0.0,0.0,0.0,0.0
2832000,-0.0018872315,-0.012827728,-0.0019938739,0.0,0.0,0.0,0.0
2860000,0.00084060634,-0.011413963,0.002316345,0.0,0.0,0.0,0.0
2896000,-0.0018767276,0.0068701445,-0.0031617011,0.0,0.0,0.0,0.0
2928000,-0.0013719095,-0.007297718,-0.008220597,0.0,0.0,0.0,0.0
2956000,-0.0023540983,-0.0005498945,-0.0030133952,0.0,0.0,0.0,0.0
2988000,-0.0053007514,-0.005613935,0.005796844,0.0,0.0,0.0,0.0
3024000,0.0029195482,-0.0027666332,0.0042388323,0.0,0.0,0.0,0.0
3052000,-0.010178629,-0.002364556,-0.0008574986,0.0,0.0,0.0,0.0
3084000,-0.003063155,-0.01208107,0.0073987595,0.0,0.0,0.0,0.0
3116000,0.008720628,-0.008687345,0.0024575118,0.0,0.0,0.0,0.0
3148000,-0.0037412983,-0.0060722725,-0.0019261404,0.0,0.0,0.0,0.0
3180000,-0.005273022,-0.0064861965,0.00085699756,0.0,0.0,0.0,0.0
3212000,-0.0034412916,-0.010142185,0.0014062899,0.0,0.0,0.0,0.0
3244000,0.0015780448,-0.0051369118,0.0052252216,0.0,0.0,0.0,0.0
3280000,-0.00597831,-0.012086027,0.005876314,0.0,0.0,0.0,0.0
3308000,-0.004480594,-0.015165291,0.013450705,0.0,0.0,0.0,0.0
3340000,-0.0012546267,-0.004464064,0.010049391,0.0,0.0,0.0,0.0
3372000,-0.00010265817,-0.01445674,-0.00022389021,0.0,0.0,0.0,0.0
3404000,-0.009399706,0.0008072355,-0.0023369244,0.0,0.0,0.0,0.0
3436000,-0.002469685,-0.014841525,-0.0028284146,0.0,0.0,0.0,0.0
3468000,0.0007358628,-0.010387116,-0.014198745,0.0,0.0,0.0,0.0
3504000,0.004544407,-0.0073590367,0.0056682206,0.0,0.0,0.0,0.0
3536000,0.0022638207,-0.0048904954,-0.0020011498,0.0,0.0,0.0,0.0
3564000,0.00044534737,0.0016835986,0.00041893424,0.0,0.0,0.0,0.0
3596000,-0.004264447,-0.010114185,-0.0024821006,0.0,0.0,0.0,0.0
3628000,-0.0077970666,-0.013194441,-0.00026706365,0.0,0.0,0.0,0.0
3664000,0.0035525882,-0.015248091,0.0010294385,0.0,0.0,0.0,0.0
3692000,0.004783585,-0.009835868,0.002793321,0.0,0.0,0.0,0.0
3724000,0.0019262269,-0.006875476,0.0048379716,0.0,0.0,0.0,0.0
3756000,-0.001851908,-0.017044997,0.009018558,0.0,0.0,0.0,0.0
3788000,-0.008214051,-0.0058627254,0.0046168296,0.0,0.0,0.0,0.0
3820000,0.0049614874,-0.008383629,0.0067973807,0.0,0.0,0.0,0.0
3852000,-0.00479501,-0.0017801325,0.002224781,0.0,0.0,0.0,0.0
3884000,-0.008717307,-0.009042713,0.0006220231,0.0,0.0,0.0,0.0
3916000,-0.0077198087,-0.0065550045,-0.004316534,0.0,0.0,0.0,0.0
3952000,-0.012691419,-0.0040726494,-0.0034305993,0.0,0.0,0.0,0.0
3980000,-0.00094783714,-0.0134376,0.004277578,0.0,0.0,0.0,0.0
4012000,-0.00023404876,-0.0047526928,-0.0017780039,0.0,0.0,0.0,0.0
4044000,-0.006788247,0.0016367541,-0.0007094812,0.0,0.0,0.0,0.0
4076000,0.00022508856,-0.01075586,-0.0015198718,0.0,0.0,0.0,0.0
4108000,-0.0025081364,-0.011038417,0.0031003489,0.0,0.0,0.0,0.0
4143999,-0.0012863374,-0.008063668,-0.0037475522,0.0,0.0,0.0,0.0
4172000,-0.00034788635,0.0031494533,-0.0029902358,0.0,0.0,0.0,0.0
4204000,0.0017592704,-0.005951571,-0.0037590705,0.0,0.0,0.0,0.0
4236000,-0.010311175,-0.001963742,0.0060501425,0.0,0.0,0.0,0.0
4268000,0.004420942,-0.004248839,-0.00046305748,0.0,0.0,0.0,0.0
4304000,-0.0053893453,0.0009839174,-0.0062588705,0.0,0.0,0.0,0.0
4332000,0.005076703,-0.0020114232,-0.0028238436,0.0,0.0,0.0,0.0
4368000,-0.007535106,-0.0014864111,0.0034239127,0.0,0.0,0.0,0.0
4396000,-0.00548681,-0.003350202,0.007546171,0.0,0.0,0.0,0.0
4428000,-0.004133352,-0.011460525,0.009674771,0.0,0.0,0.0,0.0
4460000,-0.0049394877,-0.0024069853,-0.0043597813,0.0,0.0,0.0,0.0
4492000,-0.0012675301,-0.009439047,-0.0005298,0.0,0.0,0.0,0.0
4528000,-0.007040341,-0.0013088791,0.0051259156,0.0,0.0,0.0,0.0
4556000,0.002572292,-0.0063856887,-0.0010222503,0.0,0.0,0.0,0.0
4588000,0.0072340295,-0.004386671,-0.0050518094,0.0,0.0,0.0,0.0
4620000,0.000116157345,0.0008903882,0.005305751,0.0,0.0,0.0,0.0
4652000,0.006571944,-0.0014557715,0.0014167863,0.0,0.0,0.0,0.0
4684000,-0.004844487,-0.009686751,-0.0023710488,0.0,0.0,0.0,0.0
4716000,-0.005673771,-0.008537184,-0.00044772236,0.0,0.0,0.0,0.0
4752000,6.2369218e-06,-0.0090194885,-0.0069740857,0.0,0.0,0.0,0.0
4784000,-0.009362139,0.002372101,-0.0022795608,0.0,0.0,0.0,0.0
4812000,-0.004642335,-0.0050275708,0.0064113154,0.0,0.0,0.0,0.0
4844000,-0.0010630183,-0.0007388677,-0.0058058403,0.0,0.0,0.0,0.0
4876000,0.006800316,-0.0029609764,-0.00247916,0.0,0.0,0.0,0.0
4908000,0.0019898578,-0.0055793035,-0.0041186195,0.0,0.0,0.0,0.0
4940000,0.011094519,0.004314997,-0.0009009095,0.0,0.0,0.0,0.0
4972000,0.0014174393,0.00045972015,-0.00085361575,0.0,0.0,0.0,0.0
5008000,-0.00076773827,0.00079293374,-0.009064277,0.0,0.0,0.0,0.0
5036000,-0.0010277829,-0.008525398,0.016929166,0.0,0.0,0.0,0.0
5068000,-0.0010562133,-0.0008696221,0.0076951077,0.0,0.0,0.0,0.0
5100000,0.00184086,-0.0070919204,0.0071024024,0.0,0.0,0.0,0.0
5132000,-0.0020713625,0.007983664,-0.00017639747,0.0,0.0,0.0,0.0
5164000,0.002604524,-0.00047043047,-0.0011362222,0.0,0.0,0.0,0.0
5196000,-0.0046246606,-0.006786742,0.006657254,0.0,0.0,0.0,0.0
5232000,-0.0017290497,-0.0039154673,-0.0010050262,0.0,0.0,0.0,0.0
5264000,-0.0073094517,-0.0033985497,0.005701311,0.0,0.0,0.0,0.0
5292000,0.0040333215,-0.0005055871,-0.0018153093,0.0,0.0,0.0,0.0
5324000,-0.0072576436,-0.0006437758,0.0021735139,0.0,0.0,0.0,0.0
5356000,-0.004579877,0.0028555347,0.0017299114,0.0,0.0,0.0,0.0
5388000,-0.0045768423,-0.008715594,0.0015101965,0.0,0.0,0.0,0.0
5420000,-0.012174385,-0.0040491302,-0.0028164089,0.0,0.0,0.0,0.0
5452000,0.004039308,0.0014674049,0.0018901074,0.0,0.0,0.0,0.0
5484000,0.005661315,0.0074018245,0.0015309269,0.0,0.0,0.0,0.0
5516000,-0.0055928016,-0.0071964944,0.009283046,0.0,0.0,0.0,0.0
5548000,0.0024614513,0.0040166555,-0.0029322505,0.0,0.0,0.0,0.0
5584000,-0.0029553315,-0.005693813,0.0035035007,0.0,0.0,0.0,0.0
5616000,0.00030683813,2.0365696e-05,-0.0020144368,0.0,0.0,0.0,0.0
5644000,0.0047075627,-0.008196136,0.003102366,0.0,0.0,0.0,0.0
5676000,-0.0012021128,-0.005788708,-0.0029853994,0.0,0.0,0.0,0.0
5708000,-0.005868816,0.0020569563,0.011603206,0.0,0.0,0.0,0.0
5740000,-0.0054482836,0.0037981505,0.0012819731,0.0,0.0,0.0,0.0
5772000,0.0010659428,0.0022459636,0.00016250362,0.0,0.0,0.0,0.0
5804000,0.008601971,-0.011574795,0.007430252,0.0,0.0,0.0,0.0
5840000,0.009317213,0.004465999,0.0030107663,0.0,0.0,0.0,0.0
5868000,0.0005448591,-0.006013685,0.0017241183,0.0,0.0,0.0,0.0
5904000,-0.0042979764,-0.00266988,-0.0030571136,0.0,0.0,0.0,0.0
5936000,-0.0050693825,0.0012797687,0.0013346723,0.0,0.0,0.0,0.0
5968000,0.008343983,-0.0025502078,0.001975348,0.0,0.0,0.0,0.0
6000000,-0.0040714107,-0.0043851947,0.0012707799,0.0,0.0,0.0,0.0
6028000,0.011854404,0.0036450615,0.0034100323,0.0,0.0,0.0,0.0
6060000,-0.006625254,-0.008971492,-0.0047445754,0.0,0.0,0.0,0.0
6092000,-0.0010565916,0.0003464087,0.0018121415,0.0,0.0,0.0,0.0
6124000,0.004171842,0.0028139767,-0.0018043933,0.0,0.0,0.0,0.0
6156000,0.003935176,-0.0088906335,-0.0061545256,0.0,0.0,0.0,0.0
6192000,0.0011107913,-0.012846408,0.0019591253,0.0,0.0,0.0,0.0
6220000,0.0019338732,-0.009392326,-0.001246461,0.0,0.0,0.0,0.0
6252000,0.0016971121,-0.0007360205,0.004631647,0.0,0.0,0.0,0.0
6288000,-0.0061663617,0.002064785,-0.004401058,0.0,0.0,0.0,0.0
6316000,0.0017559249,-0.0055840984,0.0011063535,0.0,0.0,0.0,0.0
6348000,0.011943382,-0.0011807862,0.008064954,0.0,0.0,0.0,0.0
6380000,0.009753772,-0.0010775635,-0.0019053441,0.0,0.0,0.0,0.0
6412000,0.018936703,-0.005776897,0.006928093,0.0,0.0,0.0,0.0
6444000,0.0006196479,-0.0037893222,0.0034537057,0.0,0.0,0.0,0.0
6476000,-0.003529469,-0.009515596,0.004605517,0.0,0.0,0.0,0.0
6508000,-0.0020018178,-0.009473512,-0.008359845,0.0,0.0,0.0,0.0
6540000,0.006190713,-0.008773783,-0.0062082866,0.0,0.0,0.0,0.0
6572000,-0.0020858552,-0.0055149365,0.0009819149,0.0,0.0,0.0,0.0
6604000,-0.0047184327,-0.0014324652,-0.013560364,0.0,0.0,0.0,0.0
6636000,0.0049205394,-0.0004963535,0.00079368934,0.0,0.0,0.0,0.0
6668000,0.003361404,-0.004814479,0.003730954,0.0,0.0,0.0,0.0
6704000,-0.00089095475,-0.0036936777,0.004127376,0.0,0.0,0.0,0.0
6736000,-0.0011802823,0.0073466287,0.005312299,0.0,0.0,0.0,0.0
6764000,-0.005770355,-0.00045307633,0.0046885065,0.0,0.0,0.0,0.0
6800000,0.0065602483,0.0033153878,0.0013130391,0.0,0.0,0.0,0.0
6828000,0.00083401956,0.008148937,-0.0016018786,0.0,0.0,0.0,0.0
6860000,-0.0002926375,0.00037402962,-0.002499897,0.0,0.0,0.0,0.0
6896000,0.005459049,-0.00035104435,-0.008880753,0.0,0.0,0.0,0.0
6924000,0.0048246537,-0.0041599018,0.0014412882,0.0,0.0,0.0,0.0
6956000,-0.0025239429,-0.0046732808,0.007444337,0.0,0.0,0.0,0.0
6988000,0.0014293261,-0.0073032156,0.000667698,0.0,0.0,0.0,0.0
7020000,-0.002953679,-0.0015721531,-0.0017494267,0.0,0.0,0.0,0.0
7052000,0.004922604,0.008371614,-0.0030488027,0.0,0.0,0.0,0.0
7084000,0.008337436,0.011244632,0.0038654294,0.0,0.0,0.0,0.0
7116000,0.0077356705,0.0035849332,0.006243393,0.0,0.0,0.0,0.0
7148000,-0.0025680352,0.0050666975,-0.0039911596,0.0,0.0,0.0,0.0
7180000,0.0043073525,-0.009942894,-0.004988199,0.0,0.0,0.0,0.0
7212000,-0.0006852839,-0.015502013,-0.005756354,0.0,0.0,0.0,0.0
7244000,-0.006364471,-0.006498686,-0.0037274458,0.0,0.0,0.0,0.0
7276000,-0.0027079117,6.9424044e-05,-0.003444722,0.0,0.0,0.0,0.0
7308000,0.00023679715,-0.0018638386,0.00092547317,0.0,0.0,0.0,0.0
7344000,0.006371474,0.0014492415,-0.0011396818,0.0,0.0,0.0,0.0
7376000,0.00045318424,0.0036977625,-0.012145397,0.0,0.0,0.0,0.0
7404000,-7.250917e-05,-0.015736684,0.0004963581,0.0,0.0,0.0,0.0
7436000,0.0069576846,-0.0034141648,-0.0068104235,0.0,0.0,0.0,0.0
7468000,0.00422554,0.0018846914,0.0011994296,0.0,0.0,0.0,0.0
7504000,-0.0006511165,-0.0090043135,-0.00013557475,0.0,0.0,0.0,0.0
7532000,0.004047376,0.004665943,-2.3632689e-05,0.0,0.0,0.0,0.0
7564000,-0.00521348,-0.008370787,0.0058176313,0.0,0.0,0.0,0.0
7600000,0.013184778,0.0011035765,-0.002764945,0.0,0.0,0.0,0.0
7632000,0.0066953404,0.0002907673,0.0031805835,0.0,0.0,0.0,0.0
7660000,0.0003516875,-0.0044958647,0.009635698,0.0,0.0,0.0,0.0
7692000,0.00057258137,0.007791315,0.0019137427,0.0,0.0,0.0,0.0
7728000,-0.0038508363,-0.0015000175,0.0039695594,0.0,0.0,0.0,0.0
7756000,-0.0038079917,0.0030177082,0.0057553435,0.0,0.0,0.0,0.0
7792000,-0.0020961743,0.0007369588,-0.00065632624,0.0,0.0,0.0,0.0
7820000,0.0062566265,0.017299589,-0.0022383486,0.0,0.0,0.0,0.0
7852000,0.0016707295,0.0025414512,0.004515191,0.0,0.0,0.0,0.0
7884000,0.0005905968,-2.70335e-05,-0.0049984986,0.0,0.0,0.0,0.0
7920000,-0.0014274033,-0.0019049426,0.003638553,0.0,0.0,0.0,0.0
7952000,0.013987697,-0.006062966,-0.0027295332,0.0,0.0,0.0,0.0
7980000,-0.0073528998,-0.0014316896,0.007002221,0.0,0.0,0.0,0.0
8016000,-0.003430014,0.006359255,0.00022801291,0.0,0.0,0.0,0.0
8044000,-0.002150427,0.006080456,-0.0036048149,0.0,0.0,0.0,0.0
8076000,0.005556123,-0.0031928113,0.0030770877,0.0,0.0,0.0,0.0
8108000,0.001974221,0.005782361,0.0043467833,0.0,0.0,0.0,0.0
8140000,0.011340557,0.005746473,-0.0053711855,0.0,0.0,0.0,0.0
8176000,0.0035019512,-0.0038541388,0.00034626565,0.0,0.0,0.0,0.0
8204000,0.004845058,-0.0008408902,0.0008322828,0.0,0.0,0.0,0.0
8236000,0.008355288,0.003522224,-0.003037723,0.0,0.0,0.0,0.0
8272000,0.0035175928,-0.0038470533,-0.00019896805,0.0,0.0,0.0,0.0
8304000,-0.0024760542,0.0019155084,0.00323654,0.0,0.0,0.0,0.0
8336000,0.0041610273,0.002878545,0.003804747,0.0,0.0,0.0,0.0
8368000,0.0005536934,-0.00019572768,-0.00018905685,0.0,0.0,0.0,0.0
8396000,0.004818641,-0.0060411245,-0.0022410995,0.0,0.0,0.0,0.0
8428000,0.0018885169,0.0039796364,0.01323816,0.0,0.0,0.0,0.0
8460000,0.006402859,-0.0070245876,-0.004861997,0.0,0.0,0.0,0.0
8492000,-0.005805834,0.007860184,-0.010341082,0.0,0.0,0.0,0.0
8528000,-0.0063243685,0.0032939822,0.0032270323,0.0,0.0,0.0,0.0
8560000,-0.00089614035,-0.0049376767,0.004700835,0.0,0.0,0.0,0.0
8592000,-0.0106919585,0.0028697771,0.002048401,0.0,0.0,0.0,0.0
8624000,0.0011103237,0.0029978259,-0.007987011,0.0,0.0,0.0,0.0
8652000,0.007463816,0.0033652051,0.002872119,0.0,0.0,0.0,0.0
8684000,0.00021332246,0.00016560033,-0.003487382,0.0,0.0,0.0,0.0
8716000,-0.012723922,-0.0055279783,-0.0024587694,0.0,0.0,0.0,0.0
8752000,-0.0048073167,-0.0016424358,-0.0028683164,0.0,0.0,0.0,0.0
8780000,-0.0009613517,0.0015371446,0.0061869044,0.0,0.0,0.0,0.0
8812000,-0.002676137,-0.0030770344,-0.006738457,0.0,0.0,0.0,0.0
8844000,0.008266754,0.0031332672,-0.0070643164,0.0,0.0,0.0,0.0
8876000,-0.0048765633,0.0022061307,0.00022100679,0.0,0.0,0.0,0.0
8908000,-0.0038385103,-0.0062068007,-0.002029038,0.0,0.0,0.0,0.0
8940000,-0.004261475,-0.0042430717,0.004266119,0.0,0.0,0.0,0.0
8972000,0.0013477596,0.0025969688,0.00040807738,0.0,0.0,0.0,0.0
9004000,-0.00034369656,0.0064898287,0.0033524781,0.0,0.0,0.0,0.0
9040000,-0.006796017,0.0014511892,0.0052563385,0.0,0.0,0.0,0.0
9068000,-0.0020945782,-0.0049754432,-0.0029173389,0.0,0.0,0.0,0.0
9104000,0.002070377,-0.00051243464,0.008660073,0.0,0.0,0.0,0.0
9136000,-0.007149804,-0.0037570805,-0.0002207417,0.0,0.0,0.0,0.0
9164000,-0.007533337,0.002937358,-0.00030182724,0.0,0.0,0.0,0.0
9196000,0.0009869407,-0.0020708418,0.0063542295,0.0,0.0,0.0,0.0
9232000,0.0050219554,0.00594745,0.0025191028,0.0,0.0,0.0,0.0
9260000,-0.0018001037,-0.0053838403,-0.0048173345,0.0,0.0,0.0,0.0
9292000,0.007123215,0.0013448126,-0.0020409988,0.0,0.0,0.0,0.0
9324000,-0.004707352,-7.022172e-06,-0.0051820674,0.0,0.0,0.0,0.0
9356000,0.0041085253,-0.0128126275,-0.0064612236,0.0,0.0,0.0,0.0
9388000,-0.0013306176,-4.743086e-05,-0.0019809343,0.0,0.0,0.0,0.0
9420000,0.0048484392,0.009579647,-0.0018957386,0.0,0.0,0.0,0.0
9456000,-0.0035708155,0.0034133464,0.010199001,0.0,0.0,0.0,0.0
9484000,-0.002669741,-0.00342752,-0.004772944,0.0,0.0,0.0,0.0
9520000,-0.0046383524,0.0057645026,0.0040334407,0.0,0.0,0.0,0.0
9548000,0.0025338186,-0.0032024165,-0.00043648737,0.0,0.0,0.0,0.0
9580000,-0.00071403035,0.00031707762,0.0019588107,0.0,0.0,0.0,0.0
9612000,-0.0015335886,0.005521807,-0.001548616,0.0,0.0,0.0,0.0
9644000,-0.00088465924,-0.0024253307,0.0003844088,0.0,0.0,0.0,0.0
9676000,-0.0077978936,0.0017893254,-0.0022760953,0.0,0.0,0.0,0.0
9712000,0.003498899,-0.0045941384,-0.0050461832,0.0,0.0,0.0,0.0
9744000,-0.004223667,0.004332275,0.002786183,0.0,0.0,0.0,0.0
9772000,-0.0019268718,0.0076296227,-0.008583159,0.0,0.0,0.0,0.0
9804000,-0.0024812699,0.000616224,0.0029777319,0.0,0.0,0.0,0.0
9836000,0.00926482,0.004983862,-0.002464746,0.0,0.0,0.0,0.0
9868000,0.006905031,-0.0039645513,-0.002775304,0.0,0.0,0.0,0.0
9904000,0.0031759772,-0.0038598855,-0.0016366752,0.0,0.0,0.0,0.0
9932000,-0.000900791,0.0049720434,-0.0043903864,0.0,0.0,0.0,0.0
9964000,0.0031616376,0.0026114567,-0.0006829369,0.0,0.0,0.0,0.0
9996000,0.0046347026,0.004156854,0.0035617272,0.0,0.0,0.0,0.0
10032000,-0.0029386058,0.0067185457,0.0011216978,0.0,0.0,0.0,0.0
10064000,0.0012297223,-0.004906002,-0.0011708803,0.0,0.0,0.0,0.0
10092000,0.0021373655,0.0058084787,-0.004077126,0.0,0.0,0.0,0.0
10124000,0.0002286479,0.0097366,-0.007783033,0.0,0.0,0.0,0.0
10156000,0.009588584,-0.008261332,0.0040336223,0.0,0.0,0.0,0.0
10188000,-0.0067959935,-0.0025109914,-0.0013880343,0.0,0.0,0.0,0.0
10220000,0.00043615635,-0.0042905277,0.0023700278,0.0,0.0,0.0,0.0
10252000,0.00039459317,-0.0073406,-0.00017547424,0.0,0.0,0.0,0.0
10284000,-0.0032864138,0.003692195,0.007079878,0.0,0.0,0.0,0.0
10316000,-8.913304e-05,-0.008171061,-0.0016318937,0.0,0.0,0.0,0.0
10348000,0.004624211,-0.0012219627,-0.0028648078,0.0,0.0,0.0,0.0
10380000,0.0010845093,-0.0006865016,-0.0039664167,0.0,0.0,0.0,0.0
10416000,-0.0027196635,-0.007046564,0.0013430883,0.0,0.0,0.0,0.0
10448000,0.0019538605,0.006189044,0.008834209,0.0,0.0,0.0,0.0
10476000,-0.0037049865,-0.00040590204,-0.0026720692,0.0,0.0,0.0,0.0
10508000,0.008364722,-0.0015098113,-0.012514236,0.0,0.0,0.0,0.0
10544000,-0.0016133899,-0.0036250898,0.0010914457,0.0,0.0,0.0,0.0
10572000,-0.0014533818,0.007163103,0.002824418,0.0,0.0,0.0,0.0
10608000,-0.00017236802,0.0048943707,0.0067842766,0.0,0.0,0.0,0.0
10636000,0.0030305604,-0.010813689,0.004468621,0.0,0.0,0.0,0.0
10668000,0.0049810265,-0.002739356,0.0014849969,0.0,0.0,0.0,0.0
10700000,0.00037034898,-0.0027168975,0.005869659,0.0,0.0,0.0,0.0
10732000,0.001564765,-0.008439377,-0.0075692204,0.0,0.0,0.0,0.0
10764000,0.009345993,-0.0053666793,-0.007383998,0.0,0.0,0.0,0.0
10796000,0.012049029,0.0009328993,-0.003515264,0.0,0.0,0.0,0.0
10828000,-0.001626112,0.0015661735,0.00087197847,0.0,0.0,0.0,0.0
10860000,-0.0026515266,-0.004226202,0.0012293394,0.0,0.0,0.0,0.0
10892000,-0.004721229,-0.0031250343,0.0034815967,0.0,0.0,0.0,0.0
10924000,0.006298989,-5.0626695e-05,-0.0032760696,0.0,0.0,0.0,0.0
10956000,-0.0051538465,0.0017216629,0.000725335,0.0,0.0,0.0,0.0
10992000,-0.000839881,0.006920185,-0.0006096957,0.0,0.0,0.0,0.0
11024000,0.003185329,-0.0004703682,0.001566644,0.0,0.0,0.0,0.0
11052000,0.0029040049,0.000426481,0.0046638893,0.0,0.0,0.0,0.0
11084000,0.002836201,0.00010978943,0.0064973114,0.0,0.0,0.0,0.0
11120000,0.0005085366,-0.002344794,-0.0063474732,0.0,0.0,0.0,0.0
11148000,0.0006115751,-0.009322782,-0.0027391452,0.0,0.0,0.0,0.0
11180000,-0.006093838,-0.009544389,0.01222366,0.0,0.0,0.0,0.0
11212000,-0.0024144321,0.010321848,0.009893308,0.0,0.0,0.0,0.0
11244000,5.1613897e-05,0.007902625,0.0006001013,0.0,0.0,0.0,0.0
11276000,-0.0008600574,0.0032548306,-0.003949196,0.0,0.0,0.0,0.0
11308000,0.002013213,-0.011785779,-0.005341734,0.0,0.0,0.0,0.0
11340000,-0.0019466002,-0.003346764,-0.0022435058,0.0,0.0,0.0,0.0
11376000,0.004670512,0.005249048,0.0011000038,0.0,0.0,0.0,0.0
11404000,0.0025478746,0.007648374,-0.0022900277,0.0,0.0,0.0,0.0
11436000,0.003915939,-0.0030706609,7.265832e-05,0.0,0.0,0.0,0.0
11468000,-0.0024392898,-0.0063998494,-0.005239515,0.0,0.0,0.0,0.0
11500000,-0.0061961072,0.0037436567,0.00084001693,0.0,0.0,0.0,0.0
11532000,0.0005214418,-0.008165786,0.0007228787,0.0,0.0,0.0,0.0
11564000,0.011426435,0.011084864,-0.0018659303,0.0,0.0,0.0,0.0
11596000,-0.0053259376,0.015546173,-0.003233932,0.0,0.0,0.0,0.0
11632000,-0.00024009531,0.006229127,0.0011153942,0.0,0.0,0.0,0.0
11664000,0.004948228,0.0064160116,-0.00418267,0.0,0.0,0.0,0.0
11692000,-0.0027419974,0.0061476994,4.9208065e-05,0.0,0.0,0.0,0.0
11728000,-0.0016371304,0.0012503471,-0.0017084898,0.0,0.0,0.0,0.0
11756000,0.003326567,0.00036650896,-0.00974922,0.0,0.0,0.0,0.0
11788000,0.008541129,0.01322875,-0.0068358085,0.0,0.0,0.0,0.0
11820000,0.0037044373,0.006855461,-0.0039564483,0.0,0.0,0.0,0.0
11852000,0.00026864634,0.0053706486,0.005378341,0.0,0.0,0.0,0.0
11884000,-0.00029362238,0.0009679543,0.009577833,0.0,0.0,0.0,0.0
11916000,0.005804394,-0.005254373,0.007815416,0.0,0.0,0.0,0.0
11948000,0.0013272539,0.004313749,-0.0026421188,0.0,0.0,0.0,0.0
11980000,-0.0064758514,0.0016601384,-0.006610147,0.0,0.0,0.0,0.0
12012000,0.000286042,0.0002965359,-0.010058413,0.0,0.0,0.0,0.0
12044000,0.006794718,-0.007037143,0.0099282665,0.0,0.0,0.0,0.0
12076000,0.0053051207,-0.0069643003,0.009612056,0.0,0.0,0.0,0.0
12108000,-0.0012669365,-0.0035806415,0.0048461957,0.0,0.0,0.0,0.0
12140000,-0.0031496356,-0.0072522066,0.000867881,0.0,0.0,0.0,0.0
12172000,-0.003740705,0.0063761254,0.0062455316,0.0,0.0,0.0,0.0
12208000,-0.00067743124,-0.005030199,-0.0037530828,0.0,0.0,0.0,0.0
12236000,0.002286237,-0.004573714,-0.005319997,0.0,0.0,0.0,0.0
12268000,-0.0028368616,0.0065668845,0.0014086933,0.0,0.0,0.0,0.0
12300000,-0.0073408373,0.006362616,-0.001507538,0.0,0.0,0.0,0.0
12332000,-0.0022597048,0.005044891,0.003970337,0.0,0.0,0.0,0.0
12364000,-0.00064640015,-0.000417253,-0.0014862906,0.0,0.0,0.0,0.0
12400000,0.008242593,-0.00047882926,-0.0018758964,0.0,0.0,0.0,0.0
12428000,-0.0033461272,-0.0005888557,4.7061214e-05,0.0,0.0,0.0,0.0
12464000,-0.009437091,-0.0022218493,-0.008560293,0.0,0.0,0.0,0.0
12492000,-0.0027511218,-0.0015531853,-0.0051075555,0.0,0.0,0.0,0.0
12524000,-0.00778073,-0.00031420914,0.0031368742,0.0,0.0,0.0,0.0
12560000,0.002924189,-0.00047343317,-0.014084058,0.0,0.0,0.0,0.0
12588000,-0.008141789,0.0025630598,-0.0047067,0.0,0.0,0.0,0.0
12620000,0.00420806,0.0027051591,-0.0035550923,0.0,0.0,0.0,0.0
12656000,-0.0046682847,-0.009939054,-0.00027127855,0.0,0.0,0.0,0.0
12688000,-0.0063770805,-0.0037900717,-0.003999349,0.0,0.0,0.0,0.0
12716000,0.0034598405,0.0068654814,-0.0029293548,0.0,0.0,0.0,0.0
12752000,0.0010129208,-0.0013137884,0.0063562966,0.0,0.0,0.0,0.0
12780000,-0.004852766,0.002239595,-0.0004898608,0.0,0.0,0.0,0.0
12812000,0.0008051248,0.0038152533,-0.0013506404,0.0,0.0,0.0,0.0
12844000,0.0004082693,0.009296691,0.0058115455,0.0,0.0,0.0,0.0
12876000,0.0020967112,2.4921726e-05,-0.0010659494,0.0,0.0,0.0,0.0
12908000,0.0064302078,-0.0014893427,0.0055476525,0.0,0.0,0.0,0.0
12940000,-0.0017925542,-0.0063072294,0.004073074,0.0,0.0,0.0,0.0
12972000,-0.0046969964,0.0009482107,-0.0014217058,0.0,0.0,0.0,0.0
13004000,-0.0042141704,0.0024227244,0.0014497685,0.0,0.0,0.0,0.0
13036000,-0.011852985,0.00058553414,-0.0030470763,0.0,0.0,0.0,0.0
13068000,-0.0013886954,-0.0050426503,-8.992474e-05,0.0,0.0,0.0,0.0
13100000,0.0010905495,-0.00025594048,-0.0062597618,0.0,0.0,0.0,0.0
13136000,-0.012015424,-0.00036496297,0.009711473,0.0,0.0,0.0,0.0
13164000,-0.0018200913,0.001130783,0.0023881153,0.0,0.0,0.0,0.0
13196000,0.0042395196,0.0008361391,0.0012400114,0.0,0.0,0.0,0.0
13228000,0.006119673,-0.00047819037,0.004559279,0.0,0.0,0.0,0.0
13264000,0.0026981425,0.0033075435,0.0069150734,0.0,0.0,0.0,0.0
13292000,0.001199595,-0.0019110953,-0.0034788616,0.0,0.0,0.0,0.0
13328000,0.00010196387,-0.005342573,0.0036539398,0.0,0.0,0.0,0.0
13356000,0.004346386,0.0047350484,-0.0052184565,0.0,0.0,0.0,0.0
13388000,0.008316932,0.0012349216,-0.006578714,0.0,0.0,0.0,0.0
13420000,0.015113188,-0.0026795114,-0.000113459406,0.0,0.0,0.0,0.0
13452000,0.012294265,-0.0026105791,-0.009767438,0.0,0.0,0.0,0.0
13484000,8.77073e-05,0.008688413,-0.0040822797,0.0,0.0,0.0,0.0
13516000,0.0054843314,0.0013661259,0.010828358,0.0,0.0,0.0,0.0
13552000,0.0050547686,-0.014067456,-0.0061083823,0.0,0.0,0.0,0.0
13580000,-0.00027683948,0.0031714903,-0.002589932,0.0,0.0,0.0,0.0
13612000,-0.00054187444,0.002928618,-0.001993805,0.0,0.0,0.0,0.0
13644000,-0.005230335,-0.004380972,-0.001043164,0.0,0.0,0.0,0.0
13680000,-0.005756619,0.0028611217,-0.007110507,0.0,0.0,0.0,0.0
13708000,-0.013941818,0.005507792,-0.0025050745,0.0,0.0,0.0,0.0
13740000,0.0063202437,-0.0074907416,0.0070793624,0.0,0.0,0.0,0.0
13772000,0.0037273495,0.0034804281,0.0012937448,0.0,0.0,0.0,0.0
13808000,0.004520477,0.005863489,0.0012783189,0.0,0.0,0.0,0.0
13836000,-0.00093247916,-0.0043925126,0.002770242,0.0,0.0,0.0,0.0
13868000,0.0014987946,0.0070185675,-0.0020301156,0.0,0.0,0.0,0.0
13900000,0.0064172,-0.00061093736,0.00497345,0.0,0.0,0.0,0.0
13932000,0.0026357358,-0.006827481,-0.0041708825,0.0,0.0,0.0,0.0
13968000,-0.005365257,0.002477441,-0.0052010817,0.0,0.0,0.0,0.0
13996000,0.010009216,-0.00105866,0.0020907028,0.0,0.0,0.0,0.0
14032000,-0.0052726106,0.0028764035,-0.0069758254,0.0,0.0,0.0,0.0
14060000,0.0064014303,-0.002938998,-0.003097066,0.0,0.0,0.0,0.0
14092000,0.010276164,0.0072005647,-0.0032814885,0.0,0.0,0.0,0.0
14124000,-0.004492313,0.0033771086,-0.0058591315,0.0,0.0,0.0,0.0
14156000,0.0017040987,-0.0028719092,0.0028898618,0.0,0.0,0.0,0.0
14188000,-0.0009268874,-0.0048048394,0.0014120901,0.0,0.0,0.0,0.0
14224000,-0.006961838,-0.00060186815,-0.00923875,0.0,0.0,0.0,0.0
14252000,0.0065213614,-0.0034740726,-0.0043303138,0.0,0.0,0.0,0.0
14288000,-0.0018280469,0.004358779,-0.004834181,0.0,0.0,0.0,0.0
14316000,-0.0013775043,0.00020303624,0.0024696998,0.0,0.0,0.0,0.0
14348000,0.002248757,-0.0012184824,0.003967901,0.0,0.0,0.0,0.0
14380000,-0.0029144832,0.0022504213,0.005635277,0.0,0.0,0.0,0.0
14416000,0.0018680596,0.0006621699,-0.002230467,0.0,0.0,0.0,0.0
14444000,-0.0018886166,0.0041329223,0.0025091837,0.0,0.0,0.0,0.0
14476000,-0.00127951,-0.0024817945,-0.008714259,0.0,0.0,0.0,0.0
14508000,0.0021481798,0.0016420647,-0.003638137,0.0,0.0,0.0,0.0
14540000,0.007229519,0.0007042363,0.006545467,0.0,0.0,0.0,0.0
14572000,0.0044102045,-0.004703559,-9.428919e-05,0.0,0.0,0.0,0.0
14604000,-0.0019058075,0.0059151035,0.0041047824,0.0,0.0,0.0,0.0
14636000,-0.011191048,0.00031453464,-0.0057148733,0.0,0.0,0.0,0.0
14668000,-0.0038225988,-0.0073844553,-0.008978585,0.0,0.0,0.0,0.0
14700000,0.0030789438,0.0038112467,-0.0034450514,0.0,0.0,0.0,0.0
14732000,-0.007766979,0.006325774,0.005609565,0.0,0.0,0.0,0.0
14764000,-0.004206466,0.0017324104,-0.01166509,0.0,0.0,0.0,0.0
14796000,-0.005349414,0.006604091,-0.002150866,0.0,0.0,0.0,0.0
14828000,0.004886831,-0.0018891064,0.008244665,0.0,0.0,0.0,0.0
14860000,-0.000590784,-0.001028934,-0.006207827,0.0,0.0,0.0,0.0
14892000,0.0042709047,-0.003967515,-0.010441063,0.0,0.0,0.0,0.0
14924000,0.00050836976,0.001287282,0.0019742846,0.0,0.0,0.0,0.0
14956000,0.008870191,0.0074613662,0.0055619893,0.0,0.0,0.0,0.0
14988000,0.0050716307,0.0031200887,-0.0070025846,0.0,0.0,0.0,0.0
15020000,0.004736623,-0.0038281055,0.00184273,0.0,0.0,0.0,0.0
15052000,-0.00387525,0.003297496,0.00036985584,0.0,0.0,0.0,0.0
15084000,0.007243363,-0.0020320523,0.0015644238,0.0,0.0,0.0,0.0
15120000,0.009991705,-0.0015032804,-0.0067013847,0.0,0.0,0.0,0.0
15148000,0.00052758027,0.007087372,0.007386802,0.0,0.0,0.0,0.0
15180000,0.001846014,-0.002067795,0.0009671913,0.0,0.0,0.0,0.0
15212000,0.004597781,-0.004391106,0.011299951,0.0,0.0,0.0,0.0
15248000,-0.004457049,0.0027944776,-0.0040518106,0.0,0.0,0.0,0.0
15276000,0.0002925085,-0.002065389,0.0034138628,0.0,0.0,0.0,0.0
15312000,0.005116745,0.0015878612,-0.0061049317,0.0,0.0,0.0,0.0
15340000,0.0012019317,-0.0028766734,-0.0031908848,0.0,0.0,0.0,0.0
15372000,-0.005603252,0.001760928,0.0012861219,0.0,0.0,0.0,0.0
15408000,0.006734335,-5.580904e-05,0.007901707,0.0,0.0,0.0,0.0
15436000,-0.0045775496,-0.0049779625,-0.0050272434,0.0,0.0,0.0,0.0
15468000,0.0032186187,-0.0011210325,-0.00023121882,0.0,0.0,0.0,0.0
15500000,-0.00579347,-0.0014871676,0.018545186,0.0,0.0,0.0,0.0
15532000,0.001038126,0.006319521,0.0104913525,0.0,0.0,0.0,0.0
15568000,0.0029397472,-0.0071407957,0.0010125543,0.0,0.0,0.0,0.0
15596000,-0.0016484673,0.006199734,0.0030093763,0.0,0.0,0.0,0.0
15632000,0.0030347249,0.00078806235,0.003862711,0.0,0.0,0.0,0.0
15660000,-0.0058522983,0.0015553962,0.0032097634,0.0,0.0,0.0,0.0
15696000,-0.0028994943,-0.0018937332,-0.007925774,0.0,0.0,0.0,0.0
15724000,0.004086467,0.0014766287,0.002590188,0.0,0.0,0.0,0.0
15756000,-0.0048552398,-0.0033209077,0.003472184,0.0,0.0,0.0,0.0
15788000,-7.625902e-05,0.0067314934,-0.0041320166,0.0,0.0,0.0,0.0
15820000,0.010929094,-0.0076343133,0.008599242,0.0,0.0,0.0,0.0
15852000,0.0031046732,0.0064340862,0.012114984,0.0,0.0,0.0,0.0
15888000,0.0011266231,-0.0068574515,-0.0013624844,0.0,0.0,0.0,0.0
15916000,-0.0011772349,0.0025745342,-0.0026246998,0.0,0.0,0.0,0.0
15952000,-0.0034967638,0.0122848265,0.0010225744,0.0,0.0,0.0,0.0
15980000,0.00402244,-0.0037216754,0.0014407333,0.0,0.0,0.0,0.0
16016000,7.564679e-05,-0.013425183,-0.0054064654,0.0,0.0,0.0,0.0
16043999,0.0046048956,0.006192711,-0.003676429,0.0,0.0,0.0,0.0
16075999,0.008538747,-0.003441698,0.0025010912,0.0,0.0,0.0,0.0
16107999,-0.006550039,0.006825587,-0.0011439418,0.0,0.0,0.0,0.0
16144000,-0.006647731,-0.0001248885,0.003593501,0.0,0.0,0.0,0.0
16171999,-0.0030640205,-0.004941741,0.003977529,0.0,0.0,0.0,0.0
16203999,0.005888289,-0.000317113,-0.0026247012,0.0,0.0,0.0,0.0
16235999,-0.0016930985,0.005558029,0.0021544336,0.0,0.0,0.0,0.0
16272000,0.0073970947,-0.005841441,0.0020775087,0.0,0.0,0.0,0.0
16299999,7.222936e-05,-0.0037408061,0.0008193527,0.0,0.0,0.0,0.0
16336000,0.0027344276,0.0074260077,-0.0013426903,0.0,0.0,0.0,0.0
16368000,-0.0010940748,-0.0005977447,0.0028649338,0.0,0.0,0.0,0.0
16400000,0.0021343771,-0.0063119973,0.0036269543,0.0,0.0,0.0,0.0
16432000,0.00014498085,-0.003414025,0.0074981307,0.0,0.0,0.0,0.0
16459999,-0.0020425145,-0.0064997864,0.0009402857,0.0,0.0,0.0,0.0
16496000,-0.0022916985,0.003636917,0.0019615625,0.0,0.0,0.0,0.0
16528000,-0.0062157186,0.0067167385,-0.0069214185,0.0,0.0,0.0,0.0
16555999,-0.003074918,-9.013526e-05,-0.00045263962,0.0,0.0,0.0,0.0
16587999,0.0003672028,0.0017947583,0.0063809846,0.0,0.0,0.0,0.0
16624000,-0.007906571,-0.0027212356,-0.0054969885,0.0,0.0,0.0,0.0
16651999,0.0018864047,-0.0031721462,0.0019329019,0.0,0.0,0.0,0.0
16683999,-0.0006374869,0.0005167569,-0.0045372173,0.0,0.0,0.0,0.0
16715999,0.0009189397,0.0015597506,0.0089335255,0.0,0.0,0.0,0.0
16747999,-0.0008908005,0.0036870285,-0.00048186723,0.0,0.0,0.0,0.0
16784000,-0.0019875914,0.014742451,-0.002207965,0.0,0.0,0.0,0.0
16812000,0.00549066,-0.006559138,0.0029351134,0.0,0.0,0.0,0.0
16844000,-0.003044161,-0.00085968524,0.004026987,0.0,0.0,0.0,0.0
16876000,-0.0019935644,0.0070681986,0.011255516,0.0,0.0,0.0,0.0
16908000,0.0034447685,-6.869063e-05,0.004760938,0.0,0.0,0.0,0.0
16944000,-0.00066012447,0.0005706786,0.0014473946,0.0,0.0,0.0,0.0
16972000,-0.0019480619,-0.015931845,-0.0053189695,0.0,0.0,0.0,0.0
17004000,0.0013015715,0.0057459013,-0.0044087856,0.0,0.0,0.0,0.0
17036000,-0.0034983028,0.0066477815,0.0021684044,0.0,0.0,0.0,0.0
17068000,-0.005508328,0.0035174282,0.0018728375,0.0,0.0,0.0,0.0
17100000,-0.0015631897,0.0040435325,-0.0026529203,0.0,0.0,0.0,0.0
17132000,-0.0028220527,-0.00096755335,0.004107288,0.0,0.0,0.0,0.0
17164000,-0.0015771133,0.002020719,-0.008011482,0.0,0.0,0.0,0.0
17196000,-0.008332596,-0.00042043533,-0.0062356787,0.0,0.0,0.0,0.0
17232000,0.012141528,-0.013021448,-0.006062581,0.0,0.0,0.0,0.0
17260000,-0.0010582503,0.00037965644,-0.007608043,0.0,0.0,0.0,0.0
17292000,0.00015328982,-0.00031567411,-0.0027435136,0.0,0.0,0.0,0.0
17324000,0.0033149924,0.0016464894,-0.0028912239,0.0,0.0,0.0,0.0
17356000,-0.0097298995,-0.010270279,-0.0020651568,0.0,0.0,0.0,0.0
17388000,-0.001980994,3.1903386e-05,-0.0071706017,0.0,0.0,0.0,0.0
17424000,-0.0004707158,-0.0010391064,-0.0016342838,0.0,0.0,0.0,0.0
17452000,-0.0022138744,0.001168136,-0.007837937,0.0,0.0,0.0,0.0
17484000,-0.00011375174,0.008453121,-0.009071921,0.0,0.0,0.0,0.0
17516000,0.00084102614,0.014099139,0.0023222747,0.0,0.0,0.0,0.0
17548000,0.0034080432,-0.0031558652,0.0022401556,0.0,0.0,0.0,0.0
17580000,-0.0025934945,0.007040388,0.0067412364,0.0,0.0,0.0,0.0
17612000,0.004286336,-0.0059398958,-0.0010222584,0.0,0.0,0.0,0.0
17644000,-0.0014662775,-0.0027166894,-0.0007543315,0.0,0.0,0.0,0.0
17676000,-0.0028322395,0.00017516268,0.0035287002,0.0,0.0,0.0,0.0
17712000,0.0011195685,-0.005157805,0.00036616763,0.0,0.0,0.0,0.0
17740000,-0.00049787026,0.0067629376,0.005235111,0.0,0.0,0.0,0.0
17776000,-0.0028410552,-0.0041002613,-0.0048565264,0.0,0.0,0.0,0.0
17804000,0.0013260727,-0.0034826985,0.0007299677,0.0,0.0,0.0,0.0
17840000,-0.005400966,-0.00059080403,-0.0027917924,0.0,0.0,0.0,0.0
17872000,0.0017600235,0.0061757974,-0.001845648,0.0,0.0,0.0,0.0
17904000,0.0036599115,0.006083022,0.0065313634,0.0,0.0,0.0,0.0
17936000,-0.0130167045,0.007198481,-0.0013674654,0.0,0.0,0.0,0.0
17964000,0.0075002317,-0.00310452,0.0006571796,0.0,0.0,0.0,0.0
17996000,0.00021212612,0.01039581,0.0076248082,0.0,0.0,0.0,0.0
18028000,-0.0016502268,0.004335194,-0.001951948,0.0,0.0,0.0,0.0
18060000,0.00565088,0.0029402643,-0.0018387396,0.0,0.0,0.0,0.0
18096000,0.005594473,-0.0044890805,-0.0063106255,0.0,0.0,0.0,0.0
18124000,0.0037018494,-0.0018868269,0.006133498,0.0,0.0,0.0,0.0
18156000,0.0030906657,0.0078122504,-0.006761814,0.0,0.0,0.0,0.0
18188000,-0.003501429,-0.0009201118,-0.008802634,0.0,0.0,0.0,0.0
18220000,-0.0003736138,-0.006686524,0.00368729,0.0,0.0,0.0,0.0
18252000,0.006992268,-0.006632753,0.012413699,0.0,0.0,0.0,0.0
18288000,0.011127418,-0.00061851926,0.0049365032,0.0,0.0,0.0,0.0
18316000,-0.009996022,0.0026459827,0.004290672,0.0,0.0,0.0,0.0
18348000,-0.0038206596,-0.0072128167,-0.003217712,0.0,0.0,0.0,0.0
18380000,-0.0109351445,-0.0028384249,0.003934808,0.0,0.0,0.0,0.0
18412000,0.0018785539,-0.004483332,0.0062120655,0.0,0.0,0.0,0.0
18444000,-0.0003728735,-0.0022708504,-0.007855225,0.0,0.0,0.0,0.0
18480000,0.0051734503,-0.00039583584,0.0035846706,0.0,0.0,0.0,0.0
18512000,0.004619114,-0.0026437235,0.0026618773,0.0,0.0,0.0,0.0
18540000,-0.008555712,-0.0012543947,0.002155895,0.0,0.0,0.0,0.0
18572000,-0.00039748754,-0.00068970537,-0.0024686116,0.0,0.0,0.0,0.0
18604000,-0.008071897,-0.0047710254,0.00042252286,0.0,0.0,0.0,0.0
18636000,-0.007975063,-0.005939631,-0.0010773086,0.0,0.0,0.0,0.0
18668000,-0.00049595325,0.0033327118,-0.0077734343,0.0,0.0,0.0,0.0
18700000,0.00714023,0.00568141,0.0008458571,0.0,0.0,0.0,0.0
18736000,0.0042510554,-0.00652475,0.002406111,0.0,0.0,0.0,0.0
18764000,-0.0051034973,-0.0060408292,-0.005424277,0.0,0.0,0.0,0.0
18796000,-0.003050817,0.00017661462,-0.0011049608,0.0,0.0,0.0,0.0
18828000,0.002060487,-0.003695184,0.008961003,0.0,0.0,0.0,0.0
18860000,0.0038026008,0.0062617073,0.00036987808,0.0,0.0,0.0,0.0
18896000,0.0029102291,-0.006627584,-0.008483819,0.0,0.0,0.0,0.0
18924000,-0.0020722141,0.0016685808,-0.0063577825,0.0,0.0,0.0,0.0
18956000,-0.0086673945,0.0013220995,0.00057678047,0.0,0.0,0.0,0.0
18988000,-0.0063646575,0.001658699,0.0062322677,0.0,0.0,0.0,0.0
19020000,-0.009480245,-0.0020152219,-0.008298103,0.0,0.0,0.0,0.0
19052000,-0.004440104,0.0048612584,0.0058680684,0.0,0.0,0.0,0.0
19084000,0.0030642091,-0.00087731145,-0.008662263,0.0,0.0,0.0,0.0
19116000,0.00793133,-0.005680698,0.0065128226,0.0,0.0,0.0,0.0
19148000,0.006051523,0.0029207962,-0.008696024,0.0,0.0,0.0,0.0
19180000,-0.0010248367,-0.0030827485,0.0026147736,0.0,0.0,0.0,0.0
19212000,-0.003589272,0.0042405394,0.0034836675,0.0,0.0,0.0,0.0
19244000,-0.006351198,-0.0059501748,0.010165699,0.0,0.0,0.0,0.0
19276000,0.0031414074,0.0061805635,0.0017030882,0.0,0.0,0.0,0.0
19308000,-0.0026332322,0.00447952,-0.0018566828,0.0,0.0,0.0,0.0
19340000,-0.00066445535,8.5313804e-05,-0.0023984918,0.0,0.0,0.0,0.0
19376000,-0.0025310484,-0.0010829112,0.0036232662,0.0,0.0,0.0,0.0
19404000,-0.0063623628,-0.0013590008,-0.004936114,0.0,0.0,0.0,0.0
19436000,-0.002653615,-0.007797183,-0.005308682,0.0,0.0,0.0,0.0
19468000,0.0019871835,-0.0016208775,-0.0025370119,0.0,0.0,0.0,0.0
19500000,-0.004793562,-0.00053198496,-0.0051175733,0.0,0.0,0.0,0.0
19532000,-0.007934812,0.0018954217,-0.00030693956,0.0,0.0,0.0,0.0
19564000,-0.009778553,0.0013166736,0.006387278,0.0,0.0,0.0,0.0
19596000,-0.0027519865,0.0010731532,0.0074821194,0.0,0.0,0.0,0.0
19628000,0.005431803,-0.006488033,0.008310033,0.0,0.0,0.0,0.0
19664000,-0.00019659044,0.0054852343,0.0010365064,0.0,0.0,0.0,0.0
19696000,0.007361791,-0.008691976,0.004104381,0.0,0.0,0.0,0.0
19724000,-0.0054025967,0.003506907,0.002934158,0.0,0.0,0.0,0.0
19760000,0.0031923815,-0.0029576882,-0.0017951817,0.0,0.0,0.0,0.0
19788000,-0.011711736,0.0026295702,0.0018529498,0.0,0.0,0.0,0.0
19820000,0.0030688117,0.0114396745,0.009228084,0.0,0.0,0.0,0.0
19852000,0.0009194748,0.0032540397,0.0074628317,0.0,0.0,0.0,0.0
19884000,0.0051419213,0.0001634811,0.012780016,0.0,0.0,0.0,0.0
19916000,0.002669747,0.017270252,0.0027270198,0.0,0.0,0.0,0.0
19948000,0.0018546646,-0.011818739,0.008384107,0.0,0.0,0.0,0.0
19980000,-0.0056285667,0.001944318,-0.0020010557,0.0,0.0,0.0,0.0
20012000,0.005944117,0.0030991288,0.0044323136,0.0,0.0,0.0,0.0
20048000,0.0035206992,-0.00109718,0.0037867813,0.0,0.0,0.0,0.0
20076000,0.0021117213,-3.5653356e-05,-0.0025932293,0.0,0.0,0.0,0.0
20108000,-0.0064802766,-5.2592717e-05,0.0022862365,0.0,0.0,0.0,0.0
20144000,0.0056507117,0.0121122,-0.0025364917,0.0,0.0,0.0,0.0
20176000,-0.01167041,0.0009754691,-0.004538336,0.0,0.0,0.0,0.0
20208000,-0.0036933958,0.003493994,0.0059126504,0.0,0.0,0.0,0.0
20236000,-4.198216e-05,0.0009653815,0.0045565865,0.0,0.0,0.0,0.0
20268000,0.0012689905,0.013010448,-0.008192084,0.0,0.0,0.0,0.0
20304000,-0.007204161,-0.0025712717,0.00039389968,0.0,0.0,0.0,0.0
20332000,-0.0031428486,-0.002239699,-0.0076863603,0.0,0.0,0.0,0.0
20368000,-0.01447738,0.008217385,0.0046647815,0.0,0.0,0.0,0.0
20400000,0.0052393153,-0.007438272,-0.006975778,0.0,0.0,0.0,0.0
20428000,0.0037116045,0.0007037469,-0.007394308,0.0,0.0,0.0,0.0
20464000,0.0041135,-0.00064906664,0.0021412119,0.0,0.0,0.0,0.0
20492000,0.0009954381,0.003078642,0.008373306,0.0,0.0,0.0,0.0
20524000,-0.007965247,-0.01332267,0.0018179783,0.0,0.0,0.0,0.0
20560000,0.0054705776,-0.007859999,-0.0020908515,0.0,0.0,0.0,0.0
20592000,-0.0134898685,0.004027021,0.00238619,0.0,0.0,0.0,0.0
20620000,-0.008023337,0.0059632803,-0.0034481825,0.0,0.0,0.0,0.0
20656000,0.00064644846,0.0008346918,-0.004890752,0.0,0.0,0.0,0.0
20684000,-0.0025489265,-0.002297055,0.0057271584,0.0,0.0,0.0,0.0
20716000,0.0026213774,0.001766589,-0.006051412,0.0,0.0,0.0,0.0
20748000,-0.0050366307,-0.0010586088,0.003602184,0.0,0.0,0.0,0.0
20780000,0.0044010375,0.0047038086,0.009402174,0.0,0.0,0.0,0.0
20812000,0.010350521,-0.009735525,0.0051251194,0.0,0.0,0.0,0.0
20844000,-0.009096761,-0.006921032,-0.00082035596,0.0,0.0,0.0,0.0
20876000,-0.00031975773,-0.0038717524,-0.00841897,0.0,0.0,0.0,0.0
20908000,-0.011369791,-0.00568827,-0.005972321,0.0,0.0,0.0,0.0
20940000,0.007051266,0.0037772935,-0.001134937,0.0,0.0,0.0,0.0
20976000,-0.0071920776,0.0017614602,0.00074583397,0.0,0.0,0.0,0.0
21004000,-0.0033058315,-0.00016997615,-0.0038077754,0.0,0.0,0.0,0.0
21036000,0.000919429,0.0052616894,-0.0012871353,0.0,0.0,0.0,0.0
21068000,0.0055440124,0.003228457,-0.0067208665,0.0,0.0,0.0,0.0
21100000,-0.009638333,-0.0070471955,0.002790471,0.0,0.0,0.0,0.0
21132000,0.0027967098,0.008013806,0.0020831784,0.0,0.0,0.0,0.0
21168000,-0.00013783935,-0.0015966096,0.0020345482,0.0,0.0,0.0,0.0
21196000,-0.011843164,0.0016522552,-0.0004381213,0.0,0.0,0.0,0.0
21228000,-0.0024901608,-0.0078101074,-0.00032571153,0.0,0.0,0.0,0.0
21260000,-0.0046272455,0.0018379493,-0.0019742912,0.0,0.0,0.0,0.0
21292000,-0.0001967412,-0.013443994,0.0011626449,0.0,0.0,0.0,0.0
21328000,-0.009050229,-0.0060424134,-0.0014011677,0.0,0.0,0.0,0.0
21360000,-0.0016117949,-0.0031547416,-0.002988742,0.0,0.0,0.0,0.0
21388000,-0.0017996482,-0.0032514166,-0.0056702616,0.0,0.0,0.0,0.0
21420000,0.0053198715,-0.006145735,-0.007387829,0.0,0.0,0.0,0.0
21452000,0.008097598,-0.0012622853,0.0041392115,0.0,0.0,0.0,0.0
21484000,0.0036220984,0.00056047784,-0.008867547,0.0,0.0,0.0,0.0
21516000,0.0002883739,-0.005098742,-0.003167701,0.0,0.0,0.0,0.0
21548000,-0.005117313,-0.0064487746,0.0034896457,0.0,0.0,0.0,0.0
21580000,0.004597271,0.002419071,-0.0036435989,0.0,0.0,0.0,0.0
21612000,0.006162976,0.00038630422,-0.0039113695,0.0,0.0,0.0,0.0
21644000,0.012610104,-0.00088943634,0.0054489197,0.0,0.0,0.0,0.0
21680000,0.005272657,0.003102524,0.009106543,0.0,0.0,0.0,0.0
21708000,-0.001115331,0.00012358837,-0.0022151866,0.0,0.0,0.0,0.0
21740000,-0.0027801953,-0.0024401573,-0.0004800761,0.0,0.0,0.0,0.0
21772000,0.008247924,0.007082909,0.002469283,0.0,0.0,0.0,0.0
21808000,0.0003236035,0.0012989161,-0.0016262641,0.0,0.0,0.0,0.0
21840000,-0.003775991,-0.0016366942,0.0026768823,0.0,0.0,0.0,0.0
21868000,-0.003965343,-0.004880435,0.0011028623,0.0,0.0,0.0,0.0
21900000,-0.00822641,-0.0012988425,-0.005947784,0.0,0.0,0.0,0.0
21936000,0.0011885134,-0.005307884,-0.0057833693,0.0,0.0,0.0,0.0
21964000,0.005489541,-0.0017844816,0.0024120663,0.0,0.0,0.0,0.0
22000000,-0.004771741,-0.0010109553,-0.0058392547,0.0,0.0,0.0,0.0
22028000,0.0029378477,-0.004266928,-0.007329278,0.0,0.0,0.0,0.0
22060000,0.0006647445,0.0074444395,-0.0027704423,0.0,0.0,0.0,0.0
22092000,-0.0007069303,0.0087106675,-0.0024818606,0.0,0.0,0.0,0.0
22128000,-0.003445814,0.002496231,-0.0035267477,0.0,0.0,0.0,0.0
22156000,-0.0025620433,-0.0026951302,0.0040060882,0.0,0.0,0.0,0.0
22192000,-0.0045571392,-0.0074971975,0.0023702919,0.0,0.0,0.0,0.0
22220000,-0.00029828085,-0.0073255743,0.002319859,0.0,0.0,0.0,0.0
22252000,0.0004512868,-0.002337202,0.0045597223,0.0,0.0,0.0,0.0
22284000,0.0006210248,0.010144646,-0.0046551507,0.0,0.0,0.0,0.0
22316000,0.009612153,-0.00038837967,-0.0012086572,0.0,0.0,0.0,0.0
22348000,0.0029523484,0.0023042671,0.0058731553,0.0,0.0,0.0,0.0
22380000,0.0044773505,-0.00786229,0.0010358079,0.0,0.0,0.0,0.0
22412000,-0.0062531913,-0.003897965,-0.003845051,0.0,0.0,0.0,0.0
22444000,-0.0018150848,0.0077476474,-0.0012151886,0.0,0.0,0.0,0.0
22476000,0.0046466505,0.0011471277,0.006467807,0.0,0.0,0.0,0.0
22512000,0.0030259069,-0.0031390255,-0.0021129844,0.0,0.0,0.0,0.0
22540000,-0.0022222386,-0.0055506295,0.0024271363,0.0,0.0,0.0,0.0
22572000,-0.001988552,0.009422729,-0.0059201014,0.0,0.0,0.0,0.0
22604000,-0.004106336,-0.00094870664,0.0011293542,0.0,0.0,0.0,0.0
22636000,-0.0012828226,0.0021952433,0.0057448423,0.0,0.0,0.0,0.0
22672000,-0.001911444,0.004671371,-0.0113326255,0.0,0.0,0.0,0.0
22704000,-0.0024255263,-0.009100844,0.006722826,0.0,0.0,0.0,0.0
22732000,0.004215989,-0.0095940195,-0.0046537914,0.0,0.0,0.0,0.0
22764000,-0.004172619,4.002545e-05,-0.0012319527,0.0,0.0,0.0,0.0
22796000,0.0052621914,0.005353218,0.005107376,0.0,0.0,0.0,0.0
22832000,0.00015503331,0.00018144725,-0.004266215,0.0,0.0,0.0,0.0
22864000,0.0021983995,-0.0034165978,0.006418507,0.0,0.0,0.0,0.0
22896000,0.0013225819,0.0077503165,0.000835778,0.0,0.0,0.0,0.0
22928000,0.009021614,-0.0028927666,-0.00914704,0.0,0.0,0.0,0.0
22956000,0.00266863,0.00080739753,-0.00060852885,0.0,0.0,0.0,0.0
22992000,0.003494816,0.004103513,-0.004649996,0.0,0.0,0.0,0.0
23024000,0.00062756013,-0.0058194376,-0.0017480843,0.0,0.0,0.0,0.0
23056000,-0.008730723,0.007008388,-0.0034699342,0.0,0.0,0.0,0.0
23088000,0.0019023234,0.0025614288,-0.0013166897,0.0,0.0,0.0,0.0
23116000,-0.010015533,0.00054437155,-0.0035536059,0.0,0.0,0.0,0.0
23148000,-0.00070303597,0.0006386866,-0.005160664,0.0,0.0,0.0,0.0
23184000,-0.005510296,-0.0035760747,-0.009870485,0.0,0.0,0.0,0.0
23216000,0.0015893567,-0.00016691722,-0.0020437706,0.0,0.0,0.0,0.0
23248000,0.000304894,0.0015834533,0.0027674118,0.0,0.0,0.0,0.0
23276000,0.0005294575,-0.00011404976,0.0030893658,0.0,0.0,0.0,0.0
23308000,-0.012666352,3.1961128e-05,-0.00078356557,0.0,0.0,0.0,0.0
23340000,-0.00024532864,-0.000112126116,-0.0009341674,0.0,0.0,0.0,0.0
23372000,0.00024992018,-0.00014329376,-0.009125158,0.0,0.0,0.0,0.0
23404000,-0.009351948,-0.0032556732,-0.002861363,0.0,0.0,0.0,0.0
23436000,-0.0065939757,0.008062772,0.007495898,0.0,0.0,0.0,0.0
23468000,0.003419444,-0.0010175849,-0.0029968275,0.0,0.0,0.0,0.0
23504000,-0.0053164093,0.010784667,-0.0020798112,0.0,0.0,0.0,0.0
23532000,-0.004364144,-0.0045744805,0.0070906556,0.0,0.0,0.0,0.0
23568000,0.007876495,-0.0007069763,-0.0011686194,0.0,0.0,0.0,0.0
23596000,-0.00655986,-0.0023198496,0.0006816222,0.0,0.0,0.0,0.0
23628000,-0.00045559125,0.0027968676,-0.008228584,0.0,0.0,0.0,0.0
23660000,0.0015040067,-0.0027383072,0.003987327,0.0,0.0,0.0,0.0
23692000,0.0076814964,-0.005829309,2.9299717e-05,0.0,0.0,0.0,0.0
23724000,-0.0023407687,0.0065813097,-0.0012725309,0.0,0.0,0.0,0.0
23756000,0.0039116647,0.011491833,0.0057818308,0.0,0.0,0.0,0.0
23788000,-0.002990936,-1.8300489e-05,-0.0016307717,0.0,0.0,0.0,0.0
23820000,0.002884286,0.003896731,0.006283102,0.0,0.0,0.0,0.0
23856000,0.0062015797,-0.002463093,0.0039648144,0.0,0.0,0.0,0.0
23888000,0.0006355696,-0.0064221714,-0.0105208615,0.0,0.0,0.0,0.0
23916000,0.016037514,0.006183263,-0.005693722,0.0,0.0,0.0,0.0
23948000,-0.0012078362,0.0020576206,0.0019915095,0.0,0.0,0.0,0.0
23980000,0.007328488,-0.0059215524,0.0019972345,0.0,0.0,0.0,0.0
24016000,0.0020666015,0.0066621453,-0.004569751,0.0,0.0,0.0,0.0
24044000,-0.0008273674,0.0033591222,-0.0048567792,0.0,0.0,0.0,0.0
24076000,-0.005396404,0.0031988365,-0.0018726318,0.0,0.0,0.0,0.0
24108000,0.013782526,0.0006372994,0.00077519676,0.0,0.0,0.0,0.0
24144000,-0.0039543137,0.0018725679,-0.0024266553,0.0,0.0,0.0,0.0
24172000,-0.0021378165,-0.0063105067,0.008743328,0.0,0.0,0.0,0.0
24204000,0.0001954775,-0.0011228696,-0.007605803,0.0,0.0,0.0,0.0
24236000,0.0006479709,-0.007598495,0.001358719,0.0,0.0,0.0,0.0
24268000,0.002932408,-0.0035413462,-0.0029078869,0.0,0.0,0.0,0.0
24304000,0.005667948,-0.006115912,-0.0009943934,0.0,0.0,0.0,0.0
24336000,0.0030144271,-0.0023791199,-0.0017580386,0.0,0.0,0.0,0.0
24368000,0.005452976,0.006418472,0.0017812459,0.0,0.0,0.0,0.0
24400000,0.0041523697,0.0009748037,0.008523372,0.0,0.0,0.0,0.0
24428000,-0.0061758645,0.0064480207,0.0012627988,0.0,0.0,0.0,0.0
24460000,0.0029536327,-0.0031466028,0.0016264123,0.0,0.0,0.0,0.0
24492000,-0.0051327464,-0.006759484,0.00044654612,0.0,0.0,0.0,0.0
24524000,-0.006074881,-0.009010722,-0.0004005598,0.0,0.0,0.0,0.0
24560000,-0.004159725,0.007860571,-0.0006532388,0.0,0.0,0.0,0.0
24588000,-0.0033586957,0.0021094156,-0.0011413158,0.0,0.0,0.0,0.0
24620000,-0.001588956,0.0035797397,0.0019900368,0.0,0.0,0.0,0.0
24652000,-0.009820618,-0.00395194,0.00034507556,0.0,0.0,0.0,0.0
24684000,0.00025174476,-0.0011456502,0.0008857263,0.0,0.0,0.0,0.0
24716000,0.007230451,-0.0006170217,0.005952451,0.0,0.0,0.0,0.0
24748000,-0.004538883,-0.00034191413,-0.0031648267,0.0,0.0,0.0,0.0
24780000,-0.0083073415,-0.0014078105,0.00066634803,0.0,0.0,0.0,0.0
24812000,-0.0015481852,-0.0011158399,0.0041519543,0.0,0.0,0.0,0.0
24848000,0.009242105,0.0015901891,0.013390518,0.0,0.0,0.0,0.0
24876000,0.0029269662,0.00254059,-0.0020656849,0.0,0.0,0.0,0.0
24908000,0.006052489,-0.0018230309,0.002054787,0.0,0.0,0.0,0.0
24944000,-0.0032215333,0.0046200417,0.003815023,0.0,0.0,0.0,0.0
24972000,-0.0045770835,-0.0062925983,-0.0007977998,0.0,0.0,0.0,0.0
25008000,-0.0059960578,-0.004139419,0.0022883776,0.0,0.0,0.0,0.0
25036000,0.0030799212,0.0013753171,0.0069099944,0.0,0.0,0.0,0.0
25068000,-0.009461902,-0.0039647203,-0.0067746774,0.0,0.0,0.0,0.0
25104000,-0.005649125,-0.0028462359,0.005315315,0.0,0.0,0.0,0.0
25132000,-0.0021387152,-0.00077177864,-0.000541294,0.0,0.0,0.0,0.0
25164000,-0.0027060225,-0.002791253,-0.0026609607,0.0,0.0,0.0,0.0
25196000,2.344686e-05,-0.003319169,-0.00010676622,0.0,0.0,0.0,0.0
25228000,0.0026851317,-0.0043055383,-0.0017231574,0.0,0.0,0.0,0.0
25264000,0.0022515098,0.0030216083,5.162866e-05,0.0,0.0,0.0,0.0
25292000,0.003668691,-0.0038219108,-0.008284761,0.0,0.0,0.0,0.0
25328000,0.0012000169,-0.001640392,-0.00013092367,0.0,0.0,0.0,0.0
25356000,0.0023331756,0.009139741,-0.0054760748,0.0,0.0,0.0,0.0
25388000,-0.004234668,-0.00026922114,0.009441861,0.0,0.0,0.0,0.0
25420000,-0.00029310083,0.0002545002,0.009895628,0.0,0.0,0.0,0.0
25452000,-0.00078305136,0.0060999985,0.0043585827,0.0,0.0,0.0,0.0
25484000,1.2810924e-05,-0.006077394,-0.003454389,0.0,0.0,0.0,0.0
25516000,0.0027132672,-0.0014771889,-0.00046317608,0.0,0.0,0.0,0.0
25548000,-0.008309165,0.006905976,-7.908429e-05,0.0,0.0,0.0,0.0
25580000,-0.009494664,-0.0021023164,-0.0021505044,0.0,0.0,0.0,0.0
25612000,-0.0020598094,0.0031568236,-0.0017693045,0.0,0.0,0.0,0.0
25644000,-0.0034260475,-0.0018844218,-0.011809256,0.0,0.0,0.0,0.0
25676000,-0.0011764461,0.00297556,-0.0054388363,0.0,0.0,0.0,0.0
25708000,0.0018038233,0.0025750422,-0.0043391725,0.0,0.0,0.0,0.0
25740000,-0.0015612714,0.0032756813,-0.0074347425,0.0,0.0,0.0,0.0
25772000,9.523856e-05,-0.004962644,-0.0030407566,0.0,0.0,0.0,0.0
25808000,0.0012889167,0.0017751744,0.009230899,0.0,0.0,0.0,0.0
25840000,-0.0034927563,-0.0052076746,0.002375844,0.0,0.0,0.0,0.0
25868000,0.0014605,0.005769591,0.0057295463,0.0,0.0,0.0,0.0
25900000,0.00844245,0.009293427,-0.0041548847,0.0,0.0,0.0,0.0
25932000,-0.0015791006,0.0021574637,-0.0006904644,0.0,0.0,0.0,0.0
25964000,0.012501141,0.0073030135,-0.0049405023,0.0,0.0,0.0,0.0
25996000,0.000915739,-0.00037315767,-0.00056158914,0.0,0.0,0.0,0.0
26028000,0.0039342926,-0.0009181816,-0.010613051,0.0,0.0,0.0,0.0
26064000,0.0023480812,-0.002171232,0.0075413184,0.0,0.0,0.0,0.0
26092000,0.003260584,0.010776074,-0.00074509473,0.0,0.0,0.0,0.0
26124000,-0.0024423883,-0.0041220696,-0.0004298515,0.0,0.0,0.0,0.0
26156000,-0.0068834256,0.0045397477,0.0019214925,0.0,0.0,0.0,0.0
26188000,0.0032582493,-0.0043884614,-0.0011721004,0.0,0.0,0.0,0.0
26220000,-0.0007746704,0.0021103777,1.8951774e-05,0.0,0.0,0.0,0.0
26256000,0.0044571282,0.006386349,-0.002849858,0.0,0.0,0.0,0.0
26284000,-0.0050966647,-0.0005639759,-0.010667666,0.0,0.0,0.0,0.0
26316000,0.0027683263,-0.00031361543,-0.016658382,0.0,0.0,0.0,0.0
26348000,-0.010431042,-0.0051562306,-0.0035369382,0.0,0.0,0.0,0.0
26380000,-0.0060913647,0.0065778,-0.008100551,0.0,0.0,0.0,0.0
26416000,0.004127517,0.010619171,0.0030721596,0.0,0.0,0.0,0.0
26444000,0.0010134048,-0.00057657296,-0.0040873755,0.0,0.0,0.0,0.0
26476000,-0.0028659948,0.002781017,0.003486593,0.0,0.0,0.0,0.0
26508000,0.005922905,0.012250758,-0.0077604116,0.0,0.0,0.0,0.0
26540000,0.010844564,0.0032525773,0.009438824,0.0,0.0,0.0,0.0
26572000,0.003566081,-0.005037893,0.0041983663,0.0,0.0,0.0,0.0
26604000,-0.001907687,0.008142419,0.0027903738,0.0,0.0,0.0,0.0
26636000,0.0022629104,0.0076813903,-0.001714722,0.0,0.0,0.0,0.0
26668000,-0.0051792823,-0.00062688533,0.003852654,0.0,0.0,0.0,0.0
26700000,-0.0027474663,0.002290527,-0.0002840339,0.0,0.0,0.0,0.0
26736000,-0.008629325,0.0012576906,0.0020872934,0.0,0.0,0.0,0.0
26764000,0.00020577712,0.008201122,-0.0016914468,0.0,0.0,0.0,0.0
26796000,0.0027227048,-0.00029362738,-0.0024688474,0.0,0.0,0.0,0.0
26832000,-0.0033955146,-0.0035711327,0.0025933983,0.0,0.0,0.0,0.0
26860000,0.004862841,-0.0019847476,-0.0031834159,0.0,0.0,0.0,0.0
26892000,4.078611e-06,-0.0018230383,0.0026271194,0.0,0.0,0.0,0.0
26924000,-0.0027101133,-0.0044663455,0.007480406,0.0,0.0,0.0,0.0
26956000,-0.011496456,0.012218101,-0.0036051706,0.0,0.0,0.0,0.0
26992000,-0.010149246,0.0011151913,-0.0027945656,0.0,0.0,0.0,0.0
27020000,0.004341383,-0.005874353,-0.0026930016,0.0,0.0,0.0,0.0
27052000,-0.00056972913,-0.0012166081,-0.0024568199,0.0,0.0,0.0,0.0
27084000,0.0067302925,0.0021602511,0.0021587277,0.0,0.0,0.0,0.0
27116000,-0.0059818206,-0.00052833464,0.0021829514,0.0,0.0,0.0,0.0
27148000,0.0060234987,0.00942854,0.0035427962,0.0,0.0,0.0,0.0
27180000,-0.002132535,-0.0026063505,-0.00048906845,0.0,0.0,0.0,0.0
27212000,0.0041270694,-0.008762376,0.0029671323,0.0,0.0,0.0,0.0
27244000,-0.004395116,-0.00062745577,-0.0034050315,0.0,0.0,0.0,0.0
27276000,0.007946058,0.000793403,0.0020447993,0.0,0.0,0.0,0.0
27308000,-0.004032136,0.00029270165,0.0007677536,0.0,0.0,0.0,0.0
27344000,-0.0060685836,0.009515443,-0.0011359594,0.0,0.0,0.0,0.0
27376000,0.002698595,-0.007139898,0.009643443,0.0,0.0,0.0,0.0
27404000,0.0016437405,-0.002940468,-0.0014907393,0.0,0.0,0.0,0.0
27440000,0.0065368675,-0.009914899,0.0010850189,0.0,0.0,0.0,0.0
27472000,0.0091852425,-0.011897472,0.0017919943,0.0,0.0,0.0,0.0
27500000,-0.011495026,-0.0063945004,-0.0020199,0.0,0.0,0.0,0.0
27532000,0.0019733787,0.008388328,0.00374158,0.0,0.0,0.0,0.0
27564000,0.0002302631,0.0033959646,-0.0027694686,0.0,0.0,0.0,0.0
27596000,0.0063785953,-0.0035668556,-0.005708815,0.0,0.0,0.0,0.0
27628000,-0.011224973,-0.010975622,0.003765628,0.0,0.0,0.0,0.0
27664000,0.0013600369,-0.00069583487,0.0012035634,0.0,0.0,0.0,0.0
27696000,0.007073867,-0.003038173,-0.0024547456,0.0,0.0,0.0,0.0
27728000,0.0064669917,-0.0005402826,0.0028414628,0.0,0.0,0.0,0.0
27756000,-0.0003102991,-0.006167379,0.0012411331,0.0,0.0,0.0,0.0
27788000,0.0008607107,0.0058079013,-0.0033819668,0.0,0.0,0.0,0.0
27824000,-0.0025182508,-0.0004485445,-0.00025692393,0.0,0.0,0.0,0.0
27852000,0.0015368895,0.006058098,0.01008653,0.0,0.0,0.0,0.0
27884000,-0.0044390047,0.005514729,-0.0075724735,0.0,0.0,0.0,0.0
27916000,0.0010959888,0.0038185164,-0.005517255,0.0,0.0,0.0,0.0
27948000,0.0005927677,0.0038515276,-0.0022131237,0.0,0.0,0.0,0.0
27980000,-0.009058678,-0.0042958288,-0.0032478939,0.0,0.0,0.0,0.0
28012000,-0.007259015,-0.005330573,-0.0029606002,0.0,0.0,0.0,0.0
28044000,0.004721458,0.004183692,0.0021574823,0.0,0.0,0.0,0.0
28076000,-0.0028297142,-0.0030185687,-0.0037385935,0.0,0.0,0.0,0.0
28108000,0.00096701505,-0.00011792779,0.0057363124,0.0,0.0,0.0,0.0
28140000,0.0066858227,-0.0056170984,-0.0028163325,0.0,0.0,0.0,0.0
28172000,-0.0039973576,-0.007756413,-0.002286443,0.0,0.0,0.0,0.0
28204000,-0.008070426,0.010590291,6.880297e-05,0.0,0.0,0.0,0.0
28236000,0.0031999422,0.008018801,0.0047806287,0.0,0.0,0.0,0.0
28272000,-0.0029118704,-0.0012514838,-0.0014552377,0.0,0.0,0.0,0.0
28300000,0.001276965,0.0033525717,-0.0015860779,0.0,0.0,0.0,0.0
28332000,-0.008498278,0.0034374732,0.0020684688,0.0,0.0,0.0,0.0
28364000,0.0021259007,0.0030999207,0.0051413137,0.0,0.0,0.0,0.0
28396000,0.0083711725,-0.0042047873,0.005664133,0.0,0.0,0.0,0.0
28428000,0.0018223114,0.0014565554,0.006836265,0.0,0.0,0.0,0.0
28460000,-0.0018969163,0.004035657,-0.0008892574,0.0,0.0,0.0,0.0
28492000,0.0039477376,-0.0009525041,0.00087753765,0.0,0.0,0.0,0.0
28524000,-0.0041246144,-0.014679542,0.004663457,0.0,0.0,0.0,0.0
28556000,0.001003283,-0.007681561,-0.007101989,0.0,0.0,0.0,0.0
28588000,9.539549e-05,0.007185283,-0.0027762172,0.0,0.0,0.0,0.0
28624000,0.00012034597,0.003337101,-0.0011683687,0.0,0.0,0.0,0.0
28656000,-0.00044343586,-0.0021946244,-0.0023317607,0.0,0.0,0.0,0.0
28688000,-0.006710523,0.003175653,0.00683849,0.0,0.0,0.0,0.0
28716000,0.0008593486,0.002623935,-0.004865841,0.0,0.0,0.0,0.0
28748000,0.006729492,0.0049052173,-0.002368181,0.0,0.0,0.0,0.0
28780000,0.0026976326,0.0019610617,-0.0063998606,0.0,0.0,0.0,0.0
28816000,-0.0058104154,0.003913554,0.003864231,0.0,0.0,0.0,0.0
28844000,-0.0024885777,0.0048203603,6.494735e-05,0.0,0.0,0.0,0.0
28880000,0.0029871615,-0.0015688855,-0.007595687,0.0,0.0,0.0,0.0
28908000,-0.0029386794,0.002550723,-0.0028819686,0.0,0.0,0.0,0.0
28940000,-0.007169804,-0.0065521006,-0.0017000339,0.0,0.0,0.0,0.0
28972000,-0.0064997226,0.0028618341,-0.013322938,0.0,0.0,0.0,0.0
29004000,0.0029353322,0.005388485,0.009213935,0.0,0.0,0.0,0.0
29036000,-0.0041219792,0.002533189,-0.0060116756,0.0,0.0,0.0,0.0
29068000,0.000909047,-0.0034784195,-0.00027388774,0.0,0.0,0.0,0.0
29100000,0.004071934,0.00271321,-0.004671182,0.0,0.0,0.0,0.0
29132000,-0.0021106852,-0.0050563267,0.012030627,0.0,0.0,0.0,0.0
29164000,0.0070159207,0.006254878,0.0045417887,0.0,0.0,0.0,0.0
29196000,0.002990447,-0.009123787,-0.0014791486,0.0,0.0,0.0,0.0
29228000,-0.00015578733,-0.0010205032,0.011862109,0.0,0.0,0.0,0.0
29260000,0.0029399758,0.005987993,-0.008191422,0.0,0.0,0.0,0.0
29292000,-0.0045866724,0.0046058465,-0.0046219965,0.0,0.0,0.0,0.0
29324000,0.004214775,0.0013008718,0.0032904774,0.0,0.0,0.0,0.0
29356000,-0.0061119907,0.018084776,0.0055956338,0.0,0.0,0.0,0.0
29392000,-0.0051506497,-0.0074052257,-0.0071299598,0.0,0.0,0.0,0.0
29424000,-0.00046465627,-0.0073248153,0.0035274995,0.0,0.0,0.0,0.0
29452000,0.0057406235,-0.0006893538,-0.004613327,0.0,0.0,0.0,0.0
29484000,0.007596095,0.0030193147,0.0040607015,0.0,0.0,0.0,0.0
29516000,-0.00510685,-0.010598573,0.00443701,0.0,0.0,0.0,0.0
29548000,0.004236649,0.00121882,-0.007120287,0.0,0.0,0.0,0.0
29580000,-0.0006987025,-0.0018334002,0.0027550987,0.0,0.0,0.0,0.0
29612000,-0.0013000476,0.009689378,0.009487693,0.0,0.0,0.0,0.0
29644000,0.0034926415,0.005371205,-0.0024518415,0.0,0.0,0.0,0.0
29680000,-0.0021374351,-0.005023512,-0.0062603657,0.0,0.0,0.0,0.0
29708000,-0.00030701398,0.001592549,0.00043319335,0.0,0.0,0.0,0.0
29740000,0.008106539,-0.0004410497,-0.009744435,0.0,0.0,0.0,0.0
29772000,-0.006137439,-0.004829058,0.0040944065,0.0,0.0,0.0,0.0
29808000,0.001762029,0.007972747,0.0013653585,0.0,0.0,0.0,0.0
29836000,0.0024749737,0.008813759,-0.008889545,0.0,0.0,0.0,0.0
29868000,-0.0006370705,-0.0058305184,-0.00026653626,0.0,0.0,0.0,0.0
29900000,0.0046068057,-0.0047684684,-0.0011571203,0.0,0.0,0.0,0.0
29932000,-0.0047149058,0.0070666177,-0.0032745488,0.0,0.0,0.0,0.0
29968000,-0.005950761,0.000939921,-0.0013905283,0.0,0.0,0.0,0.0
29996000,0.0012883141,0.007299767,0.00763178,0.0,0.0,0.0,0.0
30028000,-0.0092472825,-0.0035869628,-0.008346027,0.0,0.0,0.0,0.0
30060000,-0.0041004517,-0.004053136,-0.008643853,0.0,0.0,0.0,0.0
30092000,-0.0028366009,0.0014279289,-0.0019334302,0.0,0.0,0.0,0.0
30124000,0.0068852925,0.003681868,-0.010770402,0.0,0.0,0.0,0.0
30156000,-0.0044062138,-0.004734127,0.0097208675,0.0,0.0,0.0,0.0
30188000,0.004458977,0.004643535,-0.0035052453,0.0,0.0,0.0,0.0
30220000,0.0010746875,-0.00013848674,0.003289966,0.0,0.0,0.0,0.0
30256000,0.0022318908,-0.0016594012,0.0075316364,0.0,0.0,0.0,0.0
30288000,-0.0010848457,0.0030361905,0.0013317517,0.0,0.0,0.0,0.0
30316000,5.0791074e-05,-0.0035774554,0.009495587,0.0,0.0,0.0,0.0
30348000,-0.0012978552,0.0005348781,0.0074305953,0.0,0.0,0.0,0.0
30380000,-0.00016018935,-0.0067337016,0.0014117629,0.0,0.0,0.0,0.0
30416000,0.0018065749,0.0022841718,-0.0003769821,0.0,0.0,0.0,0.0
30444000,-0.008976096,-0.005152767,-0.0073116436,0.0,0.0,0.0,0.0
30476000,-0.00411746,-0.0007421472,0.0014946905,0.0,0.0,0.0,0.0
30508000,-0.007573311,0.0039864746,-0.0025299643,0.0,0.0,0.0,0.0
30544000,0.009546114,0.0011279914,0.002666431,0.0,0.0,0.0,0.0
30576000,-0.001440315,-0.0040670526,0.0001232608,0.0,0.0,0.0,0.0
30604000,0.002413345,0.0024006525,0.0011258333,0.0,0.0,0.0,0.0
30636000,-0.0009920785,0.0129446825,-0.0043918295,0.0,0.0,0.0,0.0
30668000,-0.0035322816,0.011848494,0.001542834,0.0,0.0,0.0,0.0
30700000,-0.010517505,-0.0025760545,-0.0113177085,0.0,0.0,0.0,0.0
30732000,0.0009354396,-0.00409826,0.012798729,0.0,0.0,0.0,0.0
30768000,-0.005470449,-0.0027303798,0.006111367,0.0,0.0,0.0,0.0
30796000,-0.0027442547,0.00748514,0.001240508,0.0,0.0,0.0,0.0
30828000,0.0039595887,0.0050109,-0.0026920685,0.0,0.0,0.0,0.0
30864000,-0.01066446,-0.0052151987,0.006464412,0.0,0.0,0.0,0.0
30892000,0.004027942,0.007761684,-0.006883652,0.0,0.0,0.0,0.0
30928000,0.008413377,-0.0011813366,-0.005539024,0.0,0.0,0.0,0.0
30956000,0.0012342894,-0.0018223124,-0.006384518,0.0,0.0,0.0,0.0
30988000,-0.0023643565,-0.0029724329,-0.007048181,0.0,0.0,0.0,0.0
31024000,0.0016810347,0.011544194,-0.004381664,0.0,0.0,0.0,0.0
31052000,-0.0059386594,-0.0044556977,-0.0016212924,0.0,0.0,0.0,0.0
31084000,0.00058821845,0.001711674,0.0040708594,0.0,0.0,0.0,0.0
31120000,-0.002604459,0.0021575291,-0.002876533,0.0,0.0,0.0,0.0
31148000,-0.0020771478,0.0009570429,0.00036701525,0.0,0.0,0.0,0.0
31180000,-0.0046805195,0.0053623524,-0.0018271512,0.0,0.0,0.0,0.0
31212000,-0.00784125,0.0032889752,0.0060716234,0.0,0.0,0.0,0.0
31244000,0.0022133093,-0.0041007954,-0.006176505,0.0,0.0,0.0,0.0
31276000,0.0023544207,-0.0014075376,0.0022035544,0.0,0.0,0.0,0.0
31308000,0.0018151447,0.0008306559,-0.0072819917,0.0,0.0,0.0,0.0
31340000,-0.0076281023,-0.0031624096,0.0049784547,0.0,0.0,0.0,0.0
31372000,0.006646397,0.0018042633,-0.00627239,0.0,0.0,0.0,0.0
31408000,0.0017286118,0.006735269,0.008538098,0.0,0.0,0.0,0.0
31436000,0.006559875,0.004431479,0.003754087,0.0,0.0,0.0,0.0
31468000,-0.0040725977,0.0010630512,-0.008095428,0.0,0.0,0.0,0.0
31504000,0.004633433,-0.0043167206,-0.012328592,0.0,0.0,0.0,0.0
31532000,-0.009739167,0.013099818,0.011103364,0.0,0.0,0.0,0.0
31564000,-0.00044954976,0.00434062,0.0023994069,0.0,0.0,0.0,0.0
31600000,0.0035728333,-0.0028188,0.0046622013,0.0,0.0,0.0,0.0
31628000,-0.0042384225,-0.0079635205,0.0036330442,0.0,0.0,0.0,0.0
31660000,-0.001262313,-0.0016087401,0.003100409,0.0,0.0,0.0,0.0
