timestamp,roll,pitch,yaw,thrust_body[0],thrust_body[1],thrust_body[2]
2012000,0.12539124,0.13520318,0.000659287,0.0,0.0,-0.08
2048000,0.1254208,0.13598573,0.0006632209,0.0,0.0,-0.08
2080000,0.12601662,0.13759457,0.00067448616,0.0,0.0,-0.08
2112000,0.1264006,0.13923624,0.00068467855,0.0,0.0,-0.08
2144000,0.1270521,0.1413071,0.0006980896,0.0,0.0,-0.08
2180000,0.1276969,0.14340162,0.0007122159,0.0,0.0,-0.08
2212000,0.12799643,0.14431663,0.0007184744,0.0,0.0,-0.08
2236000,0.12851764,0.14544427,0.00072705746,0.0,0.0,-0.08
2272000,0.12871158,0.14693922,0.0007354617,0.0,0.0,-0.08
2300000,0.12880698,0.14879315,0.00074511766,0.0,0.0,-0.08
2336000,0.12877862,0.15019743,0.0007522702,0.0,0.0,-0.08
2368000,0.12993294,0.15148205,0.00076550245,0.0,0.0,-0.08
2400000,0.13088688,0.1525543,0.0007764101,0.0,0.0,-0.08
2432000,0.13056415,0.15360133,0.0007801652,0.0,0.0,-0.08
2464000,0.13042453,0.15443969,0.00078320503,0.0,0.0,-0.08
2496000,0.13115323,0.15599352,0.000795722,0.0,0.0,-0.08
2528000,0.13119194,0.15768397,0.0008044839,0.0,0.0,-0.08
2564000,0.13074335,0.15858419,0.00080627203,0.0,0.0,-0.08
2592000,0.13081816,0.15993741,0.0008137822,0.0,0.0,-0.08
2624000,0.13098046,0.16072236,0.0008186102,0.0,0.0,-0.08
2652000,0.13087326,0.16130318,0.0008209348,0.0,0.0,-0.08
2688000,0.13111588,0.16252512,0.0008289814,0.0,0.0,-0.08
2720000,0.13146007,0.16324529,0.00083452463,0.0,0.0,-0.08
2748000,0.13186644,0.16332941,0.0008379221,0.0,0.0,-0.08
2784000,0.13140172,0.16411375,0.000838995,0.0,0.0,-0.08
2816000,0.13153458,0.16544276,0.00084650517,0.0,0.0,-0.08
2848000,0.13177973,0.1664829,0.0008534789,0.0,0.0,-0.08
2884000,0.13247587,0.16799985,0.0008659959,0.0,0.0,-0.08
2912000,0.13292852,0.16855991,0.0008715391,0.0,0.0,-0.08
2944000,0.13345447,0.1696884,0.00088101625,0.0,0.0,-0.08
2976000,0.13370219,0.17064181,0.0008878112,0.0,0.0,-0.08
3008000,0.13425827,0.17165676,0.0008967519,0.0,0.0,-0.08
3040000,0.13496594,0.17262064,0.00090640783,0.0,0.0,-0.08
3072000,0.13573077,0.1733786,0.00091552734,0.0,0.0,-0.08
3104000,0.13562502,0.17476477,0.00092178583,0.0,0.0,-0.08
3140000,0.13589656,0.17595544,0.0009301901,0.0,0.0,-0.08
3164000,0.13590553,0.17690916,0.0009351969,0.0,0.0,-0.08
3200000,0.13602406,0.17818879,0.0009428859,0.0,0.0,-0.08
3232000,0.13634868,0.17912051,0.00095003843,0.0,0.0,-0.08
3268000,0.13693218,0.18027985,0.000960052,0.0,0.0,-0.08
3296000,0.13774301,0.18151629,0.000972569,0.0,0.0,-0.08
3328000,0.1381911,0.18243185,0.0009807944,0.0,0.0,-0.08
3364000,0.13853559,0.183214,0.0009874105,0.0,0.0,-0.08
3396000,0.13905105,0.1848521,0.0009997487,0.0,0.0,-0.08
3424000,0.13931946,0.18585916,0.0010072589,0.0,0.0,-0.08
3460000,0.13925144,0.18779725,0.0010170937,0.0,0.0,-0.08
3492000,0.1391336,0.18963543,0.0010260344,0.0,0.0,-0.08
3520000,0.13935494,0.19093372,0.001034975,0.0,0.0,-0.08
3552000,0.1397903,0.19153526,0.0010415912,0.0,0.0,-0.08
3580000,0.14020772,0.19242905,0.001049459,0.0,0.0,-0.08
3616000,0.1409527,0.19375737,0.0010623336,0.0,0.0,-0.08
3648000,0.14117932,0.19485804,0.0010703802,0.0,0.0,-0.08
3680000,0.14128742,0.19599344,0.001077354,0.0,0.0,-0.08
3716000,0.14135146,0.19695443,0.0010828972,0.0,0.0,-0.08
3744000,0.14084849,0.1980317,0.001085043,0.0,0.0,-0.08
3772000,0.1411936,0.19910479,0.001093626,0.0,0.0,-0.08
3808000,0.14144965,0.20027032,0.0011022091,0.0,0.0,-0.08
3840000,0.14156757,0.20103778,0.0011070371,0.0,0.0,-0.08
3872000,0.14202388,0.2021757,0.0011172295,0.0,0.0,-0.08
3904000,0.14286396,0.20251748,0.0011254549,0.0,0.0,-0.08
3936000,0.14336744,0.20313156,0.0011327863,0.0,0.0,-0.08
3968000,0.14342111,0.20400654,0.0011383295,0.0,0.0,-0.08
3999999,0.1438522,0.20463961,0.0011451244,0.0,0.0,-0.08
4031999,0.1438021,0.2054737,0.0011495948,0.0,0.0,-0.08
4063999,0.14394185,0.20601828,0.0011537075,0.0,0.0,-0.08
4095999,0.14344765,0.20704573,0.0011553168,0.0,0.0,-0.08
4124000,0.14326814,0.2077121,0.0011578202,0.0,0.0,-0.08
4159999,0.14312308,0.20879303,0.0011624694,0.0,0.0,-0.08
4192000,0.14354688,0.2090517,0.0011674762,0.0,0.0,-0.08
4224000,0.14400908,0.20970409,0.0011748075,0.0,0.0,-0.08
4256000,0.14433011,0.2104054,0.0011812449,0.0,0.0,-0.08
4284000,0.14429083,0.21055561,0.0011816025,0.0,0.0,-0.08
4320000,0.14398089,0.2106007,0.0011796355,0.0,0.0,-0.08
4352000,0.14411698,0.21125673,0.0011842847,0.0,0.0,-0.08
4384000,0.14434643,0.21211019,0.0011909008,0.0,0.0,-0.08
4416000,0.14448693,0.21243352,0.0011937618,0.0,0.0,-0.08
4444000,0.14435363,0.21334402,0.0011980534,0.0,0.0,-0.08
4480000,0.14504047,0.21339992,0.0012039542,0.0,0.0,-0.08
4512000,0.14508533,0.21334296,0.001204133,0.0,0.0,-0.08
4544000,0.14528297,0.2132563,0.0012048483,0.0,0.0,-0.08
4576000,0.1450472,0.21307965,0.0012021661,0.0,0.0,-0.08
4608000,0.14406902,0.21309082,0.0011942983,0.0,0.0,-0.08
4640000,0.14358307,0.21330234,0.0011916161,0.0,0.0,-0.08
4672000,0.14279023,0.21320564,0.0011846423,0.0,0.0,-0.08
4704000,0.14262103,0.2133215,0.0011835694,0.0,0.0,-0.08
4736000,0.14200827,0.2136333,0.001180172,0.0,0.0,-0.08
4768000,0.14212444,0.21314496,0.0011783838,0.0,0.0,-0.08
4804000,0.14214091,0.21272427,0.0011762381,0.0,0.0,-0.08
4828000,0.14172253,0.21249974,0.0011714101,0.0,0.0,-0.08
4864000,0.14139625,0.21190484,0.0011655092,0.0,0.0,-0.08
4896000,0.14070746,0.21198191,0.0011605024,0.0,0.0,-0.08
4932000,0.14087582,0.21154061,0.0011592507,0.0,0.0,-0.08
4960000,0.14088853,0.21132421,0.0011581779,0.0,0.0,-0.08
4996000,0.14094397,0.21173018,0.0011606812,0.0,0.0,-0.08
5024000,0.1407474,0.21190153,0.0011603236,0.0,0.0,-0.08
5052000,0.14106962,0.21168521,0.0011617541,0.0,0.0,-0.08
5088000,0.1403243,0.2118884,0.0011565685,0.0,0.0,-0.08
5120000,0.13983503,0.21175167,0.0011519194,0.0,0.0,-0.08
5152000,0.1397678,0.21162462,0.0011508465,0.0,0.0,-0.08
5180000,0.13935903,0.21171305,0.0011479855,0.0,0.0,-0.08
5220000,0.1389853,0.21175633,0.001144588,0.0,0.0,-0.08
5252000,0.1388464,0.21156695,0.0011429787,0.0,0.0,-0.08
5280000,0.13931665,0.21145684,0.0011458397,0.0,0.0,-0.08
5308000,0.13925436,0.21089295,0.0011424422,0.0,0.0,-0.08
5344000,0.13879934,0.21043006,0.0011361837,0.0,0.0,-0.08
5380000,0.13843203,0.20981106,0.0011297464,0.0,0.0,-0.08
5408000,0.13839433,0.20985064,0.0011297464,0.0,0.0,-0.08
5444000,0.13874668,0.20933586,0.0011297464,0.0,0.0,-0.08
5472000,0.13891748,0.20898649,0.0011295676,0.0,0.0,-0.08
5504000,0.13893975,0.20786268,0.0011231303,0.0,0.0,-0.08
5536000,0.13911192,0.20792204,0.0011252761,0.0,0.0,-0.08
5568000,0.13904345,0.20758757,0.0011227727,0.0,0.0,-0.08
5600000,0.1392349,0.2075653,0.0011242032,0.0,0.0,-0.08
5628000,0.13898715,0.20743002,0.0011216998,0.0,0.0,-0.08
5664000,0.13823894,0.20782596,0.0011177659,0.0,0.0,-0.08
5696000,0.13796866,0.20721088,0.0011120439,0.0,0.0,-0.08
5728000,0.1376487,0.20652428,0.0011057854,0.0,0.0,-0.08
5760000,0.13812375,0.20614086,0.0011075735,0.0,0.0,-0.08
5792000,0.13812065,0.20557395,0.0011045337,0.0,0.0,-0.08
5824000,0.13794115,0.20548488,0.0011025667,0.0,0.0,-0.08
5856000,0.13725306,0.2051034,0.0010950565,0.0,0.0,-0.08
5888000,0.13739678,0.20496851,0.001095593,0.0,0.0,-0.08
5920000,0.13697357,0.20457087,0.0010902286,0.0,0.0,-0.08
5952000,0.13691461,0.20358172,0.0010843277,0.0,0.0,-0.08
5984000,0.136727,0.20311739,0.0010803938,0.0,0.0,-0.08
6016000,0.13622704,0.2032308,0.0010768175,0.0,0.0,-0.08
6048000,0.13555466,0.20245269,0.001067698,0.0,0.0,-0.08
6080000,0.13466856,0.20275426,0.0010623336,0.0,0.0,-0.08
6116000,0.13449314,0.20234875,0.0010585785,0.0,0.0,-0.08
6144000,0.13427442,0.20233345,0.001057148,0.0,0.0,-0.08
6176000,0.13395433,0.20151624,0.0010499954,0.0,0.0,-0.08
6212000,0.13350749,0.20144789,0.0010462403,0.0,0.0,-0.08
6240000,0.1329585,0.2007414,0.0010381937,0.0,0.0,-0.08
6272000,0.13307506,0.19952627,0.0010328293,0.0,0.0,-0.08
6304000,0.13278732,0.19911955,0.0010283589,0.0,0.0,-0.08
6336000,0.13195339,0.19863105,0.0010197759,0.0,0.0,-0.08
6368000,0.13084088,0.1976303,0.0010056496,0.0,0.0,-0.08
6400000,0.13053128,0.1967821,0.0009990335,0.0,0.0,-0.08
6432000,0.12981682,0.19649348,0.0009922385,0.0,0.0,-0.08
6464000,0.12902647,0.19599566,0.0009838343,0.0,0.0,-0.08
6496000,0.12880062,0.19515339,0.0009777546,0.0,0.0,-0.08
6528000,0.12781604,0.19499025,0.00096952915,0.0,0.0,-0.08
6560000,0.12735738,0.19407472,0.0009613037,0.0,0.0,-0.08
6588000,0.1268588,0.19314456,0.00095307827,0.0,0.0,-0.08
6624000,0.12638299,0.1923837,0.0009455681,0.0,0.0,-0.08
6652000,0.1256912,0.19175762,0.00093734264,0.0,0.0,-0.08
6692000,0.1252195,0.19109929,0.00093090534,0.0,0.0,-0.08
6720000,0.12538333,0.19092666,0.00093108416,0.0,0.0,-0.08
6752000,0.12518367,0.19039047,0.00092697144,0.0,0.0,-0.08
6788000,0.12502104,0.18939981,0.0009212494,0.0,0.0,-0.08
6812000,0.1243437,0.18886873,0.0009135604,0.0,0.0,-0.08
6852000,0.124336794,0.187985,0.00090944767,0.0,0.0,-0.08
6876000,0.12453681,0.18736109,0.0009074807,0.0,0.0,-0.08
6908000,0.12407083,0.18651763,0.000900507,0.0,0.0,-0.08
6940000,0.12338423,0.18541686,0.00088995695,0.0,0.0,-0.08
6976000,0.12349854,0.18479446,0.00088745356,0.0,0.0,-0.08
7012000,0.123153776,0.18327704,0.00087815523,0.0,0.0,-0.08
7040000,0.12309178,0.18278003,0.0008751154,0.0,0.0,-0.08
7072000,0.12157215,0.18228823,0.0008622408,0.0,0.0,-0.08
7104000,0.120907925,0.18104021,0.00085133314,0.0,0.0,-0.08
7136000,0.12037314,0.18019423,0.00084364414,0.0,0.0,-0.08
7168000,0.12056494,0.1798725,0.0008434653,0.0,0.0,-0.08
7204000,0.12062871,0.17941529,0.000841856,0.0,0.0,-0.08
7232000,0.12082295,0.17939094,0.0008429289,0.0,0.0,-0.08
7264000,0.120214894,0.17916471,0.0008377433,0.0,0.0,-0.08
7296000,0.12073463,0.17868668,0.0008393526,0.0,0.0,-0.08
7328000,0.12102053,0.17756335,0.00083595514,0.0,0.0,-0.08
7360000,0.12048359,0.17646706,0.00082683563,0.0,0.0,-0.08
7392000,0.12033112,0.17577164,0.0008229017,0.0,0.0,-0.08
7424000,0.12060784,0.17531869,0.0008227229,0.0,0.0,-0.08
7452000,0.120295614,0.17401764,0.00081413984,0.0,0.0,-0.08
7492000,0.120607525,0.17272528,0.00081020594,0.0,0.0,-0.08
7520000,0.1207697,0.17269047,0.0008112788,0.0,0.0,-0.08
7552000,0.12057379,0.17139097,0.00080376863,0.0,0.0,-0.08
7588000,0.12058951,0.17108206,0.0008023381,0.0,0.0,-0.08
7616000,0.119770855,0.16980238,0.00079107285,0.0,0.0,-0.08
7648000,0.119490154,0.16894057,0.000785172,0.0,0.0,-0.08
7680000,0.119411185,0.16812047,0.00078070164,0.0,0.0,-0.08
7712000,0.11927549,0.1674337,0.00077676773,0.0,0.0,-0.08
7748000,0.11891389,0.16678873,0.0007714033,0.0,0.0,-0.08
7776000,0.119268134,0.16633771,0.0007715821,0.0,0.0,-0.08
7812000,0.11936176,0.16534972,0.0007676482,0.0,0.0,-0.08
7840000,0.11933932,0.16439831,0.00076299906,0.0,0.0,-0.08
7868000,0.11933141,0.16326788,0.00075763464,0.0,0.0,-0.08
7904000,0.11909144,0.1625329,0.00075280666,0.0,0.0,-0.08
7940000,0.119128145,0.161237,0.0007469058,0.0,0.0,-0.08
7968000,0.118809186,0.16104193,0.0007444024,0.0,0.0,-0.08
8003999,0.11893275,0.15967873,0.0007388592,0.0,0.0,-0.08
8028000,0.118994884,0.15880477,0.00073492527,0.0,0.0,-0.08
8064000,0.119046494,0.15770385,0.0007304549,0.0,0.0,-0.08
8092000,0.11948627,0.15732045,0.00073081255,0.0,0.0,-0.08
8128000,0.11897486,0.1561048,0.0007224083,0.0,0.0,-0.08
8160000,0.11815949,0.1550268,0.00071275234,0.0,0.0,-0.08
8192000,0.11746594,0.1544233,0.000705421,0.0,0.0,-0.08
8224000,0.11727819,0.15420426,0.0007032752,0.0,0.0,-0.08
8252000,0.117186785,0.15310371,0.0006979108,0.0,0.0,-0.08
8288000,0.117356546,0.15208192,0.0006943345,0.0,0.0,-0.08
8323999,0.11710147,0.1509357,0.00068718195,0.0,0.0,-0.08
8348000,0.11686928,0.15033272,0.00068324804,0.0,0.0,-0.08
8388000,0.116585635,0.1494961,0.00067806244,0.0,0.0,-0.08
8416000,0.11605536,0.14891519,0.0006723404,0.0,0.0,-0.08
8448000,0.11636587,0.14912751,0.0006748438,0.0,0.0,-0.08
8476000,0.116216436,0.14893994,0.00067323446,0.0,0.0,-0.08
8512000,0.11630646,0.14800368,0.000669837,0.0,0.0,-0.08
8544000,0.11635527,0.14769164,0.0006682277,0.0,0.0,-0.08
8576000,0.116328344,0.1469643,0.000665009,0.0,0.0,-0.08
8608000,0.11666867,0.14611322,0.00066304207,0.0,0.0,-0.08
8640000,0.116748445,0.14601271,0.0006632209,0.0,0.0,-0.08
8672000,0.11654775,0.14492233,0.0006569624,0.0,0.0,-0.08
8708000,0.11605123,0.14486837,0.0006541014,0.0,0.0,-0.08
8736000,0.1165357,0.144591,0.00065535307,0.0,0.0,-0.08
8772000,0.11647096,0.14402726,0.00065249205,0.0,0.0,-0.08
8804000,0.11634786,0.14350891,0.0006494522,0.0,0.0,-0.08
8828000,0.11696185,0.14262874,0.00064891577,0.0,0.0,-0.08
8864000,0.1168983,0.1420269,0.00064587593,0.0,0.0,-0.08
8896000,0.11705607,0.14142564,0.00064373016,0.0,0.0,-0.08
8928000,0.11711828,0.14028782,0.000639081,0.0,0.0,-0.08
8964000,0.11784569,0.14073287,0.00064480305,0.0,0.0,-0.08
8992000,0.11762676,0.14091633,0.0006444454,0.0,0.0,-0.08
9024000,0.117881544,0.1402843,0.0006431937,0.0,0.0,-0.08
9060000,0.117535606,0.1399772,0.00063979626,0.0,0.0,-0.08
9092000,0.11688703,0.14002489,0.0006367564,0.0,0.0,-0.08
9124000,0.11714715,0.13961568,0.00063622,0.0,0.0,-0.08
9152000,0.1173438,0.13958089,0.00063693523,0.0,0.0,-0.08
9188000,0.117599286,0.13993438,0.0006399751,0.0,0.0,-0.08
9220000,0.117673,0.13882543,0.0006355047,0.0,0.0,-0.08
9244000,0.117759146,0.13791223,0.00063192844,0.0,0.0,-0.08
9280000,0.1177682,0.13779959,0.0006310344,0.0,0.0,-0.08
9312000,0.11753002,0.13730896,0.0006278157,0.0,0.0,-0.08
9344000,0.117269754,0.13664438,0.00062316656,0.0,0.0,-0.08
9376000,0.116885774,0.1365201,0.00062066317,0.0,0.0,-0.08
9408000,0.11659467,0.13655925,0.00061941147,0.0,0.0,-0.08
9436000,0.11687681,0.13570394,0.0006169081,0.0,0.0,-0.08
9472000,0.11759353,0.13474214,0.00061637163,0.0,0.0,-0.08
9504000,0.11805527,0.13402635,0.00061547756,0.0,0.0,-0.08
9536000,0.118107334,0.13331053,0.00061261654,0.0,0.0,-0.08
9568000,0.11804636,0.13332549,0.0006124377,0.0,0.0,-0.08
9600000,0.11827022,0.13333946,0.0006135106,0.0,0.0,-0.08
9632000,0.11861725,0.13266908,0.0006122589,0.0,0.0,-0.08
9664000,0.11856419,0.1324323,0.0006106496,0.0,0.0,-0.08
9700000,0.11838589,0.13201398,0.00060778856,0.0,0.0,-0.08
9728000,0.11795287,0.13168597,0.0006042123,0.0,0.0,-0.08
9760000,0.11802486,0.1317715,0.00060492754,0.0,0.0,-0.08
9792000,0.11792466,0.13159306,0.00060367584,0.0,0.0,-0.08
9824000,0.11818388,0.13189054,0.0006058216,0.0,0.0,-0.08
9852000,0.118263796,0.13181034,0.00060617924,0.0,0.0,-0.08
9892000,0.11854056,0.13178533,0.00060743093,0.0,0.0,-0.08
9916000,0.11872697,0.13176297,0.0006085038,0.0,0.0,-0.08
9956000,0.11926972,0.13171582,0.0006108284,0.0,0.0,-0.08
9984000,0.11988735,0.131684,0.00061422586,0.0,0.0,-0.08
10020000,0.120079145,0.13085374,0.0006110072,0.0,0.0,-0.08
10048000,0.12036717,0.13074544,0.0006122589,0.0,0.0,-0.08
10080000,0.12006983,0.13052374,0.0006093979,0.0,0.0,-0.08
10112000,0.12067328,0.12934996,0.00060743093,0.0,0.0,-0.08
10144000,0.1208845,0.12858154,0.0006045699,0.0,0.0,-0.08
10176000,0.12132384,0.12876129,0.00060778856,0.0,0.0,-0.08
10212000,0.12181907,0.12856668,0.00060904026,0.0,0.0,-0.08
10240000,0.12196498,0.12797594,0.0006070733,0.0,0.0,-0.08
10272000,0.12176894,0.12775564,0.00060492754,0.0,0.0,-0.08
10304000,0.12169103,0.12718272,0.0006020665,0.0,0.0,-0.08
10332000,0.122066416,0.12749039,0.00060510635,0.0,0.0,-0.08
10368000,0.12259052,0.12721679,0.00060653687,0.0,0.0,-0.08
10400000,0.12241237,0.12759839,0.00060778856,0.0,0.0,-0.08
10428000,0.12205766,0.1278426,0.0006070733,0.0,0.0,-0.08
10468000,0.122296855,0.12762961,0.0006072521,0.0,0.0,-0.08
10496000,0.122907236,0.1275309,0.0006093979,0.0,0.0,-0.08
10528000,0.122293904,0.12657815,0.0006020665,0.0,0.0,-0.08
10560000,0.121927075,0.12600288,0.00059759617,0.0,0.0,-0.08
10592000,0.12209956,0.12527211,0.00059491396,0.0,0.0,-0.08
10620000,0.12196107,0.12521273,0.0005941987,0.0,0.0,-0.08
10652000,0.1215703,0.12542166,0.000592947,0.0,0.0,-0.08
10688000,0.12179703,0.12550366,0.00059455633,0.0,0.0,-0.08
10720000,0.122027054,0.1253067,0.0005950928,0.0,0.0,-0.08
10748000,0.12256767,0.12534073,0.000597775,0.0,0.0,-0.08
10784000,0.1224145,0.12565902,0.0005983114,0.0,0.0,-0.08
10812000,0.122365326,0.12577829,0.00059884787,0.0,0.0,-0.08
10848000,0.12248698,0.12513046,0.0005963445,0.0,0.0,-0.08
10880000,0.12346423,0.12516513,0.00060099363,0.0,0.0,-0.08
10912000,0.12419618,0.12542821,0.0006060004,0.0,0.0,-0.08
10944000,0.123952724,0.12546617,0.0006047487,0.0,0.0,-0.08
10980000,0.12418482,0.12482404,0.0006031394,0.0,0.0,-0.08
11008000,0.12466335,0.124268755,0.00060260296,0.0,0.0,-0.08
11040000,0.12468521,0.123962164,0.00060099363,0.0,0.0,-0.08
11076000,0.12493265,0.123231634,0.00059866905,0.0,0.0,-0.08
11104000,0.12468916,0.12301968,0.0005967021,0.0,0.0,-0.08
11136000,0.12514162,0.12246638,0.00059616566,0.0,0.0,-0.08
11168000,0.12503013,0.12245728,0.0005956292,0.0,0.0,-0.08
11200000,0.1250616,0.12267198,0.0005967021,0.0,0.0,-0.08
11232000,0.12544324,0.12295329,0.00059992075,0.0,0.0,-0.08
11268000,0.12588397,0.12316549,0.0006031394,0.0,0.0,-0.08
11300000,0.12613142,0.12278134,0.00060224533,0.0,0.0,-0.08
11328000,0.12677628,0.12209715,0.0006020665,0.0,0.0,-0.08
11356000,0.12717867,0.12201913,0.0006033182,0.0,0.0,-0.08
11388000,0.1267279,0.122144535,0.0006018877,0.0,0.0,-0.08
11424000,0.12658769,0.12180357,0.00059974194,0.0,0.0,-0.08
11452000,0.12650281,0.12182251,0.0005992055,0.0,0.0,-0.08
11488000,0.12681201,0.1216532,0.0006002784,0.0,0.0,-0.08
11524000,0.12734427,0.12166324,0.0006027818,0.0,0.0,-0.08
11552000,0.12767659,0.12146699,0.0006031394,0.0,0.0,-0.08
11584000,0.12707716,0.12097995,0.0005979538,0.0,0.0,-0.08
11620000,0.12733082,0.12026386,0.0005954504,0.0,0.0,-0.08
11648000,0.12757154,0.12058606,0.0005983114,0.0,0.0,-0.08
11684000,0.12704259,0.120040275,0.00059330463,0.0,0.0,-0.08
11712000,0.12703237,0.12014224,0.00059366226,0.0,0.0,-0.08
11744000,0.1269555,0.120355055,0.00059455633,0.0,0.0,-0.08
11776000,0.12629049,0.12045378,0.0005916953,0.0,0.0,-0.08
11808000,0.12636355,0.11958723,0.0005877614,0.0,0.0,-0.08
11840000,0.12602329,0.11965287,0.0005865097,0.0,0.0,-0.08
11876000,0.12565818,0.11977859,0.0005854368,0.0,0.0,-0.08
11908000,0.12553445,0.119823486,0.0005850792,0.0,0.0,-0.08
11936000,0.12571043,0.119723395,0.0005854368,0.0,0.0,-0.08
11968000,0.12527126,0.1202701,0.00058597326,0.0,0.0,-0.08
12004000,0.1254262,0.120566145,0.00058811903,0.0,0.0,-0.08
12032000,0.12525609,0.12139609,0.0005915165,0.0,0.0,-0.08
12064000,0.12518474,0.1215792,0.00059205294,0.0,0.0,-0.08
12092000,0.1254615,0.122357786,0.0005968809,0.0,0.0,-0.08
12128000,0.12527509,0.12241311,0.0005965233,0.0,0.0,-0.08
12160000,0.1256019,0.12285137,0.0006002784,0.0,0.0,-0.08
12196000,0.12516081,0.12288867,0.0005983114,0.0,0.0,-0.08
12224000,0.12524733,0.12307325,0.00059974194,0.0,0.0,-0.08
12256000,0.12522092,0.123612,0.0006018877,0.0,0.0,-0.08
12284000,0.12550251,0.12418355,0.00060635805,0.0,0.0,-0.08
12320000,0.12635782,0.123662904,0.00060778856,0.0,0.0,-0.08
12352000,0.12646781,0.12342285,0.0006072521,0.0,0.0,-0.08
12384000,0.127059,0.12348955,0.0009203553,0.0,0.0,-0.08
12416000,0.12663643,0.12357603,0.0014812946,0.0,0.0,-0.08
12448000,0.12648699,0.123255566,0.002089262,0.0,0.0,-0.08
12484000,0.12679496,0.123371914,0.0022915006,0.0,0.0,-0.08
12512000,0.12714471,0.123952776,0.0023970008,0.0,0.0,-0.08
12544000,0.12740684,0.1238337,0.0026046038,0.0,0.0,-0.08
12576000,0.12711903,0.12438282,0.0027478337,0.0,0.0,-0.08
12608000,0.12692991,0.12445751,0.0022493005,0.0,0.0,-0.08
12640000,0.12661417,0.12416882,0.002476573,0.0,0.0,-0.08
12672000,0.12625478,0.124549404,0.0022412539,0.0,0.0,-0.08
12704000,0.12594599,0.12486204,0.002045095,0.0,0.0,-0.08
12732000,0.12542668,0.12451974,0.001711607,0.0,0.0,-0.08
12764000,0.12530798,0.12435179,0.0016357899,0.0,0.0,-0.08
12800000,0.12539895,0.124360055,0.0016225576,0.0,0.0,-0.08
12832000,0.12590463,0.12439341,0.0012731552,0.0,0.0,-0.08
12864000,0.12615025,0.12413311,0.0010092258,0.0,0.0,-0.08
12896000,0.12637162,0.12412967,0.000849545,0.0,0.0,-0.08
12932000,0.12551105,0.12408442,0.0005815029,0.0,0.0,-0.08
12964000,0.12549041,0.124301866,0.00037640333,0.0,0.0,-0.08
12992000,0.12526083,0.124117345,0.0002834201,0.0,0.0,-0.08
13024000,0.12590098,0.12396984,0.00022512674,0.0,0.0,-0.08
13056000,0.12592377,0.1235305,2.1994114e-05,0.0,0.0,-0.08
13088000,0.12601417,0.124056615,-3.5583973e-05,0.0,0.0,-0.08
13124000,0.1262418,0.12391882,0.0001385808,0.0,0.0,-0.08
13152000,0.12676542,0.12402591,0.00033187866,0.0,0.0,-0.08
13184000,0.12686545,0.12357138,8.779764e-05,0.0,0.0,-0.08
13220000,0.12696643,0.12335636,0.00027662516,0.0,0.0,-0.08
13252000,0.12743035,0.12351034,0.00056129694,0.0,0.0,-0.08
13280000,0.1279076,0.1235393,0.000600636,0.0,0.0,-0.08
13312000,0.12764744,0.1237127,0.00061154366,0.0,0.0,-0.08
13340000,0.12769228,0.12436471,0.00064104795,0.0,0.0,-0.08
13380000,0.12767033,0.12447732,0.0005913377,0.0,0.0,-0.08
13408000,0.12721813,0.124162115,0.000641942,0.0,0.0,-0.08
13440000,0.12675203,0.12441911,0.000682354,0.0,0.0,-0.08
13476000,0.12608664,0.12461123,0.0010714531,0.0,0.0,-0.08
13504000,0.1260729,0.12472006,0.0011537075,0.0,0.0,-0.08
13536000,0.12610912,0.12456113,0.0009650588,0.0,0.0,-0.08
13568000,0.12633255,0.12467813,0.0011742711,0.0,0.0,-0.08
13604000,0.1270537,0.12465274,0.0014274716,0.0,0.0,-0.08
13632000,0.12703177,0.124473006,0.0013064146,0.0,0.0,-0.08
13664000,0.12654318,0.124745935,0.0014474988,0.0,0.0,-0.08
13700000,0.12713908,0.12460548,0.0014419556,0.0,0.0,-0.08
13728000,0.12740186,0.124761865,0.0013709664,0.0,0.0,-0.08
13756000,0.12692451,0.124819934,0.0010269284,0.0,0.0,-0.08
13796000,0.12732977,0.12439403,0.0006787777,0.0,0.0,-0.08
13824000,0.12678671,0.12453646,0.0003848076,0.0,0.0,-0.08
13856000,0.12732434,0.124465026,0.00014126301,0.0,0.0,-0.08
13888000,0.12717733,0.12403731,-0.00015753508,0.0,0.0,-0.08
13920000,0.12673075,0.12412573,-0.00025445223,0.0,0.0,-0.08
13952000,0.12669316,0.12432256,-0.00033527613,0.0,0.0,-0.08
13988000,0.12655926,0.124476135,-0.00044238567,0.0,0.0,-0.08
14020000,0.12615165,0.12444727,-0.0005657673,0.0,0.0,-0.08
14048000,0.12703323,0.124360636,-0.0004066229,0.0,0.0,-0.08
14084000,0.12742803,0.12358537,-0.00054448843,0.0,0.0,-0.08
14112000,0.12711272,0.12300673,-0.00042933226,0.0,0.0,-0.08
14148000,0.12781613,0.1227442,-0.0005223155,0.0,0.0,-0.08
14176000,0.12734106,0.122706935,-0.00059741735,0.0,0.0,-0.08
14212000,0.12728062,0.122523546,-0.0004760027,0.0,0.0,-0.08
14240000,0.12760402,0.1227857,-0.0003849864,0.0,0.0,-0.08
14272000,0.12729762,0.122259535,-0.00014948845,0.0,0.0,-0.08
14304000,0.12757069,0.122419745,-0.00011998415,0.0,0.0,-0.08
14336000,0.12723729,0.12208311,-0.00010710955,0.0,0.0,-0.08
14368000,0.12735963,0.12118922,-0.00010603666,0.0,0.0,-0.08
14400000,0.1273109,0.12098433,-1.1622906e-05,0.0,0.0,-0.08
14436000,0.12711102,0.1210742,0.00015646219,0.0,0.0,-0.08
14460000,0.12703668,0.12145199,4.2021275e-05,0.0,0.0,-0.08
14496000,0.12704492,0.12106064,1.1444092e-05,0.0,0.0,-0.08
14532000,0.12630577,0.1208917,0.000344038,0.0,0.0,-0.08
14560000,0.1266376,0.12056328,0.0002603531,0.0,0.0,-0.08
14592000,0.12703085,0.12044132,0.00057417154,0.0,0.0,-0.08
14624000,0.12724844,0.12061848,0.0006245971,0.0,0.0,-0.08
14656000,0.12636554,0.120547414,0.0009262562,0.0,0.0,-0.08
14688000,0.12670258,0.12150207,0.0011419058,0.0,0.0,-0.08
14724000,0.12642339,0.12138616,0.0013979673,0.0,0.0,-0.08
14756000,0.12632345,0.12143049,0.0013289452,0.0,0.0,-0.08
14784000,0.12677038,0.12156159,0.0015467405,0.0,0.0,-0.08
14816000,0.12641823,0.121553406,0.0016515255,0.0,0.0,-0.08
14844000,0.1266096,0.12145072,0.0015245676,0.0,0.0,-0.08
14884000,0.12637925,0.12142949,0.001313746,0.0,0.0,-0.08
14908000,0.12636983,0.12085491,0.0012556314,0.0,0.0,-0.08
14944000,0.12632573,0.12066197,0.001280129,0.0,0.0,-0.08
14976000,0.1254845,0.120254755,0.0011537075,0.0,0.0,-0.08
15012000,0.12517338,0.11988537,0.0014167428,0.0,0.0,-0.08
15040000,0.124880224,0.12042727,0.0014002919,0.0,0.0,-0.08
15076000,0.12501012,0.119995356,0.001345396,0.0,0.0,-0.08
15104000,0.125229,0.11996843,0.0013239384,0.0,0.0,-0.08
15136000,0.12469369,0.11975853,0.0012350678,0.0,0.0,-0.08
15164000,0.124096975,0.11989423,0.0010221004,0.0,0.0,-0.08
15204000,0.12434474,0.11945346,0.0009031892,0.0,0.0,-0.08
15236000,0.123888716,0.11909632,0.00065767765,0.0,0.0,-0.08
15264000,0.124396294,0.11864378,0.0005162358,0.0,0.0,-0.08
15300000,0.12392548,0.117892146,0.00049316883,0.0,0.0,-0.08
15332000,0.12391351,0.11782451,0.00027269125,0.0,0.0,-0.08
15364000,0.12389134,0.11725858,0.00032168627,0.0,0.0,-0.08
15396000,0.12406904,0.11715663,0.0002834201,0.0,0.0,-0.08
15424000,0.123934574,0.11744604,0.00010496378,0.0,0.0,-0.08
15456000,0.12400426,0.11675213,0.00021743774,0.0,0.0,-0.08
15492000,0.12396891,0.116520494,0.00014519691,0.0,0.0,-0.08
15520000,0.123687945,0.11644929,-1.7523766e-05,0.0,0.0,-0.08
15552000,0.12374548,0.116138846,-0.00015699863,0.0,0.0,-0.08
15584000,0.12328159,0.116039515,-0.00013554096,0.0,0.0,-0.08
15616000,0.123041555,0.11607188,-3.916025e-05,0.0,0.0,-0.08
15652000,0.12325459,0.11537969,-0.00024855137,0.0,0.0,-0.08
15680000,0.1237816,0.115237154,-0.00054484606,0.0,0.0,-0.08
15716000,0.12423909,0.11482787,-0.00092482567,0.0,0.0,-0.08
15744000,0.124319285,0.11495593,-0.0011256337,0.0,0.0,-0.08
15776000,0.12428348,0.11430473,-0.0011680126,0.0,0.0,-0.08
15808000,0.1244492,0.11391112,-0.0010358691,0.0,0.0,-0.08
15840000,0.12445395,0.11346376,-0.0013427138,0.0,0.0,-0.08
15872000,0.1248209,0.11300653,-0.001417458,0.0,0.0,-0.08
15904000,0.12539536,0.11288762,-0.0014138818,0.0,0.0,-0.08
15940000,0.12466799,0.113027416,-0.0013158917,0.0,0.0,-0.08
15972000,0.1257036,0.11252003,-0.001719296,0.0,0.0,-0.08
16004000,0.12573503,0.11278963,-0.0015776753,0.0,0.0,-0.08
16036000,0.12580541,0.11293158,-0.0015869737,0.0,0.0,-0.08
16068000,0.12624466,0.11310283,-0.0015236735,0.0,0.0,-0.08
16100000,0.12617017,0.112986416,-0.0018029809,0.0,0.0,-0.08
16128000,0.12592387,0.11226076,-0.0018813014,0.0,0.0,-0.08
16160000,0.12565044,0.11240823,-0.0019308329,0.0,0.0,-0.08
16192000,0.12490629,0.11214581,-0.001999855,0.0,0.0,-0.08
16224000,0.1253913,0.112173826,-0.0021259189,0.0,0.0,-0.08
16260000,0.12572685,0.11166538,-0.0020973086,0.0,0.0,-0.08
16288000,0.1255323,0.111357346,-0.0022137165,0.0,0.0,-0.08
16324000,0.12560494,0.11167035,-0.002234459,0.0,0.0,-0.08
16352000,0.12548223,0.11184493,-0.002112329,0.0,0.0,-0.08
16384000,0.12489087,0.112194076,-0.0020384789,0.0,0.0,-0.08
16416000,0.12494244,0.11212684,-0.0019133091,0.0,0.0,-0.08
16452000,0.12564175,0.11263062,-0.0018630624,0.0,0.0,-0.08
16484000,0.12592697,0.1123777,-0.0016515255,0.0,0.0,-0.08
16511999,0.1261477,0.11210693,-0.0014539361,0.0,0.0,-0.08
16548000,0.12648927,0.112571016,-0.0011832118,0.0,0.0,-0.08
16575999,0.1267617,0.11206258,-0.0012609959,0.0,0.0,-0.08
16607999,0.12701699,0.11238663,-0.001180172,0.0,0.0,-0.08
16636000,0.12775221,0.11232166,-0.0012289882,0.0,0.0,-0.08
16671999,0.12740147,0.112295136,-0.0014455318,0.0,0.0,-0.08
16703999,0.12797284,0.11226245,-0.0015764236,0.0,0.0,-0.08
16735999,0.1280832,0.11190966,-0.0017850995,0.0,0.0,-0.08
16767999,0.12835857,0.111868456,-0.0016543865,0.0,0.0,-0.08
16804000,0.12856369,0.111575186,-0.0016161203,0.0,0.0,-0.08
16836000,0.12826464,0.11186356,-0.0016041398,0.0,0.0,-0.08
16864000,0.12844677,0.111650094,-0.0018122792,0.0,0.0,-0.08
16896000,0.12861924,0.111537606,-0.0020207763,0.0,0.0,-0.08
16924000,0.12841685,0.11134677,-0.0019708872,0.0,0.0,-0.08
16960000,0.12827444,0.11099781,-0.001839459,0.0,0.0,-0.08
16996000,0.12832126,0.111832716,-0.0018042326,0.0,0.0,-0.08
17028000,0.1282811,0.11216715,-0.001816392,0.0,0.0,-0.08
17056000,0.1284491,0.11192231,-0.0014830828,0.0,0.0,-0.08
17088000,0.12920363,0.11129244,-0.0016794205,0.0,0.0,-0.08
17124000,0.1295057,0.11152153,-0.0016323924,0.0,0.0,-0.08
17152000,0.12983584,0.111444086,-0.0015708804,0.0,0.0,-0.08
17184000,0.12958248,0.11171815,-0.0017353892,0.0,0.0,-0.08
17216000,0.12959805,0.11179513,-0.0015386939,0.0,0.0,-0.08
17252000,0.12868896,0.11144926,-0.0013141036,0.0,0.0,-0.08
17280000,0.12815307,0.11152059,-0.0012545586,0.0,0.0,-0.08
17316000,0.12733245,0.11155406,-0.00097596645,0.0,0.0,-0.08
17348000,0.12728742,0.112115026,-0.000631392,0.0,0.0,-0.08
17372000,0.12693655,0.11222826,-0.00038927794,0.0,0.0,-0.08
17412000,0.12663668,0.111643374,-0.0003633499,0.0,0.0,-0.08
17440000,0.12671189,0.111608036,-0.00024729967,0.0,0.0,-0.08
17472000,0.12659149,0.11172144,-0.00021153688,0.0,0.0,-0.08
17504000,0.12629442,0.11157966,-0.00018972158,0.0,0.0,-0.08
17536000,0.12652415,0.11091656,-0.00025177002,0.0,0.0,-0.08
17572000,0.12645634,0.11039762,-0.00044184923,0.0,0.0,-0.08
17604000,0.12623006,0.11011256,-0.0007878542,0.0,0.0,-0.08
17628000,0.12581632,0.10994685,-0.000911057,0.0,0.0,-0.08
17664000,0.12552086,0.10981905,-0.0011882186,0.0,0.0,-0.08
17696000,0.12577608,0.109251894,-0.0011712313,0.0,0.0,-0.08
17728000,0.12576075,0.108472556,-0.0012288094,0.0,0.0,-0.08
17764000,0.12640622,0.1088575,-0.0013318062,0.0,0.0,-0.08
17796000,0.12700045,0.10926092,-0.0014380217,0.0,0.0,-0.08
17828000,0.12736544,0.10928339,-0.0016052127,0.0,0.0,-0.08
17852000,0.1272462,0.10938531,-0.0016681552,0.0,0.0,-0.08
17888000,0.12704852,0.109447256,-0.0017073154,0.0,0.0,-0.08
17916000,0.1268031,0.1090828,-0.0015512109,0.0,0.0,-0.08
17952000,0.12772934,0.10891332,-0.0017411113,0.0,0.0,-0.08
17984000,0.12751642,0.1088689,-0.0017967224,0.0,0.0,-0.08
18016000,0.12733561,0.10851006,-0.0020052195,0.0,0.0,-0.08
18048000,0.12659657,0.10837489,-0.0018196106,0.0,0.0,-0.08
18080000,0.12606235,0.10815889,-0.0017244816,0.0,0.0,-0.08
18112000,0.12626342,0.108215615,-0.0015855432,0.0,0.0,-0.08
18144000,0.12581646,0.108746156,-0.0017790198,0.0,0.0,-0.08
18176000,0.12587436,0.10924318,-0.001785636,0.0,0.0,-0.08
18208000,0.12591349,0.109126315,-0.001440525,0.0,0.0,-0.08
18244000,0.12645613,0.10892632,-0.001716435,0.0,0.0,-0.08
18272000,0.12701142,0.10907197,-0.0018335581,0.0,0.0,-0.08
18304000,0.12697557,0.108748175,-0.0017951131,0.0,0.0,-0.08
18332000,0.1273574,0.10844164,-0.0016415119,0.0,0.0,-0.08
18372000,0.12723371,0.108370855,-0.0016762018,0.0,0.0,-0.08
18404000,0.1275259,0.10799515,-0.0015769601,0.0,0.0,-0.08
18432000,0.12754783,0.10823078,-0.0017697215,0.0,0.0,-0.08
18464000,0.12786597,0.107646905,-0.0018051267,0.0,0.0,-0.08
18496000,0.1282503,0.10718116,-0.001760602,0.0,0.0,-0.08
18528000,0.12799415,0.1073866,-0.0016445518,0.0,0.0,-0.08
18564000,0.12810108,0.10717428,-0.0018471479,0.0,0.0,-0.08
18596000,0.12818648,0.10746246,-0.0015900135,0.0,0.0,-0.08
18624000,0.12793359,0.1076549,-0.0013523698,0.0,0.0,-0.08
18656000,0.12789078,0.1074259,-0.0014614463,0.0,0.0,-0.08
18688000,0.12847105,0.10699953,-0.0011179447,0.0,0.0,-0.08
18720000,0.12807015,0.10706813,-0.0010433793,0.0,0.0,-0.08
18756000,0.12814066,0.10698581,-0.0011218786,0.0,0.0,-0.08
18784000,0.12804428,0.10754578,-0.0013470054,0.0,0.0,-0.08
18816000,0.12848662,0.10717997,-0.0013546944,0.0,0.0,-0.08
18852000,0.12848806,0.107619524,-0.0014646649,0.0,0.0,-0.08
18880000,0.12809126,0.10733952,-0.0015467405,0.0,0.0,-0.08
18912000,0.12860142,0.107095405,-0.0016316772,0.0,0.0,-0.08
18944000,0.12876536,0.10641453,-0.0012130737,0.0,0.0,-0.08
18976000,0.12886909,0.10611394,-0.001141727,0.0,0.0,-0.08
19008000,0.128694,0.10572099,-0.0010970235,0.0,0.0,-0.08
19040000,0.12869632,0.10552691,-0.0007055998,0.0,0.0,-0.08
19076000,0.12933245,0.10542543,-0.00072312355,0.0,0.0,-0.08
19104000,0.12911528,0.10531039,-0.00047188997,0.0,0.0,-0.08
19136000,0.12907982,0.10574835,-0.00067162514,0.0,0.0,-0.08
19168000,0.12880415,0.1054078,-0.00048959255,0.0,0.0,-0.08
19200000,0.12837303,0.10608028,-0.00065356493,0.0,0.0,-0.08
19232000,0.12851605,0.10576801,-0.0008046627,0.0,0.0,-0.08
19264000,0.12819456,0.105713084,-0.00089120865,0.0,0.0,-0.08
19296000,0.12796725,0.10582124,-0.0006571412,0.0,0.0,-0.08
19328000,0.12820151,0.10538028,-0.000669837,0.0,0.0,-0.08
19360000,0.12833434,0.105319336,-0.0005158782,0.0,0.0,-0.08
19392000,0.12856081,0.105325,-0.0006548166,0.0,0.0,-0.08
19424000,0.12901899,0.10519138,-0.00070899725,0.0,0.0,-0.08
19456000,0.12902924,0.10531464,-0.0005067587,0.0,0.0,-0.08
19488000,0.12883234,0.10553351,-0.0004595518,0.0,0.0,-0.08
19524000,0.12900619,0.10521486,-0.0005187392,0.0,0.0,-0.08
19552000,0.12885626,0.10515222,-0.00060135126,0.0,0.0,-0.08
19584000,0.12919769,0.105415955,-0.0005643368,0.0,0.0,-0.08
19616000,0.12914653,0.10507694,-0.0005711317,0.0,0.0,-0.08
19648000,0.12853298,0.105499595,-0.0007787347,0.0,0.0,-0.08
19680000,0.12886678,0.10552318,-0.0006045699,0.0,0.0,-0.08
19712000,0.12814948,0.105439335,-0.00076138973,0.0,0.0,-0.08
19744000,0.12868574,0.105511576,-0.00072062016,0.0,0.0,-0.08
19776000,0.12873393,0.10556933,-0.00041019917,0.0,0.0,-0.08
19808000,0.12890227,0.10552408,-0.0003835559,0.0,0.0,-0.08
19840000,0.12812446,0.10464869,-0.00039607286,0.0,0.0,-0.08
19872000,0.12743843,0.10462731,-0.00029289722,0.0,0.0,-0.08
19900000,0.12695861,0.10450092,-0.0004377365,0.0,0.0,-0.08
19936000,0.12653741,0.10400392,-0.00035065413,0.0,0.0,-0.08
19968000,0.12655114,0.10466935,-0.00038051605,0.0,0.0,-0.08
20000000,0.12609114,0.10396546,-0.00022137165,0.0,0.0,-0.08
20032000,0.12557486,0.1039084,-0.00033062696,0.0,0.0,-0.08
20068000,0.12543075,0.10358016,-0.0004194975,0.0,0.0,-0.08
20096000,0.12568754,0.10303867,-0.000264287,0.0,0.0,-0.08
20128000,0.12590674,0.103019334,-0.0003592372,0.0,0.0,-0.08
20164000,0.12484733,0.102971524,-0.00031489134,0.0,0.0,-0.08
20196000,0.12530324,0.103569716,-0.00023639202,0.0,0.0,-0.08
20224000,0.1259616,0.103889585,-0.00034868717,0.0,0.0,-0.08
20260000,0.12579215,0.103758454,-0.00039231777,0.0,0.0,-0.08
20288000,0.1253136,0.10390921,-0.0006093979,0.0,0.0,-0.08
20320000,0.124687254,0.1037767,-0.00070130825,0.0,0.0,-0.08
20352000,0.12521416,0.10337415,-0.00070667267,0.0,0.0,-0.08
20384000,0.125574,0.10383354,-0.00085651875,0.0,0.0,-0.08
20416000,0.1255444,0.10393728,-0.00065767765,0.0,0.0,-0.08
20448000,0.12549302,0.104354665,-0.00065356493,0.0,0.0,-0.08
20480000,0.1251262,0.10499945,-0.00077426434,0.0,0.0,-0.08
20508000,0.124915496,0.1050196,-0.00059598684,0.0,0.0,-0.08
20544000,0.124821536,0.10474883,-0.0005879402,0.0,0.0,-0.08
20576000,0.12478417,0.10455369,-0.0004836917,0.0,0.0,-0.08
20608000,0.12468405,0.10409737,-0.00038605928,0.0,0.0,-0.08
20640000,0.1250616,0.103593156,-0.0002744794,0.0,0.0,-0.08
20672000,0.12553373,0.10338443,-5.9723854e-05,0.0,0.0,-0.08
20708000,0.12606521,0.10320601,-0.0004184246,0.0,0.0,-0.08
20740000,0.1259979,0.103112504,-0.0004659891,0.0,0.0,-0.08
20764000,0.12660807,0.102585405,-0.0005155206,0.0,0.0,-0.08
20804000,0.12612978,0.10199549,-0.0008327365,0.0,0.0,-0.08
20836000,0.12591346,0.102670595,-0.00089657307,0.0,0.0,-0.08
20864000,0.12555712,0.1032017,-0.0012953281,0.0,0.0,-0.08
20900000,0.12527785,0.10335568,-0.0012863874,0.0,0.0,-0.08
20924000,0.12537538,0.10357055,-0.0012298822,0.0,0.0,-0.08
20960000,0.12540251,0.10404816,-0.0012323856,0.0,0.0,-0.08
20988000,0.12525016,0.10361519,-0.0012568831,0.0,0.0,-0.08
21024000,0.1253069,0.1032285,-0.0012913942,0.0,0.0,-0.08
21060000,0.12590487,0.10295543,-0.0015508533,0.0,0.0,-0.08
21088000,0.12604387,0.103548884,-0.0012956858,0.0,0.0,-0.08
21124000,0.12654606,0.10414099,-0.001193583,0.0,0.0,-0.08
21152000,0.12666683,0.10381709,-0.0012345314,0.0,0.0,-0.08
21184000,0.12633377,0.10443572,-0.0013911724,0.0,0.0,-0.08
21216000,0.12658107,0.10508202,-0.001183033,0.0,0.0,-0.08
21248000,0.126197,0.10502462,-0.0010106564,0.0,0.0,-0.08
21280000,0.12653098,0.105523445,-0.00097614527,0.0,0.0,-0.08
21316000,0.1270684,0.1064388,-0.0010491014,0.0,0.0,-0.08
21348000,0.12715293,0.10618157,-0.0010008216,0.0,0.0,-0.08
21380000,0.12661254,0.10640937,-0.00096309185,0.0,0.0,-0.08
21408000,0.12706819,0.10696875,-0.0007946491,0.0,0.0,-0.08
21440000,0.12698734,0.10730591,-0.0009421706,0.0,0.0,-0.08
21476000,0.12678085,0.107617155,-0.0010283589,0.0,0.0,-0.08
21508000,0.12660675,0.10716739,-0.00070148706,0.0,0.0,-0.08
21536000,0.12622832,0.10741629,-0.00084131956,0.0,0.0,-0.08
21568000,0.12638958,0.107510015,-0.000715971,0.0,0.0,-0.08
21600000,0.12651934,0.10799785,-0.0005750656,0.0,0.0,-0.08
21636000,0.12608178,0.10742177,-0.000726521,0.0,0.0,-0.08
21664000,0.12581062,0.10792612,-0.0008608103,0.0,0.0,-0.08
21696000,0.12576997,0.10755266,-0.0010979176,0.0,0.0,-0.08
21728000,0.12564552,0.10750126,-0.0011184812,0.0,0.0,-0.08
21760000,0.126181,0.10762178,-0.00081288815,0.0,0.0,-0.08
21792000,0.12600449,0.107368186,-0.00078320503,0.0,0.0,-0.08
21824000,0.12564416,0.10751021,-0.00080502033,0.0,0.0,-0.08
21856000,0.12578228,0.1076304,-0.00068467855,0.0,0.0,-0.08
21892000,0.12572202,0.10747424,-0.00075763464,0.0,0.0,-0.08
21924000,0.12546693,0.10750269,-0.00063210726,0.0,0.0,-0.08
21952000,0.12511462,0.10781249,-0.0005133748,0.0,0.0,-0.08
21984000,0.12493441,0.107848875,-0.00035190582,0.0,0.0,-0.08
22016000,0.12446252,0.10771668,-0.00010192394,0.0,0.0,-0.08
22048000,0.124031305,0.1078431,-1.0371208e-05,0.0,0.0,-0.08
22080000,0.123692326,0.10776074,0.00010621548,0.0,0.0,-0.08
22112000,0.12374628,0.10760699,0.00010192394,0.0,0.0,-0.08
22144000,0.12351731,0.10760413,-9.834766e-06,0.0,0.0,-0.08
22176000,0.12361557,0.10767992,-5.0783157e-05,0.0,0.0,-0.08
22208000,0.12368944,0.10780823,-6.401539e-05,0.0,0.0,-0.08
22240000,0.123568274,0.107681915,0.00046348572,0.0,0.0,-0.08
22272000,0.12323481,0.10746112,0.00054877996,0.0,0.0,-0.08
22308000,0.12295438,0.10665471,0.0003529787,0.0,0.0,-0.08
22336000,0.123032324,0.10659093,0.00039964914,0.0,0.0,-0.08
22368000,0.12274483,0.10631854,0.0004350543,0.0,0.0,-0.08
22400000,0.12316791,0.1069794,0.00040090084,0.0,0.0,-0.08
22436000,0.123403534,0.10737455,0.00015896559,0.0,0.0,-0.08
22464000,0.123330474,0.107419625,0.00012302399,0.0,0.0,-0.08
22496000,0.12378853,0.10708172,0.00012284517,0.0,0.0,-0.08
22524000,0.12386508,0.10665479,0.000279665,0.0,0.0,-0.08
22560000,0.12368913,0.106960125,0.00014394522,0.0,0.0,-0.08
22592000,0.1238542,0.10620837,0.00034725666,0.0,0.0,-0.08
22628000,0.12358862,0.1061801,0.00048726797,0.0,0.0,-0.08
22656000,0.12394669,0.10592224,0.00058346987,0.0,0.0,-0.08
22688000,0.12385662,0.106043965,0.0005325079,0.0,0.0,-0.08
22720000,0.124292314,0.10620859,0.0005325079,0.0,0.0,-0.08
22752000,0.12407418,0.106941685,0.00040340424,0.0,0.0,-0.08
22788000,0.12440157,0.10704847,0.00023835897,0.0,0.0,-0.08
22820000,0.12418042,0.10656138,0.0002848506,0.0,0.0,-0.08
22852000,0.12372708,0.10672606,0.00034993887,0.0,0.0,-0.08
22884000,0.1236396,0.10669901,0.0001975894,0.0,0.0,-0.08
22908000,0.12385312,0.106362976,0.00030738115,0.0,0.0,-0.08
22948000,0.12392838,0.106155105,0.00032883883,0.0,0.0,-0.08
22976000,0.123990044,0.107279755,0.00012642145,0.0,0.0,-0.08
23008000,0.12362927,0.10736608,0.0002194047,0.0,0.0,-0.08
23040000,0.12379083,0.10754203,0.00023531914,0.0,0.0,-0.08
23076000,0.12385903,0.107961215,3.7014484e-05,0.0,0.0,-0.08
23108000,0.123470016,0.10764131,0.00015556812,0.0,0.0,-0.08
23140000,0.12370109,0.10721744,-7.241964e-05,0.0,0.0,-0.08
23172000,0.1236171,0.10671781,0.00014716387,0.0,0.0,-0.08
23196000,0.12355245,0.10707213,0.00021654367,0.0,0.0,-0.08
23232000,0.12354162,0.10693784,0.00031596422,0.0,0.0,-0.08
23260000,0.12391873,0.10646206,0.0007184744,0.0,0.0,-0.08
23296000,0.12370994,0.10590918,0.0007465482,0.0,0.0,-0.08
23332000,0.12367782,0.10608554,0.00071901083,0.0,0.0,-0.08
23360000,0.12351369,0.106637746,0.000623703,0.0,0.0,-0.08
23392000,0.12339442,0.10667011,0.00070381165,0.0,0.0,-0.08
23428000,0.12357833,0.10729216,0.00082576275,0.0,0.0,-0.08
23456000,0.12346619,0.10750953,0.0007905364,0.0,0.0,-0.08
23488000,0.1231855,0.107237905,0.0009198189,0.0,0.0,-0.08
23520000,0.123387985,0.106594145,0.0012252331,0.0,0.0,-0.08
23552000,0.123295516,0.10724561,0.0014079809,0.0,0.0,-0.08
23584000,0.12266754,0.106869325,0.0015415549,0.0,0.0,-0.08
23620000,0.12256046,0.106897846,0.0017123222,0.0,0.0,-0.08
23648000,0.122862145,0.10647662,0.0018578768,0.0,0.0,-0.08
23680000,0.12280816,0.10682081,0.0019773245,0.0,0.0,-0.08
23716000,0.12281542,0.1065303,0.002005756,0.0,0.0,-0.08
23748000,0.12270469,0.10600826,0.0023682117,0.0,0.0,-0.08
23780000,0.12283279,0.10509914,0.0023465753,0.0,0.0,-0.08
23812000,0.12218346,0.104565546,0.0024812222,0.0,0.0,-0.08
23840000,0.12235992,0.10474395,0.0026040673,0.0,0.0,-0.08
23872000,0.12202676,0.105262786,0.0025280714,0.0,0.0,-0.08
23904000,0.12228218,0.10548889,0.0024316907,0.0,0.0,-0.08
23936000,0.12157776,0.10524258,0.0023217201,0.0,0.0,-0.08
23968000,0.12229422,0.10530554,0.0021740198,0.0,0.0,-0.08
24000000,0.12267493,0.10550605,0.0018782616,0.0,0.0,-0.08
24032000,0.12279068,0.10479833,0.0016325712,0.0,0.0,-0.08
24064000,0.12283344,0.10475986,0.0016753078,0.0,0.0,-0.08
24100000,0.12203589,0.10488483,0.0015680194,0.0,0.0,-0.08
24132000,0.12133221,0.105226904,0.0016377568,0.0,0.0,-0.08
24164000,0.121676266,0.104991876,0.001816392,0.0,0.0,-0.08
24192000,0.12175993,0.104916684,0.0015245676,0.0,0.0,-0.08
24224000,0.12102429,0.10505696,0.0015267134,0.0,0.0,-0.08
24256000,0.12083383,0.10505806,0.0013652444,0.0,0.0,-0.08
24292000,0.12121553,0.1053926,0.0011461973,0.0,0.0,-0.08
24320000,0.12112594,0.10491217,0.00094360113,0.0,0.0,-0.08
24356000,0.120804936,0.10479958,0.0009434223,0.0,0.0,-0.08
24384000,0.12105684,0.10441035,0.0009199977,0.0,0.0,-0.08
24420000,0.12049759,0.104432225,0.0008107424,0.0,0.0,-0.08
24452000,0.12066811,0.104390964,0.00076049566,0.0,0.0,-0.08
24480000,0.12088357,0.10455011,0.00074636936,0.0,0.0,-0.08
24512000,0.12105006,0.104870886,0.0007840991,0.0,0.0,-0.08
24548000,0.12066425,0.10521776,0.0007608533,0.0,0.0,-0.08
24576000,0.120584585,0.10502611,0.0005943775,0.0,0.0,-0.08
24608000,0.12077564,0.1052943,0.0003168583,0.0,0.0,-0.08
24640000,0.12083385,0.10546684,0.00037515163,0.0,0.0,-0.08
24672000,0.120708525,0.10544513,0.00031596422,0.0,0.0,-0.08
24708000,0.12095737,0.105470896,0.00042790174,0.0,0.0,-0.08
24736000,0.12080176,0.10527314,0.0002848506,0.0,0.0,-0.08
24768000,0.121460594,0.10572289,9.5665455e-05,0.0,0.0,-0.08
24800000,0.12142825,0.106019385,3.0398369e-05,0.0,0.0,-0.08
24832000,0.12110086,0.10643582,0.00024712086,0.0,0.0,-0.08
24864000,0.1206279,0.10679792,0.00012034178,0.0,0.0,-0.08
24896000,0.12091678,0.106678985,-6.2942505e-05,0.0,0.0,-0.08
24928000,0.12057935,0.10678323,-5.0783157e-05,0.0,0.0,-0.08
24960000,0.120932266,0.10673871,-0.0003899932,0.0,0.0,-0.08
24996000,0.12108098,0.107571006,-0.00047296286,0.0,0.0,-0.08
25024000,0.120924555,0.107697874,-0.00071310997,0.0,0.0,-0.08
25056000,0.12069554,0.10784315,-0.0010197759,0.0,0.0,-0.08
25088000,0.12107517,0.108475074,-0.0011284947,0.0,0.0,-0.08
25120000,0.121111944,0.109363966,-0.0014371276,0.0,0.0,-0.08
25156000,0.1209359,0.1092261,-0.0016701221,0.0,0.0,-0.08
25184000,0.12068045,0.10967268,-0.0016273856,0.0,0.0,-0.08
25216000,0.12016196,0.10975051,-0.0017591715,0.0,0.0,-0.08
25248000,0.120177045,0.10952453,-0.0016407967,0.0,0.0,-0.08
25280000,0.12016205,0.10956684,-0.0016842484,0.0,0.0,-0.08
25312000,0.119519755,0.10958378,-0.001453042,0.0,0.0,-0.08
25344000,0.11953144,0.10960814,-0.0015209913,0.0,0.0,-0.08
25376000,0.11928241,0.11002824,-0.0013509393,0.0,0.0,-0.08
25412000,0.1192784,0.11039524,-0.0010567904,0.0,0.0,-0.08
25444000,0.11967934,0.11028309,-0.0012668967,0.0,0.0,-0.08
25476000,0.120108336,0.11089323,-0.0015027523,0.0,0.0,-0.08
25504000,0.120764,0.11078585,-0.0015653372,0.0,0.0,-0.08
25536000,0.120382875,0.110970095,-0.0014451742,0.0,0.0,-0.08
25568000,0.12042649,0.11126667,-0.0015238523,0.0,0.0,-0.08
25604000,0.12056172,0.111727014,-0.0014979243,0.0,0.0,-0.08
25636000,0.12102282,0.111452654,-0.0014576912,0.0,0.0,-0.08
25668000,0.120933,0.11141594,-0.00085169077,0.0,0.0,-0.08
25696000,0.120987944,0.110688664,-0.0009818673,0.0,0.0,-0.08
25732000,0.12073101,0.11094132,-0.0010537505,0.0,0.0,-0.08
25764000,0.120465666,0.1106816,-0.0008146763,0.0,0.0,-0.08
25796000,0.12043272,0.11061515,-0.0007840991,0.0,0.0,-0.08
25828000,0.12060573,0.11136563,-0.0008972883,0.0,0.0,-0.08
25860000,0.12044293,0.11114455,-0.00096935034,0.0,0.0,-0.08
25884000,0.119955406,0.110640794,-0.0008980036,0.0,0.0,-0.08
25920000,0.11992577,0.11023837,-0.0009698868,0.0,0.0,-0.08
25948000,0.120161,0.11037798,-0.00094521046,0.0,0.0,-0.08
25984000,0.12012629,0.11073527,-0.00086277723,0.0,0.0,-0.08
26020000,0.12041176,0.110566095,-0.00066000223,0.0,0.0,-0.08
26052000,0.12038608,0.110473156,-0.00039035082,0.0,0.0,-0.08
26080000,0.120055564,0.110523865,-0.0002449751,0.0,0.0,-0.08
26112000,0.11989159,0.11060463,-4.863739e-05,0.0,0.0,-0.08
26144000,0.12017778,0.11057772,0.00022190809,0.0,0.0,-0.08
26176000,0.120375514,0.11092903,0.00011175871,0.0,0.0,-0.08
26212000,0.12020795,0.11111961,0.00010496378,0.0,0.0,-0.08
26240000,0.12067157,0.11100045,0.00013715029,0.0,0.0,-0.08
26272000,0.11994908,0.110579625,0.00037157536,0.0,0.0,-0.08
26304000,0.11955238,0.110772476,0.00035476685,0.0,0.0,-0.08
26336000,0.119348,0.11082128,0.0008196831,0.0,0.0,-0.08
26368000,0.11989593,0.110922106,0.0007125735,0.0,0.0,-0.08
26404000,0.12017631,0.110267654,0.001100421,0.0,0.0,-0.08
26432000,0.120290525,0.10941069,0.00105232,0.0,0.0,-0.08
26464000,0.119751915,0.10961947,0.0008583069,0.0,0.0,-0.08
26496000,0.11997977,0.10972888,0.0009073019,0.0,0.0,-0.08
26528000,0.12024368,0.1100252,0.0010251403,0.0,0.0,-0.08
26556000,0.11983656,0.109755844,0.00075155497,0.0,0.0,-0.08
26592000,0.11960987,0.10996178,0.00056165457,0.0,0.0,-0.08
26620000,0.1198025,0.10983478,0.000643909,0.0,0.0,-0.08
26656000,0.12046908,0.10935083,0.00065732,0.0,0.0,-0.08
26688000,0.12087708,0.10939784,0.00051409006,0.0,0.0,-0.08
26720000,0.12144053,0.109438576,0.0005341172,0.0,0.0,-0.08
26752000,0.12175183,0.109867595,0.00046277046,0.0,0.0,-0.08
26784000,0.12142837,0.10970081,0.00054717064,0.0,0.0,-0.08
26816000,0.12143433,0.109878704,0.0007197261,0.0,0.0,-0.08
26852000,0.12146261,0.110461235,0.00027000904,0.0,0.0,-0.08
26876000,0.12119199,0.110388026,0.0002900362,0.0,0.0,-0.08
26916000,0.12059291,0.109892085,-5.3822994e-05,0.0,0.0,-0.08
26944000,0.12020023,0.1104666,-0.0001026392,0.0,0.0,-0.08
26972000,0.119816355,0.11055875,0.00012087822,0.0,0.0,-0.08
27008000,0.11975574,0.11031443,0.000108361244,0.0,0.0,-0.08
27040000,0.119211026,0.111103155,-6.7949295e-06,0.0,0.0,-0.08
27072000,0.11980508,0.11110968,7.992983e-05,0.0,0.0,-0.08
27104000,0.1199152,0.11058965,0.00013750792,0.0,0.0,-0.08
27140000,0.11967535,0.11126545,-0.00021922588,0.0,0.0,-0.08
27168000,0.11913867,0.11086516,-0.00017488003,0.0,0.0,-0.08
27200000,0.11891097,0.11096263,-0.00024694204,0.0,0.0,-0.08
27232000,0.11861922,0.11114889,-0.00026911497,0.0,0.0,-0.08
27264000,0.119026735,0.11147446,-0.00023370981,0.0,0.0,-0.08
27296000,0.11886831,0.11139345,-0.00030201674,0.0,0.0,-0.08
27332000,0.118993945,0.11182782,-0.00042057037,0.0,0.0,-0.08
27364000,0.118992135,0.11175963,-0.00043809414,0.0,0.0,-0.08
27392000,0.118649215,0.11213204,-0.00046277046,0.0,0.0,-0.08
27424000,0.119046584,0.11196968,-0.0005235672,0.0,0.0,-0.08
27456000,0.1192488,0.112450376,-0.0009459257,0.0,0.0,-0.08
27488000,0.11895443,0.11253434,-0.0012879968,0.0,0.0,-0.08
27520000,0.11905913,0.11280949,-0.0012373924,0.0,0.0,-0.08
27552000,0.11942752,0.112069376,-0.0016908646,0.0,0.0,-0.08
27584000,0.11963495,0.11231238,-0.0014998913,0.0,0.0,-0.08
27620000,0.11967291,0.11196999,-0.0014006495,0.0,0.0,-0.08
27648000,0.119924754,0.11232914,-0.0014652014,0.0,0.0,-0.08
27684000,0.120570004,0.11182262,-0.0014070868,0.0,0.0,-0.08
27712000,0.12010662,0.11260411,-0.0013529062,0.0,0.0,-0.08
27744000,0.119559675,0.11275327,-0.0014289021,0.0,0.0,-0.08
27776000,0.11946486,0.11279295,-0.0014049411,0.0,0.0,-0.08
27804000,0.11999735,0.112268716,-0.0014349818,0.0,0.0,-0.08
27840000,0.120017834,0.1115824,-0.0016014576,0.0,0.0,-0.08
27872000,0.11962125,0.112129375,-0.0018045902,0.0,0.0,-0.08
27904000,0.119767144,0.11191523,-0.0018696785,0.0,0.0,-0.08
27936000,0.119725205,0.11198866,-0.0021060705,0.0,0.0,-0.08
27968000,0.12002016,0.11224198,-0.0020390153,0.0,0.0,-0.08
28004000,0.11968267,0.11272758,-0.0020418763,0.0,0.0,-0.08
28032000,0.12001531,0.11339043,-0.0019120574,0.0,0.0,-0.08
28064000,0.120250225,0.11329559,-0.0017001629,0.0,0.0,-0.08
28100000,0.12125529,0.1134281,-0.0018550158,0.0,0.0,-0.08
28132000,0.12190977,0.11298567,-0.0020906925,0.0,0.0,-0.08
28160000,0.12121396,0.112961665,-0.002123952,0.0,0.0,-0.08
28196000,0.120845295,0.11360011,-0.0021028519,0.0,0.0,-0.08
28224000,0.12073447,0.11352367,-0.0022956133,0.0,0.0,-0.08
28256000,0.120342344,0.11381474,-0.0024456382,0.0,0.0,-0.08
28288000,0.12065452,0.11445999,-0.0024204254,0.0,0.0,-0.08
28320000,0.12044732,0.11450665,-0.0027709007,0.0,0.0,-0.08
28352000,0.12044918,0.11434461,-0.0031149387,0.0,0.0,-0.08
28384000,0.12049292,0.1147179,-0.0030017495,0.0,0.0,-0.08
28416000,0.12039929,0.114440806,-0.003248334,0.0,0.0,-0.08
28448000,0.11993374,0.11439152,-0.003388524,0.0,0.0,-0.08
28476000,0.1203312,0.113981694,-0.0035535693,0.0,0.0,-0.08
28512000,0.120456174,0.11435569,-0.003430009,0.0,0.0,-0.08
28548000,0.120379716,0.11495419,-0.0034752488,0.0,0.0,-0.08
28580000,0.12043199,0.11579166,-0.0033729672,0.0,0.0,-0.08
28608000,0.12068378,0.11548036,-0.0033769011,0.0,0.0,-0.08
28636000,0.120578595,0.11547449,-0.0031247735,0.0,0.0,-0.08
28672000,0.12073377,0.11575943,-0.0034305453,0.0,0.0,-0.08
28708000,0.12062947,0.115587905,-0.003317535,0.0,0.0,-0.08
28736000,0.12102269,0.11613406,-0.0034199953,0.0,0.0,-0.08
28768000,0.12107894,0.11579691,-0.0034784675,0.0,0.0,-0.08
28800000,0.120814405,0.11548661,-0.0035573244,0.0,0.0,-0.08
28832000,0.12141381,0.115426436,-0.0038155317,0.0,0.0,-0.08
28860000,0.121234484,0.115594506,-0.003610611,0.0,0.0,-0.08
28900000,0.12127961,0.115652695,-0.003479898,0.0,0.0,-0.08
28924000,0.12171232,0.11567472,-0.0035187006,0.0,0.0,-0.08
28960000,0.12202367,0.11614728,-0.0034224987,0.0,0.0,-0.08
28992000,0.12242762,0.11637928,-0.003180027,0.0,0.0,-0.08
29028000,0.12209297,0.116798826,-0.0034838319,0.0,0.0,-0.08
29060000,0.12258071,0.11669243,-0.0034822226,0.0,0.0,-0.08
29088000,0.122546665,0.116725154,-0.003491342,0.0,0.0,-0.08
29120000,0.12183626,0.11653428,-0.003286779,0.0,0.0,-0.08
29152000,0.12189109,0.11685993,-0.0032544136,0.0,0.0,-0.08
29184000,0.12174128,0.116786264,-0.0034663081,0.0,0.0,-0.08
29216000,0.121760376,0.1170634,-0.0035532117,0.0,0.0,-0.08
29248000,0.12189962,0.11729613,-0.0038300157,0.0,0.0,-0.08
29280000,0.122401536,0.11758524,-0.003751874,0.0,0.0,-0.08
29312000,0.12257777,0.117951095,-0.0037570596,0.0,0.0,-0.08
29344000,0.12304855,0.11837077,-0.003720224,0.0,0.0,-0.08
29372000,0.12304939,0.118111834,-0.003913343,0.0,0.0,-0.08
29412000,0.12314251,0.1182377,-0.0038309097,0.0,0.0,-0.08
29440000,0.12313774,0.118358165,-0.003903687,0.0,0.0,-0.08
29476000,0.12279591,0.1183669,-0.0038244724,0.0,0.0,-0.08
29504000,0.12295212,0.11864213,-0.0038933158,0.0,0.0,-0.08
29536000,0.123100005,0.11916681,-0.0038579106,0.0,0.0,-0.08
29568000,0.12325294,0.11894314,-0.0038875937,0.0,0.0,-0.08
29600000,0.123536356,0.11891143,-0.0038596988,0.0,0.0,-0.08
29632000,0.12389611,0.118521795,-0.004130423,0.0,0.0,-0.08
29668000,0.12400314,0.11855268,-0.004141152,0.0,0.0,-0.08
29700000,0.124165736,0.11838442,-0.0044403076,0.0,0.0,-0.08
29728000,0.1239751,0.11806016,-0.004460871,0.0,0.0,-0.08
29764000,0.12387507,0.11796941,-0.0044319034,0.0,0.0,-0.08
29792000,0.12436591,0.11856448,-0.0046155453,0.0,0.0,-0.08
29828000,0.124402575,0.11810221,-0.0045558214,0.0,0.0,-0.08
29856000,0.124671645,0.11835214,-0.0043262243,0.0,0.0,-0.08
29892000,0.12490925,0.11846595,-0.0041463375,0.0,0.0,-0.08
29916000,0.124866515,0.1191071,-0.0041068196,0.0,0.0,-0.08
29956000,0.1255802,0.11878584,-0.0042961836,0.0,0.0,-0.08
29980000,0.12599504,0.1187719,-0.004242718,0.0,0.0,-0.08
30016000,0.12600513,0.119075865,-0.0045518875,0.0,0.0,-0.08
30052000,0.12613292,0.11946133,-0.0045039654,0.0,0.0,-0.08
30080000,0.12599973,0.119952604,-0.0045499206,0.0,0.0,-0.08
30112000,0.12577346,0.11994186,-0.0044549704,0.0,0.0,-0.08
30148000,0.12544382,0.11890364,-0.004229665,0.0,0.0,-0.08
30176000,0.12623137,0.11900835,-0.0042287707,0.0,0.0,-0.08
30208000,0.12616287,0.11910727,-0.004184246,0.0,0.0,-0.08
30236000,0.12635829,0.119865015,-0.0043339133,0.0,0.0,-0.08
30276000,0.12635651,0.120586514,-0.004796326,0.0,0.0,-0.08
30304000,0.12641163,0.12072231,-0.0047083497,0.0,0.0,-0.08
30336000,0.12641637,0.12061402,-0.004763961,0.0,0.0,-0.08
30372000,0.12678851,0.12014913,-0.004757881,0.0,0.0,-0.08
30400000,0.12677746,0.12039739,-0.004561007,0.0,0.0,-0.08
30428000,0.12650955,0.12022072,-0.004478574,0.0,0.0,-0.08
30464000,0.12628564,0.12020481,-0.003935516,0.0,0.0,-0.08
30500000,0.12655485,0.12014707,-0.003967166,0.0,0.0,-0.08
30528000,0.12647814,0.12004182,-0.0039560795,0.0,0.0,-0.08
30560000,0.12642409,0.120788164,-0.0040812492,0.0,0.0,-0.08
30592000,0.12699941,0.121306814,-0.004014015,0.0,0.0,-0.08
30628000,0.12797749,0.12182687,-0.0042493343,0.0,0.0,-0.08
30652000,0.12770227,0.12168353,-0.004180312,0.0,0.0,-0.08
30688000,0.12807024,0.12095226,-0.0041500926,0.0,0.0,-0.08
30716000,0.12854165,0.12105188,-0.0042713284,0.0,0.0,-0.08
30756000,0.12852058,0.120829254,-0.004318893,0.0,0.0,-0.08
30788000,0.12874612,0.12119939,-0.004352331,0.0,0.0,-0.08
30816000,0.12900315,0.12109718,-0.0043653846,0.0,0.0,-0.08
30848000,0.12878646,0.120777085,-0.004364848,0.0,0.0,-0.08
30880000,0.12883446,0.12135809,-0.0042201877,0.0,0.0,-0.08
30908000,0.12930042,0.121816725,-0.003944993,0.0,0.0,-0.08
30940000,0.12936626,0.121812776,-0.0040048957,0.0,0.0,-0.08
30976000,0.12958854,0.12207316,-0.0038318038,0.0,0.0,-0.08
31012000,0.12903433,0.12230174,-0.003585577,0.0,0.0,-0.08
31036000,0.128649,0.1220404,-0.0034498572,0.0,0.0,-0.08
31076000,0.1292886,0.12197617,-0.003126204,0.0,0.0,-0.08
31104000,0.12915275,0.122140214,-0.003162682,0.0,0.0,-0.08
31136000,0.12950015,0.12230967,-0.002836883,0.0,0.0,-0.08
31168000,0.1300937,0.12266114,-0.002591014,0.0,0.0,-0.08
31196000,0.13010688,0.122455515,-0.0024903417,0.0,0.0,-0.08
31232000,0.12953037,0.12204832,-0.0024806857,0.0,0.0,-0.08
31268000,0.13011356,0.12199852,-0.0021321774,0.0,0.0,-0.08
31292000,0.12998481,0.12175331,-0.002042234,0.0,0.0,-0.08
31324000,0.12987235,0.122128054,-0.0014804006,0.0,0.0,-0.08
31360000,0.13006869,0.12246503,-0.0013679266,0.0,0.0,-0.08
31392000,0.130362,0.12240991,-0.00073742867,0.0,0.0,-0.08
31424000,0.13009211,0.122189984,-0.0006659031,0.0,0.0,-0.08
31456000,0.12946948,0.121865615,-0.00061547756,0.0,0.0,-0.08
31488000,0.1293342,0.12199929,-6.6161156e-05,0.0,0.0,-0.08
31520000,0.12894857,0.122091964,0.00031024218,0.0,0.0,-0.08
31556000,0.1297795,0.122001484,6.920099e-05,0.0,0.0,-0.08
31584000,0.13013959,0.121571146,0.00024122,0.0,0.0,-0.08
31620000,0.13008553,0.12174884,-0.0002759099,0.0,0.0,-0.08
31652000,0.13040084,0.12201889,-0.0003837347,0.0,0.0,-0.08
31684000,0.13029727,0.12229602,-0.0008468628,0.0,0.0,-0.08
31716000,0.13015875,0.122823074,-0.00085276365,0.0,0.0,-0.08
31748000,0.1300478,0.122778095,-0.0010294318,0.0,0.0,-0.08
31776000,0.13017936,0.12280036,-0.0011905432,0.0,0.0,-0.08
31808000,0.12963234,0.12331073,-0.0011270642,0.0,0.0,-0.08
31840000,0.12982121,0.12389481,-0.0013130307,0.0,0.0,-0.08
31868000,0.1296817,0.1241741,-0.001505971,0.0,0.0,-0.08
31908000,0.12976637,0.1244899,-0.0015281439,0.0,0.0,-0.08
31932000,0.12986356,0.12474941,-0.0013831258,0.0,0.0,-0.08
31972000,0.12943198,0.12517883,-0.0009938478,0.0,0.0,-0.08
31999999,0.12975815,0.12509379,-0.0012028813,0.0,0.0,-0.08
32036000,0.12976058,0.1253144,-0.0008211136,0.0,0.0,-0.08
32063999,0.12977049,0.12484554,-0.00055611134,0.0,0.0,-0.08
32096000,0.13024464,0.124182776,-0.00019365549,0.0,0.0,-0.08
32127999,0.12943366,0.1237314,-0.0002065301,0.0,0.0,-0.08
32160000,0.13013719,0.12398377,-1.0550022e-05,0.0,0.0,-0.08
32196000,0.13009976,0.12509622,0.00011605024,0.0,0.0,-0.08
32224000,0.1295442,0.12497124,0.00014966726,0.0,0.0,-0.08
32255999,0.13043618,0.12503676,6.0081482e-05,0.0,0.0,-0.08
32292000,0.13038792,0.1247254,0.0004709959,0.0,0.0,-0.08
32324000,0.13028477,0.124392495,0.00038158894,0.0,0.0,-0.08
32352000,0.12992087,0.12475693,7.7068806e-05,0.0,0.0,-0.08
32383999,0.1300425,0.12430561,-8.529425e-05,0.0,0.0,-0.08
32420000,0.12953904,0.12481877,-0.00037032366,0.0,0.0,-0.08
32448000,0.13003571,0.12535684,-0.00068306923,0.0,0.0,-0.08
32484000,0.12978588,0.12593774,-0.00078445673,0.0,0.0,-0.08
32508000,0.13003948,0.12622592,-0.0009532571,0.0,0.0,-0.08
32544000,0.1300567,0.12627983,-0.001081109,0.0,0.0,-0.08
32576000,0.13046235,0.12643816,-0.001169622,0.0,0.0,-0.08
32608000,0.13065575,0.12667981,-0.0011664033,0.0,0.0,-0.08
32640000,0.13058206,0.127159,-0.001181066,0.0,0.0,-0.08
32676000,0.13022438,0.12743719,-0.00090765953,0.0,0.0,-0.08
32704000,0.13013092,0.12728491,-0.0010603666,0.0,0.0,-0.08
32740000,0.13058428,0.12708198,-0.0012638569,0.0,0.0,-0.08
32768000,0.13109735,0.1270005,-0.0013078451,0.0,0.0,-0.08
32800000,0.13068484,0.12724556,-0.00137043,0.0,0.0,-0.08
32836000,0.13106178,0.12725545,-0.0015916228,0.0,0.0,-0.08
32864000,0.13067976,0.12739116,-0.0013734698,0.0,0.0,-0.08
32896000,0.13107523,0.12739334,-0.0013518333,0.0,0.0,-0.08
32932000,0.13137922,0.12746513,-0.0013664961,0.0,0.0,-0.08
32960000,0.13152434,0.12738463,-0.0013968945,0.0,0.0,-0.08
32992000,0.13111286,0.12702897,-0.001192689,0.0,0.0,-0.08
33024000,0.1309906,0.12720788,-0.0011034608,0.0,0.0,-0.08
33056000,0.13092253,0.12761089,-0.00083202124,0.0,0.0,-0.08
33091999,0.13143595,0.12794892,-0.00081449747,0.0,0.0,-0.08
33124000,0.13185693,0.12864569,-0.0006338954,0.0,0.0,-0.08
33155999,0.1312869,0.12910816,-0.00076693296,0.0,0.0,-0.08
33184000,0.13154599,0.12950435,-0.0005135536,0.0,0.0,-0.08
33216000,0.13046971,0.12919849,-0.000792861,0.0,0.0,-0.08
33248000,0.13045469,0.12883447,-0.0008942485,0.0,0.0,-0.08
33280000,0.13071737,0.12850006,-0.000985086,0.0,0.0,-0.08
33307999,0.13072199,0.1286351,-0.0010151267,0.0,0.0,-0.08
33344000,0.13058849,0.12899609,-0.0008364916,0.0,0.0,-0.08
33376000,0.13043213,0.12869689,-0.00077980757,0.0,0.0,-0.08
33404000,0.13047342,0.12892897,-0.00093752146,0.0,0.0,-0.08
33440000,0.13094722,0.12937309,-0.0010660887,0.0,0.0,-0.08
33472000,0.13131516,0.12948558,-0.0010281801,0.0,0.0,-0.08
33504000,0.1307201,0.12979709,-0.0009380579,0.0,0.0,-0.08
33536000,0.13119818,0.12925205,-0.00074601173,0.0,0.0,-0.08
33568000,0.13180538,0.12951244,-0.0005623698,0.0,0.0,-0.08
33600000,0.1321193,0.12962899,-0.0006533861,0.0,0.0,-0.08
33628000,0.13189776,0.1291756,-0.00065374374,0.0,0.0,-0.08
33664000,0.13222516,0.128977,-0.0005232096,0.0,0.0,-0.08
33696000,0.13156131,0.12916143,-0.0007735491,0.0,0.0,-0.08
33728000,0.13128847,0.12926562,-0.0008624196,0.0,0.0,-0.08
33756000,0.13152868,0.12910382,-0.0009886622,0.0,0.0,-0.08
33792000,0.13165474,0.12891932,-0.00073099136,0.0,0.0,-0.08
33824000,0.1312424,0.12893887,-0.00072312355,0.0,0.0,-0.08
33856000,0.13151537,0.12843435,-0.00067573786,0.0,0.0,-0.08
33888000,0.13174704,0.12811176,-0.000944674,0.0,0.0,-0.08
33920000,0.13178833,0.12800224,-0.0010614395,0.0,0.0,-0.08
33952000,0.13169132,0.12758625,-0.0012050271,0.0,0.0,-0.08
33984000,0.13125592,0.12692554,-0.0012479424,0.0,0.0,-0.08
34012000,0.13150053,0.12715662,-0.0013777614,0.0,0.0,-0.08
34048000,0.13165846,0.12709877,-0.0015177727,0.0,0.0,-0.08
34080000,0.13110247,0.12751599,-0.0018659234,0.0,0.0,-0.08
34112000,0.13080575,0.1275068,-0.0018099546,0.0,0.0,-0.08
34144000,0.13086104,0.12777552,-0.0018975735,0.0,0.0,-0.08
34176000,0.13048665,0.12826414,-0.0017986894,0.0,0.0,-0.08
34208000,0.13019131,0.1286546,-0.0018398166,0.0,0.0,-0.08
34244000,0.1304846,0.1285757,-0.0018292665,0.0,0.0,-0.08
34272000,0.13057885,0.12804082,-0.002135396,0.0,0.0,-0.08
34304000,0.13060845,0.12826407,-0.0020138025,0.0,0.0,-0.08
34336000,0.13013911,0.12901977,-0.0021271706,0.0,0.0,-0.08
34368000,0.13007025,0.1291365,-0.0021860003,0.0,0.0,-0.08
34400000,0.12971285,0.12826784,-0.0023242235,0.0,0.0,-0.08
34436000,0.13007717,0.12763065,-0.002198875,0.0,0.0,-0.08
34464000,0.13003737,0.1276868,-0.0021425486,0.0,0.0,-0.08
34496000,0.12973487,0.12753254,-0.002339244,0.0,0.0,-0.08
34528000,0.13013625,0.12771732,-0.0025191307,0.0,0.0,-0.08
34560000,0.13067274,0.1276409,-0.0023531914,0.0,0.0,-0.08
34588000,0.13071805,0.12752247,-0.0023294091,0.0,0.0,-0.08
34624000,0.13060348,0.12764111,-0.0022630692,0.0,0.0,-0.08
34656000,0.1307528,0.12805156,-0.0023303032,0.0,0.0,-0.08
34688000,0.13112023,0.12794049,-0.0023210049,0.0,0.0,-0.08
34720000,0.13132173,0.1277854,-0.002302587,0.0,0.0,-0.08
34752000,0.1313121,0.12777755,-0.002328515,0.0,0.0,-0.08
34780000,0.13085899,0.12744477,-0.002699554,0.0,0.0,-0.08
