timestamp,rollspeed,pitchspeed,yawspeed,q[0],q[1],q[2],q[3],delta_q_reset[0],delta_q_reset[1],delta_q_reset[2],delta_q_reset[3],quat_reset_counter
1904000,2.0333953e-06,-2.1803894e-06,9.471738e-12,0.9768958,6.015295e-07,-1.1312122e-06,0.21373738,0.0,0.0,0.0,0.0,0
1916000,2.0333953e-06,-2.1803894e-06,9.461825e-12,0.9768958,6.052284e-07,-1.1397238e-06,0.21373738,0.0,0.0,0.0,0.0,0
1928000,2.0333953e-06,-2.1803894e-06,9.451913e-12,0.9768958,6.0890284e-07,-1.1482409e-06,0.21373738,0.0,0.0,0.0,0.0,0
1940000,2.0333953e-06,-2.1803892e-06,9.442001e-12,0.9768958,6.1255423e-07,-1.156763e-06,0.21373738,0.0,0.0,0.0,0.0,0
1952000,2.0333953e-06,-2.1803892e-06,9.432089e-12,0.9768958,6.161841e-07,-1.1652897e-06,0.21373738,0.0,0.0,0.0,0.0,0
1964000,2.0333953e-06,-2.1803892e-06,9.4221774e-12,0.9768958,6.1979375e-07,-1.1738209e-06,0.21373738,0.0,0.0,0.0,0.0,0
1976000,2.0333953e-06,-2.1803892e-06,9.412265e-12,0.9768958,6.2338455e-07,-1.1823562e-06,0.21373738,0.0,0.0,0.0,0.0,0
1988000,2.0333953e-06,-2.1803892e-06,9.402353e-12,0.9768958,6.269577e-07,-1.1908954e-06,0.21373738,0.0,0.0,0.0,0.0,0
2000000,2.0333953e-06,-2.1803892e-06,9.392441e-12,0.9768958,6.305145e-07,-1.1994381e-06,0.21373738,0.0,0.0,0.0,0.0,0
2012000,2.0333953e-06,-2.1803892e-06,9.382529e-12,0.9768958,6.3405594e-07,-1.2079843e-06,0.21373738,0.0,0.0,0.0,0.0,0
2024000,2.0333953e-06,-2.1803892e-06,9.372616e-12,0.9768958,6.3758324e-07,-1.2165334e-06,0.21373738,0.0,0.0,0.0,0.0,0
2036000,2.0333953e-06,-2.1803892e-06,9.362704e-12,0.9768958,6.4109724e-07,-1.2250856e-06,0.21373738,0.0,0.0,0.0,0.0,0
2048000,2.0333953e-06,-2.1803892e-06,9.352792e-12,0.9768958,6.44599e-07,-1.2336403e-06,0.21373738,0.0,0.0,0.0,0.0,0
2060000,2.0333953e-06,-2.1803892e-06,9.342881e-12,0.9768958,6.4808944e-07,-1.2421976e-06,0.21373738,0.0,0.0,0.0,0.0,0
2072000,2.0333953e-06,-2.1803892e-06,9.332968e-12,0.9768958,6.522064e-07,-1.2506179e-06,0.21373738,0.0,0.0,0.0,0.0,0
2084000,2.0333953e-06,-2.1803892e-06,9.323056e-12,0.9768958,6.562819e-07,-1.259047e-06,0.21373738,0.0,0.0,0.0,0.0,0
2096000,2.0333953e-06,-2.1803892e-06,9.313144e-12,0.9768958,6.60317e-07,-1.2674851e-06,0.21373738,0.0,0.0,0.0,0.0,0
2108000,2.0333953e-06,-2.1803892e-06,9.303232e-12,0.9768958,6.6431284e-07,-1.2759318e-06,0.21373738,0.0,0.0,0.0,0.0,0
2120000,2.0333953e-06,-2.1803892e-06,9.29332e-12,0.9768958,6.6827056e-07,-1.2843869e-06,0.21373738,0.0,0.0,0.0,0.0,0
2132000,2.0333953e-06,-2.1803892e-06,9.283407e-12,0.9768958,6.721915e-07,-1.29285e-06,0.21373738,0.0,0.0,0.0,0.0,0
2144000,2.0333953e-06,-2.1803892e-06,9.273495e-12,0.9768958,6.7607704e-07,-1.3013208e-06,0.21373738,0.0,0.0,0.0,0.0,0
2156000,2.0333953e-06,-2.1803892e-06,9.263583e-12,0.9768958,6.7992875e-07,-1.309799e-06,0.21373738,0.0,0.0,0.0,0.0,0
2168000,2.0333953e-06,-2.1803892e-06,9.253672e-12,0.9768958,6.837481e-07,-1.3182844e-06,0.21373738,0.0,0.0,0.0,0.0,0
2180000,2.0333953e-06,-2.1803892e-06,9.243759e-12,0.9768958,6.8753667e-07,-1.3267763e-06,0.21373738,0.0,0.0,0.0,0.0,0
2192000,2.0333953e-06,-2.1803892e-06,9.233847e-12,0.9768958,6.91296e-07,-1.3352749e-06,0.21373738,0.0,0.0,0.0,0.0,0
2204000,2.0333953e-06,-2.1803892e-06,9.223935e-12,0.9768958,6.950276e-07,-1.3437793e-06,0.21373738,0.0,0.0,0.0,0.0,0
2216000,2.0333953e-06,-2.1803892e-06,9.214023e-12,0.9768958,6.987331e-07,-1.3522896e-06,0.21373738,0.0,0.0,0.0,0.0,0
2228000,2.0333953e-06,-2.1803892e-06,9.2041106e-12,0.9768958,7.024139e-07,-1.3608052e-06,0.21373738,0.0,0.0,0.0,0.0,0
2240000,2.0333953e-06,-2.1803892e-06,9.194198e-12,0.9768958,7.0607155e-07,-1.3693259e-06,0.21373738,0.0,0.0,0.0,0.0,0
2252000,2.0333953e-06,-2.1803892e-06,9.184286e-12,0.9768958,7.0970736e-07,-1.3778513e-06,0.21373738,0.0,0.0,0.0,0.0,0
2264000,2.0333953e-06,-2.1803892e-06,9.174375e-12,0.9768958,7.133228e-07,-1.3863812e-06,0.21373738,0.0,0.0,0.0,0.0,0
2276000,2.0333953e-06,-2.1803892e-06,9.164463e-12,0.9768958,7.1691903e-07,-1.3949153e-06,0.21373738,0.0,0.0,0.0,0.0,0
2288000,2.0333953e-06,-2.1803892e-06,9.15455e-12,0.9768958,7.2049744e-07,-1.4034533e-06,0.21373738,0.0,0.0,0.0,0.0,0
2300000,2.0333953e-06,-2.1803892e-06,9.144638e-12,0.9768958,7.2405913e-07,-1.4119951e-06,0.21373738,0.0,0.0,0.0,0.0,0
2312000,2.0333953e-06,-2.1803892e-06,9.134726e-12,0.9768958,7.276053e-07,-1.4205401e-06,0.21373738,0.0,0.0,0.0,0.0,0
2324000,2.0333953e-06,-2.1803892e-06,9.124814e-12,0.9768958,7.31137e-07,-1.4290883e-06,0.21373738,0.0,0.0,0.0,0.0,0
2336000,2.0333953e-06,-2.1803892e-06,9.1149015e-12,0.9768958,7.346552e-07,-1.4376395e-06,0.21373738,0.0,0.0,0.0,0.0,0
2348000,2.0333953e-06,-2.180389e-06,9.104989e-12,0.9768958,7.381609e-07,-1.4461936e-06,0.21373738,0.0,0.0,0.0,0.0,0
2360000,2.0333953e-06,-2.180389e-06,9.095078e-12,0.9768958,7.4165496e-07,-1.45475e-06,0.21373738,0.0,0.0,0.0,0.0,0
2372000,2.0333953e-06,-2.180389e-06,9.085166e-12,0.9768958,7.457928e-07,-1.4631656e-06,0.21373738,0.0,0.0,0.0,0.0,0
2384000,2.0333953e-06,-2.180389e-06,9.075254e-12,0.9768958,7.4989003e-07,-1.47159e-06,0.21373738,0.0,0.0,0.0,0.0,0
2396000,2.0333953e-06,-2.180389e-06,9.065341e-12,0.9768958,7.53947e-07,-1.4800235e-06,0.21373738,0.0,0.0,0.0,0.0,0
2408000,2.0333953e-06,-2.180389e-06,9.055429e-12,0.9768958,7.579646e-07,-1.4884654e-06,0.21373738,0.0,0.0,0.0,0.0,0
2420000,2.0333953e-06,-2.180389e-06,9.045517e-12,0.9768958,7.6194385e-07,-1.4969156e-06,0.21373738,0.0,0.0,0.0,0.0,0
2432000,2.0333953e-06,-2.180389e-06,9.035605e-12,0.9768958,7.65886e-07,-1.5053741e-06,0.21373738,0.0,0.0,0.0,0.0,0
2444000,2.0333953e-06,-2.180389e-06,9.0256925e-12,0.9768958,7.6979234e-07,-1.5138404e-06,0.21373738,0.0,0.0,0.0,0.0,0
2456000,2.0333953e-06,-2.180389e-06,9.015781e-12,0.9768958,7.7366417e-07,-1.5223142e-06,0.21373738,0.0,0.0,0.0,0.0,0
2468000,2.0333953e-06,-2.180389e-06,9.005869e-12,0.9768958,7.7750303e-07,-1.5307952e-06,0.21373738,0.0,0.0,0.0,0.0,0
2480000,2.0333953e-06,-2.180389e-06,8.995957e-12,0.9768958,7.8131035e-07,-1.5392832e-06,0.21373738,0.0,0.0,0.0,0.0,0
2492000,2.0333953e-06,-2.180389e-06,8.9860445e-12,0.9768958,7.8508765e-07,-1.5477776e-06,0.21373738,0.0,0.0,0.0,0.0,0
2504000,2.0333953e-06,-2.180389e-06,8.976132e-12,0.9768958,7.888365e-07,-1.5562784e-06,0.21373738,0.0,0.0,0.0,0.0,0
2516000,2.0333953e-06,-2.180389e-06,8.96622e-12,0.9768958,7.9255835e-07,-1.5647851e-06,0.21373738,0.0,0.0,0.0,0.0,0
2524000,2.033395e-06,-2.180389e-06,8.959612e-12,0.9768958,7.751334e-07,-1.5748114e-06,0.21373738,0.0,0.0,0.0,0.0,0
2540000,2.0333953e-06,-2.180389e-06,8.946396e-12,0.9768958,7.999271e-07,-1.5818148e-06,0.21373738,0.0,0.0,0.0,0.0,0
2548000,2.033395e-06,-2.180389e-06,8.939788e-12,0.9768958,7.824593e-07,-1.5918505e-06,0.21373738,0.0,0.0,0.0,0.0,0
2564000,2.033395e-06,-2.180389e-06,8.926572e-12,0.9768958,8.072053e-07,-1.5988642e-06,0.21373738,0.0,0.0,0.0,0.0,0
2576000,2.033395e-06,-2.180389e-06,8.91666e-12,0.9768958,8.108139e-07,-1.6073957e-06,0.21373738,0.0,0.0,0.0,0.0,0
2588000,2.033395e-06,-2.180389e-06,8.906748e-12,0.9768958,8.1440385e-07,-1.6159311e-06,0.21373738,0.0,0.0,0.0,0.0,0
2600000,2.033395e-06,-2.180389e-06,8.8968355e-12,0.9768958,8.179764e-07,-1.6244704e-06,0.21373738,0.0,0.0,0.0,0.0,0
2612000,2.033395e-06,-2.180389e-06,8.886923e-12,0.9768958,8.2153275e-07,-1.6330133e-06,0.21373738,0.0,0.0,0.0,0.0,0
2624000,2.033395e-06,-2.180389e-06,8.877011e-12,0.9768958,8.2507387e-07,-1.6415595e-06,0.21373738,0.0,0.0,0.0,0.0,0
2636000,2.033395e-06,-2.180389e-06,8.867099e-12,0.9768958,8.2860095e-07,-1.6501087e-06,0.21373738,0.0,0.0,0.0,0.0,0
2648000,2.033395e-06,-2.180389e-06,8.8571876e-12,0.9768958,8.3211484e-07,-1.6586608e-06,0.21373738,0.0,0.0,0.0,0.0,0
2660000,2.033395e-06,-2.180389e-06,8.847275e-12,0.9768958,8.3561656e-07,-1.6672157e-06,0.21373738,0.0,0.0,0.0,0.0,0
2672000,2.033395e-06,-2.180389e-06,8.837363e-12,0.9768958,8.095095e-07,-1.6822486e-06,0.21373738,0.0,0.0,0.0,0.0,0
2680000,2.033395e-06,-2.180389e-06,8.830755e-12,0.9768958,8.221119e-07,-1.6857053e-06,0.21373738,0.0,0.0,0.0,0.0,0
2696000,2.033395e-06,-2.180389e-06,8.817539e-12,0.9768958,8.17699e-07,-1.6990987e-06,0.21373738,0.0,0.0,0.0,0.0,0
2708000,2.033395e-06,-2.180389e-06,8.8076265e-12,0.9768958,8.217308e-07,-1.7075375e-06,0.21373738,0.0,0.0,0.0,0.0,0
2720000,2.033395e-06,-2.180389e-06,8.797714e-12,0.9768958,8.257223e-07,-1.7159851e-06,0.21373738,0.0,0.0,0.0,0.0,0
2732000,2.033395e-06,-2.180389e-06,8.787802e-12,0.9768958,8.2967495e-07,-1.7244413e-06,0.21373738,0.0,0.0,0.0,0.0,0
2744000,2.033395e-06,-2.1803887e-06,8.77789e-12,0.9768958,8.335902e-07,-1.7329056e-06,0.21373738,0.0,0.0,0.0,0.0,0
2756000,2.033395e-06,-2.1803887e-06,8.7679785e-12,0.9768958,8.374697e-07,-1.7413778e-06,0.21373738,0.0,0.0,0.0,0.0,0
2768000,2.033395e-06,-2.1803887e-06,8.758066e-12,0.9768958,8.41315e-07,-1.7498575e-06,0.21373738,0.0,0.0,0.0,0.0,0
2780000,2.033395e-06,-2.1803887e-06,8.748154e-12,0.9768958,8.451278e-07,-1.7583442e-06,0.21373738,0.0,0.0,0.0,0.0,0
2792000,2.033395e-06,-2.1803887e-06,8.738242e-12,0.9768958,8.489097e-07,-1.7668377e-06,0.21373738,0.0,0.0,0.0,0.0,0
2800000,2.033395e-06,-2.1803887e-06,8.7316335e-12,0.9768958,8.6120167e-07,-1.7703622e-06,0.21373738,0.0,0.0,0.0,0.0,0
2816000,2.033395e-06,-2.1803887e-06,8.7184175e-12,0.9768958,8.563873e-07,-1.7838436e-06,0.21373738,0.0,0.0,0.0,0.0,0
2824000,2.033395e-06,-2.1803887e-06,8.71181e-12,0.9768958,8.686388e-07,-1.787377e-06,0.21373738,0.0,0.0,0.0,0.0,0
2836000,2.033395e-06,-2.1803887e-06,8.701898e-12,0.9768958,8.723196e-07,-1.7958926e-06,0.21373738,0.0,0.0,0.0,0.0,0
2852000,2.033395e-06,-2.1803887e-06,8.688682e-12,0.9768958,8.6741227e-07,-1.8093942e-06,0.21373738,0.0,0.0,0.0,0.0,0
2864000,2.033395e-06,-2.1803887e-06,8.6787695e-12,0.9768958,8.710421e-07,-1.817921e-06,0.21373738,0.0,0.0,0.0,0.0,0
2876000,2.033395e-06,-2.1803887e-06,8.668857e-12,0.9768958,8.7465185e-07,-1.8264521e-06,0.21373738,0.0,0.0,0.0,0.0,0
2888000,2.033395e-06,-2.1803887e-06,8.658945e-12,0.9768958,8.782427e-07,-1.8349874e-06,0.21373738,0.0,0.0,0.0,0.0,0
2900000,2.033395e-06,-2.1803887e-06,8.649033e-12,0.9768958,8.8181594e-07,-1.8435265e-06,0.21373738,0.0,0.0,0.0,0.0,0
2912000,2.033395e-06,-2.1803887e-06,8.639121e-12,0.9768958,8.8537274e-07,-1.8520693e-06,0.21373738,0.0,0.0,0.0,0.0,0
2924000,2.033395e-06,-2.1803887e-06,8.6292085e-12,0.9768958,8.8891426e-07,-1.8606154e-06,0.21373738,0.0,0.0,0.0,0.0,0
2936000,2.033395e-06,-2.1803887e-06,8.619296e-12,0.9768958,8.9244156e-07,-1.8691646e-06,0.21373738,0.0,0.0,0.0,0.0,0
2948000,2.033395e-06,-2.1803887e-06,8.609385e-12,0.9768958,8.959556e-07,-1.8777167e-06,0.21373738,0.0,0.0,0.0,0.0,0
2960000,2.033395e-06,-2.1803887e-06,8.599473e-12,0.9768958,8.994574e-07,-1.8862715e-06,0.21373738,0.0,0.0,0.0,0.0,0
2972000,2.033395e-06,-2.1803887e-06,8.5895605e-12,0.9768958,9.029478e-07,-1.8948288e-06,0.21373738,0.0,0.0,0.0,0.0,0
2984000,2.033395e-06,-2.1803887e-06,8.579648e-12,0.9768958,9.070648e-07,-1.903249e-06,0.21373738,0.0,0.0,0.0,0.0,0
2996000,2.033395e-06,-2.1803887e-06,8.569736e-12,0.9768958,9.111404e-07,-1.9116783e-06,0.21373738,0.0,0.0,0.0,0.0,0
3008000,2.033395e-06,-2.1803887e-06,8.559824e-12,0.9768958,9.151755e-07,-1.9201163e-06,0.21373738,0.0,0.0,0.0,0.0,0
3020000,2.033395e-06,-2.1803887e-06,8.549912e-12,0.9768958,9.191713e-07,-1.928563e-06,0.21373738,0.0,0.0,0.0,0.0,0
3028000,2.033395e-06,-2.1803887e-06,8.543304e-12,0.9768958,9.318497e-07,-1.932003e-06,0.21373738,0.0,0.0,0.0,0.0,0
3044000,2.033395e-06,-2.1803887e-06,8.530088e-12,0.9768958,9.2705e-07,-1.945481e-06,0.21373738,0.0,0.0,0.0,0.0,0
3056000,2.033395e-06,-2.1803887e-06,8.520176e-12,0.9768958,9.309356e-07,-1.953952e-06,0.21373738,0.0,0.0,0.0,0.0,0
3068000,2.033395e-06,-2.1803887e-06,8.510264e-12,0.9768958,9.347873e-07,-1.9624301e-06,0.21373738,0.0,0.0,0.0,0.0,0
3080000,2.033395e-06,-2.1803887e-06,8.5003515e-12,0.9768958,9.3860666e-07,-1.9709155e-06,0.21373738,0.0,0.0,0.0,0.0,0
3088000,2.033395e-06,-2.1803887e-06,8.493744e-12,0.9768958,9.512162e-07,-1.9743707e-06,0.21373738,0.0,0.0,0.0,0.0,0
3104000,2.033395e-06,-2.1803887e-06,8.480527e-12,0.9768958,9.4615456e-07,-1.987906e-06,0.21373738,0.0,0.0,0.0,0.0,0
3116000,2.033395e-06,-2.1803887e-06,8.470615e-12,0.9768958,9.498862e-07,-1.9964104e-06,0.21373738,0.0,0.0,0.0,0.0,0
3128000,2.033395e-06,-2.1803887e-06,8.4607035e-12,0.9768958,9.535917e-07,-2.0049206e-06,0.21373738,0.0,0.0,0.0,0.0,0
3140000,2.033395e-06,-2.1803887e-06,8.450791e-12,0.9768958,9.572725e-07,-2.0134362e-06,0.21373738,0.0,0.0,0.0,0.0,0
3152000,2.033395e-06,-2.1803885e-06,8.440879e-12,0.9768958,9.609302e-07,-2.021957e-06,0.21373738,0.0,0.0,0.0,0.0,0
3164000,2.033395e-06,-2.1803885e-06,8.430967e-12,0.9768958,9.64566e-07,-2.0304824e-06,0.21373738,0.0,0.0,0.0,0.0,0
3176000,2.033395e-06,-2.1803885e-06,8.421055e-12,0.9768958,9.681814e-07,-2.0390123e-06,0.21373738,0.0,0.0,0.0,0.0,0
3188000,2.033395e-06,-2.1803885e-06,8.4111424e-12,0.9768958,9.717777e-07,-2.0475466e-06,0.21373738,0.0,0.0,0.0,0.0,0
3200000,2.033395e-06,-2.1803885e-06,8.40123e-12,0.9768958,9.753561e-07,-2.0560844e-06,0.21373738,0.0,0.0,0.0,0.0,0
3212000,2.033395e-06,-2.1803885e-06,8.391319e-12,0.9768958,9.789178e-07,-2.0646262e-06,0.21373738,0.0,0.0,0.0,0.0,0
3224000,2.033395e-06,-2.1803885e-06,8.381407e-12,0.9768958,9.82464e-07,-2.0731711e-06,0.21373738,0.0,0.0,0.0,0.0,0
3232000,2.033395e-06,-2.1803885e-06,8.374798e-12,0.9768958,9.949797e-07,-2.0766468e-06,0.21373738,0.0,0.0,0.0,0.0,0
3248000,2.0333948e-06,-2.1803885e-06,8.361582e-12,0.9768958,9.89514e-07,-2.0902708e-06,0.21373738,0.0,0.0,0.0,0.0,0
3260000,2.0333948e-06,-2.1803885e-06,8.35167e-12,0.9768958,9.930196e-07,-2.0988246e-06,0.21373738,0.0,0.0,0.0,0.0,0
3272000,2.0333948e-06,-2.1803885e-06,8.341758e-12,0.9768958,9.965137e-07,-2.107381e-06,0.21373738,0.0,0.0,0.0,0.0,0
3284000,2.0333948e-06,-2.1803885e-06,8.331846e-12,0.9768958,9.999969e-07,-2.1159399e-06,0.21373738,0.0,0.0,0.0,0.0,0
3296000,2.0333948e-06,-2.1803885e-06,8.321934e-12,0.9768958,1.0041282e-06,-2.124357e-06,0.21373738,0.0,0.0,0.0,0.0,0
3308000,2.0333948e-06,-2.1803885e-06,8.312022e-12,0.9768958,1.0082188e-06,-2.132783e-06,0.21373738,0.0,0.0,0.0,0.0,0
3320000,2.0333948e-06,-2.1803885e-06,8.30211e-12,0.9768958,1.0122693e-06,-2.1412177e-06,0.21373738,0.0,0.0,0.0,0.0,0
3332000,2.0333948e-06,-2.1803885e-06,8.292198e-12,0.9768958,1.0162806e-06,-2.149661e-06,0.21373738,0.0,0.0,0.0,0.0,0
3344000,2.0333948e-06,-2.1803885e-06,8.2822854e-12,0.9768958,1.0202539e-06,-2.1581127e-06,0.21373738,0.0,0.0,0.0,0.0,0
3356000,2.0333948e-06,-2.1803885e-06,8.272373e-12,0.9768958,1.02419e-06,-2.1665724e-06,0.21373738,0.0,0.0,0.0,0.0,0
3368000,2.0333948e-06,-2.1803885e-06,8.262461e-12,0.9768958,1.0280908e-06,-2.1750398e-06,0.21373738,0.0,0.0,0.0,0.0,0
3380000,2.0333948e-06,-2.1803885e-06,8.25255e-12,0.9768958,1.0319571e-06,-2.1835149e-06,0.21373738,0.0,0.0,0.0,0.0,0
3392000,2.0333948e-06,-2.1803885e-06,8.2426375e-12,0.9768958,1.0357908e-06,-2.191997e-06,0.21373738,0.0,0.0,0.0,0.0,0
3404000,2.0333948e-06,-2.1803885e-06,8.232725e-12,0.9768958,1.0395931e-06,-2.200486e-06,0.21373738,0.0,0.0,0.0,0.0,0
3416000,2.0333948e-06,-2.1803885e-06,8.222813e-12,0.9768958,1.0433657e-06,-2.2089816e-06,0.21373738,0.0,0.0,0.0,0.0,0
3424000,2.0333948e-06,-2.1803885e-06,8.216205e-12,0.9768958,1.0259836e-06,-2.2189986e-06,0.21373738,0.0,0.0,0.0,0.0,0
3440000,2.0333948e-06,-2.1803885e-06,8.202989e-12,0.9768958,1.0508278e-06,-2.2259908e-06,0.21373738,0.0,0.0,0.0,0.0,0
3452000,2.0333948e-06,-2.1803885e-06,8.193076e-12,0.9768958,1.0545201e-06,-2.2345039e-06,0.21373738,0.0,0.0,0.0,0.0,0
3464000,2.0333948e-06,-2.1803885e-06,8.183164e-12,0.9768958,1.0581887e-06,-2.2430222e-06,0.21373738,0.0,0.0,0.0,0.0,0
3476000,2.0333948e-06,-2.1803885e-06,8.173253e-12,0.9768958,1.061835e-06,-2.2515455e-06,0.21373738,0.0,0.0,0.0,0.0,0
3484000,2.0333948e-06,-2.1803885e-06,8.1666444e-12,0.9768958,1.0443442e-06,-2.2615861e-06,0.21373738,0.0,0.0,0.0,0.0,0
3500000,2.0333948e-06,-2.1803885e-06,8.1534285e-12,0.9768958,1.0690657e-06,-2.2686054e-06,0.21373738,0.0,0.0,0.0,0.0,0
3512000,2.0333948e-06,-2.1803885e-06,8.143516e-12,0.9768958,1.0726527e-06,-2.2771414e-06,0.21373738,0.0,0.0,0.0,0.0,0
3524000,2.0333948e-06,-2.1803885e-06,8.133604e-12,0.9768958,1.0762226e-06,-2.2856814e-06,0.21373738,0.0,0.0,0.0,0.0,0
3536000,2.0333948e-06,-2.1803885e-06,8.123692e-12,0.9768958,1.0797763e-06,-2.2942247e-06,0.21373738,0.0,0.0,0.0,0.0,0
3548000,2.0333948e-06,-2.1803885e-06,8.11378e-12,0.9768958,1.0833152e-06,-2.3027715e-06,0.21373738,0.0,0.0,0.0,0.0,0
3560000,2.0333948e-06,-2.1803885e-06,8.103868e-12,0.9768958,1.08684e-06,-2.3113212e-06,0.21373738,0.0,0.0,0.0,0.0,0
3572000,2.0333948e-06,-2.1803883e-06,8.093956e-12,0.9768958,1.0903519e-06,-2.3198738e-06,0.21373738,0.0,0.0,0.0,0.0,0
3584000,2.0333948e-06,-2.1803883e-06,8.084044e-12,0.9768958,1.0938518e-06,-2.328429e-06,0.21373738,0.0,0.0,0.0,0.0,0
3596000,2.0333948e-06,-2.1803883e-06,8.074132e-12,0.9768958,1.0677429e-06,-2.3434623e-06,0.21373738,0.0,0.0,0.0,0.0,0
3608000,2.0333948e-06,-2.1803883e-06,8.064219e-12,0.9768958,1.0718578e-06,-2.351883e-06,0.21373738,0.0,0.0,0.0,0.0,0
3620000,2.0333948e-06,-2.1803883e-06,8.054307e-12,0.9768958,1.0759301e-06,-2.360313e-06,0.21373738,0.0,0.0,0.0,0.0,0
3632000,2.0333948e-06,-2.1803883e-06,8.044395e-12,0.9768958,1.0799607e-06,-2.368752e-06,0.21373738,0.0,0.0,0.0,0.0,0
3644000,2.0333948e-06,-2.1803883e-06,8.034483e-12,0.9768958,1.0839512e-06,-2.3772e-06,0.21373738,0.0,0.0,0.0,0.0,0
3656000,2.0333948e-06,-2.1803883e-06,8.0245715e-12,0.9768958,1.0879029e-06,-2.3856562e-06,0.21373738,0.0,0.0,0.0,0.0,0
3668000,2.0333948e-06,-2.1803883e-06,8.014659e-12,0.9768958,1.0918171e-06,-2.3941209e-06,0.21373738,0.0,0.0,0.0,0.0,0
3680000,2.0333948e-06,-2.1803883e-06,8.004747e-12,0.9768958,1.0956957e-06,-2.402593e-06,0.21373738,0.0,0.0,0.0,0.0,0
3688000,2.0333948e-06,-2.1803883e-06,7.998139e-12,0.9768958,1.1080597e-06,-2.4061019e-06,0.21373738,0.0,0.0,0.0,0.0,0
3704000,2.0333948e-06,-2.1803883e-06,7.984923e-12,0.9768958,1.103352e-06,-2.41956e-06,0.21373738,0.0,0.0,0.0,0.0,0
3716000,2.0333948e-06,-2.1803883e-06,7.97501e-12,0.9768958,1.1071331e-06,-2.4280534e-06,0.21373738,0.0,0.0,0.0,0.0,0
3728000,2.0333948e-06,-2.1803883e-06,7.965098e-12,0.9768958,1.1108849e-06,-2.4365536e-06,0.21373738,0.0,0.0,0.0,0.0,0
3740000,2.0333948e-06,-2.1803883e-06,7.955187e-12,0.9768958,1.1146093e-06,-2.4450596e-06,0.21373738,0.0,0.0,0.0,0.0,0
3752000,2.0333948e-06,-2.1803883e-06,7.945275e-12,0.9768958,1.1183075e-06,-2.4535716e-06,0.21373738,0.0,0.0,0.0,0.0,0
3764000,2.0333948e-06,-2.1803883e-06,7.9353624e-12,0.9768958,1.1219814e-06,-2.4620886e-06,0.21373738,0.0,0.0,0.0,0.0,0
3776000,2.0333948e-06,-2.1803883e-06,7.92545e-12,0.9768958,1.1256323e-06,-2.4706108e-06,0.21373738,0.0,0.0,0.0,0.0,0
3788000,2.0333948e-06,-2.1803883e-06,7.915538e-12,0.9768958,1.1292616e-06,-2.4791377e-06,0.21373738,0.0,0.0,0.0,0.0,0
3800000,2.0333948e-06,-2.1803883e-06,7.905626e-12,0.9768958,1.1328708e-06,-2.487669e-06,0.21373738,0.0,0.0,0.0,0.0,0
3812000,2.0333948e-06,-2.1803883e-06,7.895714e-12,0.9768958,1.1364612e-06,-2.4962044e-06,0.21373738,0.0,0.0,0.0,0.0,0
3824000,2.0333946e-06,-2.1803883e-06,7.885802e-12,0.9768958,1.1400339e-06,-2.5047436e-06,0.21373738,0.0,0.0,0.0,0.0,0
3836000,2.0333946e-06,-2.1803883e-06,7.87589e-12,0.9768958,1.1435903e-06,-2.5132865e-06,0.21373738,0.0,0.0,0.0,0.0,0
3844000,2.0333948e-06,-2.1803883e-06,7.869282e-12,0.9768958,1.1557283e-06,-2.5168447e-06,0.21373738,0.0,0.0,0.0,0.0,0
3860000,2.0333946e-06,-2.1803883e-06,7.856066e-12,0.9768958,1.1506584e-06,-2.530382e-06,0.21373738,0.0,0.0,0.0,0.0,0
3872000,2.0333946e-06,-2.1803883e-06,7.846153e-12,0.9768958,1.1541721e-06,-2.538934e-06,0.21373738,0.0,0.0,0.0,0.0,0
3884000,2.0333946e-06,-2.1803883e-06,7.836241e-12,0.9768958,1.1576735e-06,-2.547489e-06,0.21373738,0.0,0.0,0.0,0.0,0
3896000,2.0333948e-06,-2.1803883e-06,7.82633e-12,0.9768958,1.1611637e-06,-2.5560464e-06,0.21373738,0.0,0.0,0.0,0.0,0
3908000,2.0333948e-06,-2.1803883e-06,7.816418e-12,0.9768958,1.1652804e-06,-2.5644665e-06,0.21373738,0.0,0.0,0.0,0.0,0
3920000,2.0333948e-06,-2.1803883e-06,7.8065054e-12,0.9768958,1.1693559e-06,-2.572896e-06,0.21373738,0.0,0.0,0.0,0.0,0
3932000,2.0333948e-06,-2.1803883e-06,7.796593e-12,0.9768958,1.1733908e-06,-2.581334e-06,0.21373738,0.0,0.0,0.0,0.0,0
3944000,2.0333948e-06,-2.1803883e-06,7.786681e-12,0.9768958,1.1773865e-06,-2.5897807e-06,0.21373738,0.0,0.0,0.0,0.0,0
3956000,2.0333948e-06,-2.1803883e-06,7.776769e-12,0.9768958,1.181344e-06,-2.5982358e-06,0.21373738,0.0,0.0,0.0,0.0,0
3964000,2.0333948e-06,-2.1803883e-06,7.770161e-12,0.9768958,1.1940067e-06,-2.6016792e-06,0.21373738,0.0,0.0,0.0,0.0,0
3980000,2.0333946e-06,-2.180388e-06,7.756945e-12,0.9768958,1.1891502e-06,-2.6151697e-06,0.21373738,0.0,0.0,0.0,0.0,0
3992000,2.0333946e-06,-2.180388e-06,7.747033e-12,0.9768958,1.1930018e-06,-2.623648e-06,0.21373738,0.0,0.0,0.0,0.0,0
4004000,2.0333946e-06,-2.180388e-06,7.737121e-12,0.9768958,1.196821e-06,-2.6321334e-06,0.21373738,0.0,0.0,0.0,0.0,0
4015999,2.0333946e-06,-2.180388e-06,7.727209e-12,0.9768958,1.2006094e-06,-2.6406253e-06,0.21373738,0.0,0.0,0.0,0.0,0
4028000,2.0333946e-06,-2.180388e-06,7.717296e-12,0.9768958,1.2043687e-06,-2.6491239e-06,0.21373738,0.0,0.0,0.0,0.0,0
4036000,2.0333946e-06,-2.180388e-06,7.710689e-12,0.9768958,1.2169563e-06,-2.6525838e-06,0.21373738,0.0,0.0,0.0,0.0,0
4052000,2.0333946e-06,-2.180388e-06,7.697472e-12,0.9768958,1.2118056e-06,-2.6661387e-06,0.21373738,0.0,0.0,0.0,0.0,0
4063999,2.0333946e-06,-2.180388e-06,7.687561e-12,0.9768958,1.2154863e-06,-2.6746543e-06,0.21373738,0.0,0.0,0.0,0.0,0
4071999,2.0333946e-06,-2.180388e-06,7.680952e-12,0.9768958,1.2280466e-06,-2.6781202e-06,0.21373738,0.0,0.0,0.0,0.0,0
4084000,2.0333946e-06,-2.180388e-06,7.67104e-12,0.9768958,1.2316963e-06,-2.6866426e-06,0.21373738,0.0,0.0,0.0,0.0,0
4100000,2.0333946e-06,-2.180388e-06,7.657824e-12,0.9768958,1.2263949e-06,-2.7002304e-06,0.21373738,0.0,0.0,0.0,0.0,0
4111999,2.0333946e-06,-2.180388e-06,7.647912e-12,0.9768958,1.2299911e-06,-2.7087644e-06,0.21373738,0.0,0.0,0.0,0.0,0
4119999,2.0333946e-06,-2.180388e-06,7.641304e-12,0.9768958,1.242523e-06,-2.7122367e-06,0.21373738,0.0,0.0,0.0,0.0,0
4135999,2.0333946e-06,-2.180388e-06,7.628087e-12,0.9768958,1.2371311e-06,-2.7258443e-06,0.21373738,0.0,0.0,0.0,0.0,0
4148000,2.0333946e-06,-2.180388e-06,7.618176e-12,0.9768958,1.2406772e-06,-2.7343895e-06,0.21373738,0.0,0.0,0.0,0.0,0
4159999,2.0333946e-06,-2.180388e-06,7.608264e-12,0.9768958,1.2442089e-06,-2.7429376e-06,0.21373738,0.0,0.0,0.0,0.0,0
4172000,2.0333946e-06,-2.180388e-06,7.598352e-12,0.9768958,1.247727e-06,-2.7514889e-06,0.21373738,0.0,0.0,0.0,0.0,0
4183999,2.0333946e-06,-2.180388e-06,7.588439e-12,0.9768958,1.2512327e-06,-2.7600427e-06,0.21373738,0.0,0.0,0.0,0.0,0
4196000,2.0333946e-06,-2.180388e-06,7.578527e-12,0.9768958,1.2547266e-06,-2.7685992e-06,0.21373738,0.0,0.0,0.0,0.0,0
4208000,2.0333946e-06,-2.180388e-06,7.568615e-12,0.9768958,1.2588645e-06,-2.777015e-06,0.21373738,0.0,0.0,0.0,0.0,0
4220000,2.0333946e-06,-2.180388e-06,7.558704e-12,0.9768958,1.2629616e-06,-2.7854394e-06,0.21373738,0.0,0.0,0.0,0.0,0
4232000,2.0333946e-06,-2.180388e-06,7.5487915e-12,0.9768958,1.2670187e-06,-2.7938727e-06,0.21373738,0.0,0.0,0.0,0.0,0
4244000,2.0333946e-06,-2.180388e-06,7.538879e-12,0.9768958,1.2710361e-06,-2.8023146e-06,0.21373738,0.0,0.0,0.0,0.0,0
4256000,2.0333946e-06,-2.180388e-06,7.528967e-12,0.9768958,1.2750154e-06,-2.810765e-06,0.21373738,0.0,0.0,0.0,0.0,0
4268000,2.0333946e-06,-2.180388e-06,7.519055e-12,0.9768958,1.2789576e-06,-2.8192235e-06,0.21373738,0.0,0.0,0.0,0.0,0
4280000,2.0333946e-06,-2.180388e-06,7.509143e-12,0.9768958,1.2828639e-06,-2.8276897e-06,0.21373738,0.0,0.0,0.0,0.0,0
4292000,2.0333946e-06,-2.180388e-06,7.49923e-12,0.9768958,1.2867357e-06,-2.8361635e-06,0.21373738,0.0,0.0,0.0,0.0,0
4304000,2.0333946e-06,-2.180388e-06,7.489319e-12,0.9768958,1.2905745e-06,-2.8446445e-06,0.21373738,0.0,0.0,0.0,0.0,0
4316000,2.0333946e-06,-2.180388e-06,7.479407e-12,0.9768958,1.2943818e-06,-2.8531324e-06,0.21373738,0.0,0.0,0.0,0.0,0
4328000,2.0333946e-06,-2.180388e-06,7.469495e-12,0.9768958,1.2981591e-06,-2.861627e-06,0.21373738,0.0,0.0,0.0,0.0,0
4340000,2.0333946e-06,-2.180388e-06,7.459582e-12,0.9768958,1.3019079e-06,-2.8701277e-06,0.21373738,0.0,0.0,0.0,0.0,0
4352000,2.0333946e-06,-2.180388e-06,7.44967e-12,0.9768958,1.3056298e-06,-2.8786344e-06,0.21373738,0.0,0.0,0.0,0.0,0
4364000,2.0333946e-06,-2.180388e-06,7.439758e-12,0.9768958,1.3093261e-06,-2.8871466e-06,0.21373738,0.0,0.0,0.0,0.0,0
4376000,2.0333946e-06,-2.180388e-06,7.429847e-12,0.9768958,1.3129984e-06,-2.895664e-06,0.21373738,0.0,0.0,0.0,0.0,0
4388000,2.0333946e-06,-2.1803878e-06,7.4199345e-12,0.9768958,1.3166482e-06,-2.9041864e-06,0.21373738,0.0,0.0,0.0,0.0,0
4400000,2.0333946e-06,-2.1803878e-06,7.410022e-12,0.9768958,1.3202766e-06,-2.9127136e-06,0.21373738,0.0,0.0,0.0,0.0,0
4412000,2.0333946e-06,-2.1803878e-06,7.40011e-12,0.9768958,1.3238853e-06,-2.921245e-06,0.21373738,0.0,0.0,0.0,0.0,0
4424000,2.0333946e-06,-2.1803878e-06,7.390198e-12,0.9768958,1.3274752e-06,-2.9297805e-06,0.21373738,0.0,0.0,0.0,0.0,0
4436000,2.0333946e-06,-2.1803878e-06,7.380286e-12,0.9768958,1.3310478e-06,-2.9383198e-06,0.21373738,0.0,0.0,0.0,0.0,0
4448000,2.0333946e-06,-2.1803878e-06,7.370373e-12,0.9768958,1.3346041e-06,-2.9468627e-06,0.21373738,0.0,0.0,0.0,0.0,0
4460000,2.0333946e-06,-2.1803878e-06,7.360462e-12,0.9768958,1.3381452e-06,-2.9554087e-06,0.21373738,0.0,0.0,0.0,0.0,0
4472000,2.0333946e-06,-2.1803878e-06,7.35055e-12,0.9768958,1.3416723e-06,-2.963958e-06,0.21373738,0.0,0.0,0.0,0.0,0
4484000,2.0333946e-06,-2.1803878e-06,7.340638e-12,0.9768958,1.3451862e-06,-2.9725102e-06,0.21373738,0.0,0.0,0.0,0.0,0
4496000,2.0333946e-06,-2.1803878e-06,7.3307254e-12,0.9768958,1.3486879e-06,-2.981065e-06,0.21373738,0.0,0.0,0.0,0.0,0
4508000,2.0333946e-06,-2.1803878e-06,7.320813e-12,0.9768958,1.3521783e-06,-2.9896223e-06,0.21373738,0.0,0.0,0.0,0.0,0
4520000,2.0333946e-06,-2.1803878e-06,7.310901e-12,0.9768958,1.3260607e-06,-3.0046576e-06,0.21373738,0.0,0.0,0.0,0.0,0
4532000,2.0333946e-06,-2.1803878e-06,7.300989e-12,0.9768958,1.3301698e-06,-3.0130795e-06,0.21373738,0.0,0.0,0.0,0.0,0
4544000,2.0333946e-06,-2.1803878e-06,7.2910775e-12,0.9768958,1.3342363e-06,-3.0215108e-06,0.21373738,0.0,0.0,0.0,0.0,0
4556000,2.0333944e-06,-2.1803878e-06,7.281165e-12,0.9768958,1.3382615e-06,-3.029951e-06,0.21373738,0.0,0.0,0.0,0.0,0
4568000,2.0333944e-06,-2.1803878e-06,7.271253e-12,0.9768958,1.3422466e-06,-3.0384e-06,0.21373738,0.0,0.0,0.0,0.0,0
4580000,2.0333944e-06,-2.1803878e-06,7.261341e-12,0.9768958,1.3461931e-06,-3.0468575e-06,0.21373738,0.0,0.0,0.0,0.0,0
4592000,2.0333944e-06,-2.1803878e-06,7.2514286e-12,0.9768958,1.3501025e-06,-3.055323e-06,0.21373738,0.0,0.0,0.0,0.0,0
4604000,2.0333944e-06,-2.1803878e-06,7.241517e-12,0.9768958,1.3539764e-06,-3.0637964e-06,0.21373738,0.0,0.0,0.0,0.0,0
4616000,2.0333944e-06,-2.1803878e-06,7.2316046e-12,0.9768958,1.3578162e-06,-3.0722772e-06,0.21373738,0.0,0.0,0.0,0.0,0
4628000,2.0333944e-06,-2.1803878e-06,7.2216924e-12,0.9768958,1.361624e-06,-3.080765e-06,0.21373738,0.0,0.0,0.0,0.0,0
4640000,2.0333944e-06,-2.1803878e-06,7.2117807e-12,0.9768958,1.365401e-06,-3.0892597e-06,0.21373738,0.0,0.0,0.0,0.0,0
4652000,2.0333944e-06,-2.1803878e-06,7.2018684e-12,0.9768958,1.369149e-06,-3.0977606e-06,0.21373738,0.0,0.0,0.0,0.0,0
4664000,2.0333944e-06,-2.1803878e-06,7.1919562e-12,0.9768958,1.3728697e-06,-3.1062675e-06,0.21373738,0.0,0.0,0.0,0.0,0
4676000,2.0333944e-06,-2.1803878e-06,7.1820445e-12,0.9768958,1.3765647e-06,-3.1147802e-06,0.21373738,0.0,0.0,0.0,0.0,0
4688000,2.0333944e-06,-2.1803878e-06,7.1721322e-12,0.9768958,1.3802353e-06,-3.1232978e-06,0.21373738,0.0,0.0,0.0,0.0,0
4700000,2.0333944e-06,-2.1803878e-06,7.16222e-12,0.9768958,1.3838832e-06,-3.1318207e-06,0.21373738,0.0,0.0,0.0,0.0,0
4712000,2.0333944e-06,-2.1803878e-06,7.1523083e-12,0.9768958,1.3875097e-06,-3.140348e-06,0.21373738,0.0,0.0,0.0,0.0,0
4724000,2.0333944e-06,-2.1803878e-06,7.142396e-12,0.9768958,1.3911163e-06,-3.14888e-06,0.21373738,0.0,0.0,0.0,0.0,0
4736000,2.0333944e-06,-2.1803878e-06,7.132484e-12,0.9768958,1.3947042e-06,-3.157416e-06,0.21373738,0.0,0.0,0.0,0.0,0
4748000,2.0333944e-06,-2.1803878e-06,7.122572e-12,0.9768958,1.3982747e-06,-3.1659558e-06,0.21373738,0.0,0.0,0.0,0.0,0
4760000,2.0333944e-06,-2.1803878e-06,7.11266e-12,0.9768958,1.401829e-06,-3.1744992e-06,0.21373738,0.0,0.0,0.0,0.0,0
4772000,2.0333944e-06,-2.1803876e-06,7.1027476e-12,0.9768958,1.405368e-06,-3.1830457e-06,0.21373738,0.0,0.0,0.0,0.0,0
4784000,2.0333944e-06,-2.1803876e-06,7.0928354e-12,0.9768958,1.4088932e-06,-3.1915954e-06,0.21373738,0.0,0.0,0.0,0.0,0
4796000,2.0333944e-06,-2.1803876e-06,7.0829237e-12,0.9768958,1.4124053e-06,-3.2001478e-06,0.21373738,0.0,0.0,0.0,0.0,0
4808000,2.0333944e-06,-2.1803876e-06,7.0730114e-12,0.9768958,1.4159051e-06,-3.2087032e-06,0.21373738,0.0,0.0,0.0,0.0,0
4820000,2.0333944e-06,-2.1803876e-06,7.0630997e-12,0.9768958,1.4193938e-06,-3.2172609e-06,0.21373738,0.0,0.0,0.0,0.0,0
4832000,2.0333944e-06,-2.1803876e-06,7.0531875e-12,0.9768958,1.4235096e-06,-3.2256812e-06,0.21373738,0.0,0.0,0.0,0.0,0
4844000,2.0333944e-06,-2.1803876e-06,7.0432753e-12,0.9768958,1.427584e-06,-3.2341106e-06,0.21373738,0.0,0.0,0.0,0.0,0
4856000,2.0333944e-06,-2.1803876e-06,7.033363e-12,0.9768958,1.4316181e-06,-3.242549e-06,0.21373738,0.0,0.0,0.0,0.0,0
4868000,2.0333944e-06,-2.1803876e-06,7.0234513e-12,0.9768958,1.435613e-06,-3.2509959e-06,0.21373738,0.0,0.0,0.0,0.0,0
4876000,2.0333944e-06,-2.1803876e-06,7.0168433e-12,0.9768958,1.4482908e-06,-3.254436e-06,0.21373738,0.0,0.0,0.0,0.0,0
4892000,2.0333944e-06,-2.1803876e-06,7.003627e-12,0.9768958,1.4434896e-06,-3.2679145e-06,0.21373738,0.0,0.0,0.0,0.0,0
4904000,2.0333944e-06,-2.1803876e-06,6.993715e-12,0.9768958,1.4473743e-06,-3.2763855e-06,0.21373738,0.0,0.0,0.0,0.0,0
4916000,2.0333944e-06,-2.1803876e-06,6.983803e-12,0.9768958,1.4512251e-06,-3.2848639e-06,0.21373738,0.0,0.0,0.0,0.0,0
4928000,2.0333944e-06,-2.1803876e-06,6.9738906e-12,0.9768958,1.4550436e-06,-3.2933494e-06,0.21373738,0.0,0.0,0.0,0.0,0
4936000,2.0333944e-06,-2.1803876e-06,6.9672827e-12,0.9768958,1.4676527e-06,-3.2968046e-06,0.21373738,0.0,0.0,0.0,0.0,0
4952000,2.0333944e-06,-2.1803876e-06,6.9540667e-12,0.9768958,1.4625899e-06,-3.3103402e-06,0.21373738,0.0,0.0,0.0,0.0,0
4960000,2.0333944e-06,-2.1803876e-06,6.9474587e-12,0.9768958,1.4751774e-06,-3.3138e-06,0.21373738,0.0,0.0,0.0,0.0,0
4976000,2.0333944e-06,-2.1803876e-06,6.9342427e-12,0.9768958,1.4700257e-06,-3.3273552e-06,0.21373738,0.0,0.0,0.0,0.0,0
4988000,2.0333944e-06,-2.1803876e-06,6.9243305e-12,0.9768958,1.4737059e-06,-3.335871e-06,0.21373738,0.0,0.0,0.0,0.0,0
5000000,2.0333944e-06,-2.1803876e-06,6.9144183e-12,0.9768958,1.4773628e-06,-3.3443919e-06,0.21373738,0.0,0.0,0.0,0.0,0
5012000,2.0333944e-06,-2.1803876e-06,6.9045065e-12,0.9768958,1.4809982e-06,-3.3529175e-06,0.21373738,0.0,0.0,0.0,0.0,0
5020000,2.0333944e-06,-2.1803876e-06,6.8978985e-12,0.9768958,1.4935431e-06,-3.3563867e-06,0.21373738,0.0,0.0,0.0,0.0,0
5036000,2.0333944e-06,-2.1803876e-06,6.884682e-12,0.9768958,1.4882088e-06,-3.3699816e-06,0.21373738,0.0,0.0,0.0,0.0,0
5044000,2.0333944e-06,-2.1803876e-06,6.878074e-12,0.9768958,1.5007406e-06,-3.3734539e-06,0.21373738,0.0,0.0,0.0,0.0,0
5060000,2.0333944e-06,-2.1803876e-06,6.864858e-12,0.9768958,1.4953481e-06,-3.3870615e-06,0.21373738,0.0,0.0,0.0,0.0,0
5072000,2.0333944e-06,-2.1803876e-06,6.854946e-12,0.9768958,1.4988939e-06,-3.3956067e-06,0.21373738,0.0,0.0,0.0,0.0,0
5084000,2.0333944e-06,-2.1803876e-06,6.845034e-12,0.9768958,1.5024252e-06,-3.404155e-06,0.21373738,0.0,0.0,0.0,0.0,0
5096000,2.0333944e-06,-2.1803876e-06,6.835122e-12,0.9768958,1.505943e-06,-3.4127063e-06,0.21373738,0.0,0.0,0.0,0.0,0
5108000,2.0333944e-06,-2.1803876e-06,6.8252097e-12,0.9768958,1.5094485e-06,-3.4212603e-06,0.21373738,0.0,0.0,0.0,0.0,0
5116000,2.0333944e-06,-2.1803876e-06,6.8186017e-12,0.9768958,1.5219512e-06,-3.4247387e-06,0.21373738,0.0,0.0,0.0,0.0,0
5132000,2.0333944e-06,-2.1803876e-06,6.8053857e-12,0.9768958,1.5170799e-06,-3.4382326e-06,0.21373738,0.0,0.0,0.0,0.0,0
5144000,2.0333944e-06,-2.1803876e-06,6.7954735e-12,0.9768958,1.5211768e-06,-3.446657e-06,0.21373738,0.0,0.0,0.0,0.0,0
5156000,2.0333944e-06,-2.1803876e-06,6.7855617e-12,0.9768958,1.5252336e-06,-3.4550903e-06,0.21373738,0.0,0.0,0.0,0.0,0
5168000,2.0333944e-06,-2.1803876e-06,6.7756495e-12,0.9768958,1.5292511e-06,-3.4635325e-06,0.21373738,0.0,0.0,0.0,0.0,0
5180000,2.0333944e-06,-2.1803876e-06,6.7657373e-12,0.9768958,1.5332303e-06,-3.4719828e-06,0.21373738,0.0,0.0,0.0,0.0,0
5192000,2.0333944e-06,-2.1803874e-06,6.7558255e-12,0.9768958,1.5371722e-06,-3.4804411e-06,0.21373738,0.0,0.0,0.0,0.0,0
5204000,2.0333944e-06,-2.1803874e-06,6.7459133e-12,0.9768958,1.5410784e-06,-3.4889076e-06,0.21373738,0.0,0.0,0.0,0.0,0
5216000,2.0333944e-06,-2.1803874e-06,6.736001e-12,0.9768958,1.5449501e-06,-3.4973814e-06,0.21373738,0.0,0.0,0.0,0.0,0
5228000,2.0333944e-06,-2.1803874e-06,6.7260893e-12,0.9768958,1.5487888e-06,-3.5058624e-06,0.21373738,0.0,0.0,0.0,0.0,0
5240000,2.0333944e-06,-2.1803874e-06,6.716177e-12,0.9768958,1.552596e-06,-3.5143505e-06,0.21373738,0.0,0.0,0.0,0.0,0
5252000,2.0333944e-06,-2.1803874e-06,6.706265e-12,0.9768958,1.5563731e-06,-3.522845e-06,0.21373738,0.0,0.0,0.0,0.0,0
5264000,2.0333944e-06,-2.1803874e-06,6.696353e-12,0.9768958,1.5601219e-06,-3.5313458e-06,0.21373738,0.0,0.0,0.0,0.0,0
5276000,2.0333944e-06,-2.1803874e-06,6.686441e-12,0.9768958,1.5638436e-06,-3.5398523e-06,0.21373738,0.0,0.0,0.0,0.0,0
5288000,2.0333944e-06,-2.1803874e-06,6.6765287e-12,0.9768958,1.5675399e-06,-3.5483647e-06,0.21373738,0.0,0.0,0.0,0.0,0
5300000,2.0333944e-06,-2.1803874e-06,6.666617e-12,0.9768958,1.5712121e-06,-3.5568821e-06,0.21373738,0.0,0.0,0.0,0.0,0
5312000,2.0333944e-06,-2.1803874e-06,6.6567047e-12,0.9768958,1.5748618e-06,-3.5654045e-06,0.21373738,0.0,0.0,0.0,0.0,0
5324000,2.0333944e-06,-2.1803874e-06,6.6467925e-12,0.9768958,1.5784901e-06,-3.5739317e-06,0.21373738,0.0,0.0,0.0,0.0,0
5332000,2.0333941e-06,-2.1803874e-06,6.6401845e-12,0.9768958,1.5609837e-06,-3.583976e-06,0.21373738,0.0,0.0,0.0,0.0,0
5348000,2.0333944e-06,-2.1803874e-06,6.6269685e-12,0.9768958,1.5856886e-06,-3.5909986e-06,0.21373738,0.0,0.0,0.0,0.0,0
5360000,2.0333944e-06,-2.1803874e-06,6.6170563e-12,0.9768958,1.589261e-06,-3.5995379e-06,0.21373738,0.0,0.0,0.0,0.0,0
5372000,2.0333944e-06,-2.1803874e-06,6.6071445e-12,0.9768958,1.5928174e-06,-3.6080808e-06,0.21373738,0.0,0.0,0.0,0.0,0
5384000,2.0333944e-06,-2.1803874e-06,6.5972323e-12,0.9768958,1.5963584e-06,-3.6166268e-06,0.21373738,0.0,0.0,0.0,0.0,0
5396000,2.0333944e-06,-2.1803874e-06,6.58732e-12,0.9768958,1.5998854e-06,-3.6251763e-06,0.21373738,0.0,0.0,0.0,0.0,0
5408000,2.0333944e-06,-2.1803874e-06,6.5774083e-12,0.9768958,1.6033993e-06,-3.6337283e-06,0.21373738,0.0,0.0,0.0,0.0,0
5420000,2.0333944e-06,-2.1803874e-06,6.567496e-12,0.9768958,1.6069009e-06,-3.6422832e-06,0.21373738,0.0,0.0,0.0,0.0,0
5432000,2.0333941e-06,-2.1803874e-06,6.557584e-12,0.9768958,1.5807939e-06,-3.6573163e-06,0.21373738,0.0,0.0,0.0,0.0,0
5444000,2.0333941e-06,-2.1803874e-06,6.547672e-12,0.9768958,1.5849099e-06,-3.6657366e-06,0.21373738,0.0,0.0,0.0,0.0,0
5456000,2.0333941e-06,-2.1803874e-06,6.53776e-12,0.9768958,1.5889833e-06,-3.6741662e-06,0.21373738,0.0,0.0,0.0,0.0,0
5468000,2.0333941e-06,-2.1803874e-06,6.5278477e-12,0.9768958,1.5930151e-06,-3.6826052e-06,0.21373738,0.0,0.0,0.0,0.0,0
5480000,2.0333941e-06,-2.1803874e-06,6.517936e-12,0.9768958,1.5970065e-06,-3.6910528e-06,0.21373738,0.0,0.0,0.0,0.0,0
5492000,2.0333941e-06,-2.1803874e-06,6.5080237e-12,0.9768958,1.6009592e-06,-3.6995089e-06,0.21373738,0.0,0.0,0.0,0.0,0
5504000,2.0333941e-06,-2.1803874e-06,6.4981115e-12,0.9768958,1.6048745e-06,-3.7079733e-06,0.21373738,0.0,0.0,0.0,0.0,0
5516000,2.0333941e-06,-2.1803874e-06,6.4881997e-12,0.9768958,1.6087539e-06,-3.7164455e-06,0.21373738,0.0,0.0,0.0,0.0,0
5528000,2.0333941e-06,-2.1803874e-06,6.4782875e-12,0.9768958,1.6125991e-06,-3.724925e-06,0.21373738,0.0,0.0,0.0,0.0,0
5540000,2.0333941e-06,-2.1803874e-06,6.4683753e-12,0.9768958,1.616412e-06,-3.7334119e-06,0.21373738,0.0,0.0,0.0,0.0,0
5552000,2.0333941e-06,-2.1803874e-06,6.4584635e-12,0.9768958,1.6201938e-06,-3.7419052e-06,0.21373738,0.0,0.0,0.0,0.0,0
5564000,2.0333941e-06,-2.1803874e-06,6.4485513e-12,0.9768958,1.6239464e-06,-3.750405e-06,0.21373738,0.0,0.0,0.0,0.0,0
5576000,2.0333941e-06,-2.1803871e-06,6.438639e-12,0.9768958,1.6276714e-06,-3.7589111e-06,0.21373738,0.0,0.0,0.0,0.0,0
5588000,2.0333941e-06,-2.1803871e-06,6.4287273e-12,0.9768958,1.6313704e-06,-3.7674229e-06,0.21373738,0.0,0.0,0.0,0.0,0
5600000,2.0333941e-06,-2.1803871e-06,6.418815e-12,0.9768958,1.6350449e-06,-3.7759398e-06,0.21373738,0.0,0.0,0.0,0.0,0
5612000,2.0333941e-06,-2.1803871e-06,6.408903e-12,0.9768958,1.6386963e-06,-3.7844618e-06,0.21373738,0.0,0.0,0.0,0.0,0
5624000,2.0333941e-06,-2.1803871e-06,6.398991e-12,0.9768958,1.6423262e-06,-3.7929885e-06,0.21373738,0.0,0.0,0.0,0.0,0
5636000,2.0333941e-06,-2.1803871e-06,6.389079e-12,0.9768958,1.6459359e-06,-3.8015198e-06,0.21373738,0.0,0.0,0.0,0.0,0
5644000,2.0333941e-06,-2.1803871e-06,6.382471e-12,0.9768958,1.6581088e-06,-3.8050703e-06,0.21373738,0.0,0.0,0.0,0.0,0
5660000,2.0333941e-06,-2.1803871e-06,6.369255e-12,0.9768958,1.6531e-06,-3.818594e-06,0.21373738,0.0,0.0,0.0,0.0,0
5672000,2.0333941e-06,-2.1803871e-06,6.3593427e-12,0.9768958,1.6566568e-06,-3.827137e-06,0.21373738,0.0,0.0,0.0,0.0,0
5684000,2.0333941e-06,-2.1803871e-06,6.3494305e-12,0.9768958,1.6601983e-06,-3.835683e-06,0.21373738,0.0,0.0,0.0,0.0,0
5696000,2.0333941e-06,-2.1803871e-06,6.3395188e-12,0.9768958,1.6637256e-06,-3.844232e-06,0.21373738,0.0,0.0,0.0,0.0,0
5708000,2.0333941e-06,-2.1803871e-06,6.3296065e-12,0.9768958,1.6672396e-06,-3.852784e-06,0.21373738,0.0,0.0,0.0,0.0,0
5720000,2.0333941e-06,-2.1803871e-06,6.3196948e-12,0.9768958,1.6707414e-06,-3.8613393e-06,0.21373738,0.0,0.0,0.0,0.0,0
5732000,2.0333941e-06,-2.1803871e-06,6.3097826e-12,0.9768958,1.6742318e-06,-3.8698963e-06,0.21373738,0.0,0.0,0.0,0.0,0
5744000,2.0333941e-06,-2.1803871e-06,6.2998703e-12,0.9768958,1.6777118e-06,-3.878456e-06,0.21373738,0.0,0.0,0.0,0.0,0
5756000,2.0333941e-06,-2.1803871e-06,6.2899586e-12,0.9768958,1.6818219e-06,-3.8868775e-06,0.21373738,0.0,0.0,0.0,0.0,0
5768000,2.0333941e-06,-2.1803871e-06,6.2800464e-12,0.9768958,1.6858909e-06,-3.8953085e-06,0.21373738,0.0,0.0,0.0,0.0,0
5776000,2.0333941e-06,-2.1803871e-06,6.2734384e-12,0.9768958,1.6986004e-06,-3.8987414e-06,0.21373738,0.0,0.0,0.0,0.0,0
5792000,2.0333941e-06,-2.1803871e-06,6.2602224e-12,0.9768958,1.6939092e-06,-3.912196e-06,0.21373738,0.0,0.0,0.0,0.0,0
5804000,2.0333941e-06,-2.1803871e-06,6.25031e-12,0.9768958,1.6978609e-06,-3.9206525e-06,0.21373738,0.0,0.0,0.0,0.0,0
5812000,2.0333941e-06,-2.1803871e-06,6.243702e-12,0.9768958,1.7105211e-06,-3.9240963e-06,0.21373738,0.0,0.0,0.0,0.0,0
5828000,2.0333941e-06,-2.1803871e-06,6.230486e-12,0.9768958,1.705656e-06,-3.9375886e-06,0.21373738,0.0,0.0,0.0,0.0,0
5840000,2.0333941e-06,-2.1803871e-06,6.220574e-12,0.9768958,1.7095024e-06,-3.946068e-06,0.21373738,0.0,0.0,0.0,0.0,0
5852000,2.0333941e-06,-2.1803871e-06,6.2106618e-12,0.9768958,1.7133166e-06,-3.9545544e-06,0.21373738,0.0,0.0,0.0,0.0,0
5864000,2.0333941e-06,-2.1803871e-06,6.20075e-12,0.9768958,1.7171003e-06,-3.9630477e-06,0.21373738,0.0,0.0,0.0,0.0,0
5876000,2.0333941e-06,-2.1803871e-06,6.1908378e-12,0.9768958,1.7208552e-06,-3.971547e-06,0.21373738,0.0,0.0,0.0,0.0,0
5888000,2.0333941e-06,-2.1803871e-06,6.1809256e-12,0.9768958,1.7245824e-06,-3.9800525e-06,0.21373738,0.0,0.0,0.0,0.0,0
5900000,2.0333941e-06,-2.1803871e-06,6.171014e-12,0.9768958,1.7282838e-06,-3.9885635e-06,0.21373738,0.0,0.0,0.0,0.0,0
5912000,2.0333941e-06,-2.1803871e-06,6.1611016e-12,0.9768958,1.7319608e-06,-3.99708e-06,0.21373738,0.0,0.0,0.0,0.0,0
5924000,2.0333941e-06,-2.1803871e-06,6.1511894e-12,0.9768958,1.7356148e-06,-4.0056016e-06,0.21373738,0.0,0.0,0.0,0.0,0
5936000,2.0333941e-06,-2.1803871e-06,6.1412776e-12,0.9768958,1.7392473e-06,-4.0141276e-06,0.21373738,0.0,0.0,0.0,0.0,0
5944000,2.0333941e-06,-2.1803871e-06,6.1346696e-12,0.9768958,1.7517913e-06,-4.0175973e-06,0.21373738,0.0,0.0,0.0,0.0,0
5956000,2.0333941e-06,-2.1803871e-06,6.1247574e-12,0.9768958,1.7553967e-06,-4.0261293e-06,0.21373738,0.0,0.0,0.0,0.0,0
5972000,2.0333941e-06,-2.1803871e-06,6.1115414e-12,0.9768958,1.7500284e-06,-4.0397317e-06,0.21373738,0.0,0.0,0.0,0.0,0
5984000,2.0333941e-06,-2.180387e-06,6.101629e-12,0.9768958,1.7535875e-06,-4.048274e-06,0.21373738,0.0,0.0,0.0,0.0,0
5992000,2.0333941e-06,-2.1803871e-06,6.095021e-12,0.9768958,1.7661075e-06,-4.051749e-06,0.21373738,0.0,0.0,0.0,0.0,0
6008000,2.0333941e-06,-2.180387e-06,6.081805e-12,0.9768958,1.7606608e-06,-4.065368e-06,0.21373738,0.0,0.0,0.0,0.0,0
6020000,2.0333941e-06,-2.180387e-06,6.071893e-12,0.9768958,1.7641769e-06,-4.07392e-06,0.21373738,0.0,0.0,0.0,0.0,0
6032000,2.0333941e-06,-2.180387e-06,6.061981e-12,0.9768958,1.7676807e-06,-4.0824743e-06,0.21373738,0.0,0.0,0.0,0.0,0
6040000,2.0333941e-06,-2.180387e-06,6.055373e-12,0.9768958,1.7801829e-06,-4.0859527e-06,0.21373738,0.0,0.0,0.0,0.0,0
6056000,2.0333941e-06,-2.180387e-06,6.042157e-12,0.9768958,1.7753097e-06,-4.099447e-06,0.21373738,0.0,0.0,0.0,0.0,0
6068000,2.0333941e-06,-2.180387e-06,6.032245e-12,0.9768958,1.7794058e-06,-4.107872e-06,0.21373738,0.0,0.0,0.0,0.0,0
6080000,2.0333941e-06,-2.180387e-06,6.022333e-12,0.9768958,1.7834617e-06,-4.1163053e-06,0.21373738,0.0,0.0,0.0,0.0,0
6092000,2.0333941e-06,-2.180387e-06,6.012421e-12,0.9768958,1.7874783e-06,-4.1247476e-06,0.21373738,0.0,0.0,0.0,0.0,0
6104000,2.0333941e-06,-2.180387e-06,6.002509e-12,0.9768958,1.7914565e-06,-4.133198e-06,0.21373738,0.0,0.0,0.0,0.0,0
6116000,2.0333941e-06,-2.180387e-06,5.9925966e-12,0.9768958,1.7953977e-06,-4.1416565e-06,0.21373738,0.0,0.0,0.0,0.0,0
6128000,2.0333941e-06,-2.180387e-06,5.982685e-12,0.9768958,1.799303e-06,-4.150123e-06,0.21373738,0.0,0.0,0.0,0.0,0
6140000,2.0333941e-06,-2.180387e-06,5.9727726e-12,0.9768958,1.803174e-06,-4.158597e-06,0.21373738,0.0,0.0,0.0,0.0,0
6152000,2.0333941e-06,-2.180387e-06,5.9628604e-12,0.9768958,1.8070119e-06,-4.1670783e-06,0.21373738,0.0,0.0,0.0,0.0,0
6160000,2.033394e-06,-2.180387e-06,5.9562524e-12,0.9768958,1.7896832e-06,-4.1770836e-06,0.21373738,0.0,0.0,0.0,0.0,0
6176000,2.0333941e-06,-2.180387e-06,5.9430364e-12,0.9768958,1.8145951e-06,-4.1840613e-06,0.21373738,0.0,0.0,0.0,0.0,0
6188000,2.0333941e-06,-2.180387e-06,5.9331242e-12,0.9768958,1.8183431e-06,-4.1925623e-06,0.21373738,0.0,0.0,0.0,0.0,0
6200000,2.033394e-06,-2.180387e-06,5.9232124e-12,0.9768958,1.8220643e-06,-4.201069e-06,0.21373738,0.0,0.0,0.0,0.0,0
6212000,2.033394e-06,-2.180387e-06,5.9133002e-12,0.9768958,1.82576e-06,-4.209581e-06,0.21373738,0.0,0.0,0.0,0.0,0
6224000,2.033394e-06,-2.180387e-06,5.9033885e-12,0.9768958,1.8294317e-06,-4.2180986e-06,0.21373738,0.0,0.0,0.0,0.0,0
6236000,2.033394e-06,-2.180387e-06,5.8934762e-12,0.9768958,1.8330809e-06,-4.2266215e-06,0.21373738,0.0,0.0,0.0,0.0,0
6248000,2.033394e-06,-2.180387e-06,5.883564e-12,0.9768958,1.8367089e-06,-4.2351485e-06,0.21373738,0.0,0.0,0.0,0.0,0
6256000,2.033394e-06,-2.180387e-06,5.876956e-12,0.9768958,1.819202e-06,-4.245193e-06,0.21373738,0.0,0.0,0.0,0.0,0
6268000,2.033394e-06,-2.180387e-06,5.8670443e-12,0.9768958,1.8227923e-06,-4.253728e-06,0.21373738,0.0,0.0,0.0,0.0,0
6284000,2.033394e-06,-2.180387e-06,5.853828e-12,0.9768958,1.8474785e-06,-4.2607553e-06,0.21373738,0.0,0.0,0.0,0.0,0
6292000,2.033394e-06,-2.180387e-06,5.84722e-12,0.9768958,1.8299215e-06,-4.27081e-06,0.21373738,0.0,0.0,0.0,0.0,0
6308000,2.033394e-06,-2.180387e-06,5.834004e-12,0.9768958,1.8545752e-06,-4.2778443e-06,0.21373738,0.0,0.0,0.0,0.0,0
6320000,2.033394e-06,-2.180387e-06,5.8240916e-12,0.9768958,1.8581019e-06,-4.2863935e-06,0.21373738,0.0,0.0,0.0,0.0,0
6332000,2.033394e-06,-2.180387e-06,5.81418e-12,0.9768958,1.8616155e-06,-4.294946e-06,0.21373738,0.0,0.0,0.0,0.0,0
6344000,2.033394e-06,-2.180387e-06,5.8042677e-12,0.9768958,1.8651169e-06,-4.3035006e-06,0.21373738,0.0,0.0,0.0,0.0,0
6356000,2.033394e-06,-2.180387e-06,5.794356e-12,0.9768958,1.8390095e-06,-4.3185337e-06,0.21373738,0.0,0.0,0.0,0.0,0
6368000,2.033394e-06,-2.180387e-06,5.7844437e-12,0.9768958,1.8431255e-06,-4.3269542e-06,0.21373738,0.0,0.0,0.0,0.0,0
6380000,2.033394e-06,-2.180387e-06,5.7745315e-12,0.9768958,1.8471986e-06,-4.335384e-06,0.21373738,0.0,0.0,0.0,0.0,0
6392000,2.033394e-06,-2.1803867e-06,5.7646197e-12,0.9768958,1.8512302e-06,-4.3438226e-06,0.21373738,0.0,0.0,0.0,0.0,0
6404000,2.033394e-06,-2.1803867e-06,5.7547075e-12,0.9768958,1.8552216e-06,-4.3522705e-06,0.21373738,0.0,0.0,0.0,0.0,0
6416000,2.033394e-06,-2.1803867e-06,5.7447953e-12,0.9768958,1.8591741e-06,-4.3607265e-06,0.21373738,0.0,0.0,0.0,0.0,0
6428000,2.033394e-06,-2.1803867e-06,5.7348835e-12,0.9768958,1.8630892e-06,-4.369191e-06,0.21373738,0.0,0.0,0.0,0.0,0
6440000,2.033394e-06,-2.1803867e-06,5.7249713e-12,0.9768958,1.8669685e-06,-4.377663e-06,0.21373738,0.0,0.0,0.0,0.0,0
6452000,2.033394e-06,-2.1803867e-06,5.7150595e-12,0.9768958,1.8708137e-06,-4.386143e-06,0.21373738,0.0,0.0,0.0,0.0,0
6464000,2.033394e-06,-2.1803867e-06,5.7051473e-12,0.9768958,1.8746263e-06,-4.3946297e-06,0.21373738,0.0,0.0,0.0,0.0,0
6476000,2.033394e-06,-2.1803867e-06,5.695235e-12,0.9768958,1.878408e-06,-4.403123e-06,0.21373738,0.0,0.0,0.0,0.0,0
6488000,2.033394e-06,-2.1803867e-06,5.6853233e-12,0.9768958,1.8821606e-06,-4.411623e-06,0.21373738,0.0,0.0,0.0,0.0,0
6500000,2.033394e-06,-2.1803867e-06,5.675411e-12,0.9768958,1.8858855e-06,-4.4201292e-06,0.21373738,0.0,0.0,0.0,0.0,0
6512000,2.033394e-06,-2.1803867e-06,5.665499e-12,0.9768958,1.8895844e-06,-4.4286408e-06,0.21373738,0.0,0.0,0.0,0.0,0
6524000,2.033394e-06,-2.1803867e-06,5.655587e-12,0.9768958,1.8932587e-06,-4.4371577e-06,0.21373738,0.0,0.0,0.0,0.0,0
6536000,2.033394e-06,-2.1803867e-06,5.645675e-12,0.9768958,1.8969101e-06,-4.4456797e-06,0.21373738,0.0,0.0,0.0,0.0,0
6544000,2.033394e-06,-2.1803867e-06,5.639067e-12,0.9768958,1.909111e-06,-4.4492244e-06,0.21373738,0.0,0.0,0.0,0.0,0
6560000,2.033394e-06,-2.1803867e-06,5.625851e-12,0.9768958,1.9041496e-06,-4.4627377e-06,0.21373738,0.0,0.0,0.0,0.0,0
6572000,2.033394e-06,-2.1803867e-06,5.6159387e-12,0.9768958,1.9077404e-06,-4.4712733e-06,0.21373738,0.0,0.0,0.0,0.0,0
6584000,2.033394e-06,-2.1803867e-06,5.606027e-12,0.9768958,1.9113136e-06,-4.479812e-06,0.21373738,0.0,0.0,0.0,0.0,0
6596000,2.033394e-06,-2.1803867e-06,5.5961147e-12,0.9768958,1.9148702e-06,-4.488355e-06,0.21373738,0.0,0.0,0.0,0.0,0
6608000,2.033394e-06,-2.1803867e-06,5.5862025e-12,0.9768958,1.9184117e-06,-4.496901e-06,0.21373738,0.0,0.0,0.0,0.0,0
6620000,2.033394e-06,-2.1803867e-06,5.5762907e-12,0.9768958,1.921939e-06,-4.5054503e-06,0.21373738,0.0,0.0,0.0,0.0,0
6632000,2.033394e-06,-2.1803867e-06,5.5663785e-12,0.9768958,1.925453e-06,-4.5140023e-06,0.21373738,0.0,0.0,0.0,0.0,0
6644000,2.033394e-06,-2.1803867e-06,5.5564667e-12,0.9768958,1.9289548e-06,-4.5225574e-06,0.21373738,0.0,0.0,0.0,0.0,0
6656000,2.033394e-06,-2.1803867e-06,5.5465545e-12,0.9768958,1.9324452e-06,-4.5311144e-06,0.21373738,0.0,0.0,0.0,0.0,0
6668000,2.033394e-06,-2.1803867e-06,5.5366423e-12,0.9768958,1.936562e-06,-4.5395345e-06,0.21373738,0.0,0.0,0.0,0.0,0
6680000,2.033394e-06,-2.1803867e-06,5.5267305e-12,0.9768958,1.9406375e-06,-4.547964e-06,0.21373738,0.0,0.0,0.0,0.0,0
6692000,2.033394e-06,-2.1803867e-06,5.5168183e-12,0.9768958,1.9446727e-06,-4.556402e-06,0.21373738,0.0,0.0,0.0,0.0,0
6704000,2.033394e-06,-2.1803867e-06,5.506906e-12,0.9768958,1.9486686e-06,-4.564849e-06,0.21373738,0.0,0.0,0.0,0.0,0
6716000,2.033394e-06,-2.1803867e-06,5.4969944e-12,0.9768958,1.9526262e-06,-4.5733036e-06,0.21373738,0.0,0.0,0.0,0.0,0
6728000,2.033394e-06,-2.1803867e-06,5.487082e-12,0.9768958,1.956547e-06,-4.581767e-06,0.21373738,0.0,0.0,0.0,0.0,0
6740000,2.033394e-06,-2.1803867e-06,5.47717e-12,0.9768958,1.9604327e-06,-4.5902375e-06,0.21373738,0.0,0.0,0.0,0.0,0
6752000,2.033394e-06,-2.1803867e-06,5.467258e-12,0.9768958,1.9642844e-06,-4.598716e-06,0.21373738,0.0,0.0,0.0,0.0,0
6764000,2.033394e-06,-2.1803867e-06,5.457346e-12,0.9768958,1.9681038e-06,-4.6072014e-06,0.21373738,0.0,0.0,0.0,0.0,0
6772000,2.033394e-06,-2.1803867e-06,5.450738e-12,0.9768958,1.9807133e-06,-4.6106566e-06,0.21373738,0.0,0.0,0.0,0.0,0
6788000,2.033394e-06,-2.1803867e-06,5.437522e-12,0.9768958,1.9756517e-06,-4.6241917e-06,0.21373738,0.0,0.0,0.0,0.0,0
6800000,2.033394e-06,-2.1803864e-06,5.4276098e-12,0.9768958,1.9793833e-06,-4.6326963e-06,0.21373738,0.0,0.0,0.0,0.0,0
6812000,2.033394e-06,-2.1803864e-06,5.417698e-12,0.9768958,1.9830889e-06,-4.6412065e-06,0.21373738,0.0,0.0,0.0,0.0,0
6824000,2.033394e-06,-2.1803864e-06,5.4077858e-12,0.9768958,1.9867696e-06,-4.649722e-06,0.21373738,0.0,0.0,0.0,0.0,0
6836000,2.033394e-06,-2.1803864e-06,5.3978736e-12,0.9768958,1.990427e-06,-4.6582427e-06,0.21373738,0.0,0.0,0.0,0.0,0
6848000,2.033394e-06,-2.1803864e-06,5.3879618e-12,0.9768958,1.994063e-06,-4.6667683e-06,0.21373738,0.0,0.0,0.0,0.0,0
6860000,2.033394e-06,-2.1803864e-06,5.3780496e-12,0.9768958,1.9976785e-06,-4.675298e-06,0.21373738,0.0,0.0,0.0,0.0,0
6872000,2.033394e-06,-2.1803864e-06,5.368138e-12,0.9768958,2.0012747e-06,-4.6838322e-06,0.21373738,0.0,0.0,0.0,0.0,0
6884000,2.0333937e-06,-2.1803864e-06,5.3582256e-12,0.9768958,2.004853e-06,-4.69237e-06,0.21373738,0.0,0.0,0.0,0.0,0
6896000,2.0333937e-06,-2.1803864e-06,5.3483134e-12,0.9768958,2.0084149e-06,-4.700912e-06,0.21373738,0.0,0.0,0.0,0.0,0
6908000,2.0333937e-06,-2.1803864e-06,5.3384016e-12,0.9768958,2.011961e-06,-4.7094572e-06,0.21373738,0.0,0.0,0.0,0.0,0
6920000,2.0333937e-06,-2.1803864e-06,5.3284894e-12,0.9768958,2.0154928e-06,-4.718005e-06,0.21373738,0.0,0.0,0.0,0.0,0
6932000,2.0333937e-06,-2.1803864e-06,5.3185776e-12,0.9768958,2.019011e-06,-4.7265567e-06,0.21373738,0.0,0.0,0.0,0.0,0
6944000,2.0333937e-06,-2.1803864e-06,5.3086654e-12,0.9768958,2.0225166e-06,-4.7351105e-06,0.21373738,0.0,0.0,0.0,0.0,0
6956000,2.0333937e-06,-2.1803864e-06,5.298753e-12,0.9768958,2.0260106e-06,-4.743667e-06,0.21373738,0.0,0.0,0.0,0.0,0
6968000,2.0333937e-06,-2.1803864e-06,5.2888414e-12,0.9768958,2.029494e-06,-4.752226e-06,0.21373738,0.0,0.0,0.0,0.0,0
6980000,2.0333937e-06,-2.1803864e-06,5.278929e-12,0.9768958,2.0336252e-06,-4.7606427e-06,0.21373738,0.0,0.0,0.0,0.0,0
6992000,2.0333937e-06,-2.1803864e-06,5.2690174e-12,0.9768958,2.0377158e-06,-4.7690687e-06,0.21373738,0.0,0.0,0.0,0.0,0
7004000,2.0333937e-06,-2.1803864e-06,5.2591052e-12,0.9768958,2.0417663e-06,-4.7775034e-06,0.21373738,0.0,0.0,0.0,0.0,0
7016000,2.0333937e-06,-2.1803864e-06,5.249193e-12,0.9768958,2.0457776e-06,-4.7859467e-06,0.21373738,0.0,0.0,0.0,0.0,0
7028000,2.0333937e-06,-2.1803864e-06,5.2392812e-12,0.9768958,2.0497507e-06,-4.7943986e-06,0.21373738,0.0,0.0,0.0,0.0,0
7040000,2.0333937e-06,-2.1803864e-06,5.229369e-12,0.9768958,2.053687e-06,-4.8028583e-06,0.21373738,0.0,0.0,0.0,0.0,0
7052000,2.0333937e-06,-2.1803864e-06,5.2194572e-12,0.9768958,2.0575876e-06,-4.8113257e-06,0.21373738,0.0,0.0,0.0,0.0,0
7064000,2.0333937e-06,-2.1803864e-06,5.209545e-12,0.9768958,2.061454e-06,-4.819801e-06,0.21373738,0.0,0.0,0.0,0.0,0
7076000,2.0333937e-06,-2.1803864e-06,5.199633e-12,0.9768958,2.0652878e-06,-4.8282827e-06,0.21373738,0.0,0.0,0.0,0.0,0
7084000,2.0333937e-06,-2.1803864e-06,5.193025e-12,0.9768958,2.0479554e-06,-4.838289e-06,0.21373738,0.0,0.0,0.0,0.0,0
7100000,2.0333937e-06,-2.1803864e-06,5.179809e-12,0.9768958,2.0728628e-06,-4.8452675e-06,0.21373738,0.0,0.0,0.0,0.0,0
7112000,2.0333937e-06,-2.1803864e-06,5.1698966e-12,0.9768958,2.0766072e-06,-4.853769e-06,0.21373738,0.0,0.0,0.0,0.0,0
7124000,2.0333937e-06,-2.1803864e-06,5.159985e-12,0.9768958,2.0803247e-06,-4.862277e-06,0.21373738,0.0,0.0,0.0,0.0,0
7136000,2.0333937e-06,-2.1803864e-06,5.1500726e-12,0.9768958,2.084017e-06,-4.87079e-06,0.21373738,0.0,0.0,0.0,0.0,0
7148000,2.0333937e-06,-2.1803864e-06,5.140161e-12,0.9768958,2.0876857e-06,-4.879308e-06,0.21373738,0.0,0.0,0.0,0.0,0
7160000,2.0333937e-06,-2.1803864e-06,5.1302487e-12,0.9768958,2.091332e-06,-4.8878314e-06,0.21373738,0.0,0.0,0.0,0.0,0
7172000,2.0333937e-06,-2.1803864e-06,5.1203364e-12,0.9768958,2.0949572e-06,-4.896359e-06,0.21373738,0.0,0.0,0.0,0.0,0
7180000,2.0333937e-06,-2.1803864e-06,5.1137285e-12,0.9768958,2.0774478e-06,-4.906404e-06,0.21373738,0.0,0.0,0.0,0.0,0
7196000,2.0333937e-06,-2.1803864e-06,5.1005125e-12,0.9768958,2.1021497e-06,-4.9134273e-06,0.21373738,0.0,0.0,0.0,0.0,0
7208000,2.0333937e-06,-2.1803864e-06,5.0906007e-12,0.9768958,2.1057197e-06,-4.921967e-06,0.21373738,0.0,0.0,0.0,0.0,0
7220000,2.0333937e-06,-2.1803862e-06,5.0806885e-12,0.9768958,2.1092735e-06,-4.9305104e-06,0.21373738,0.0,0.0,0.0,0.0,0
7232000,2.0333937e-06,-2.1803862e-06,5.0707763e-12,0.9768958,2.1128121e-06,-4.9390574e-06,0.21373738,0.0,0.0,0.0,0.0,0
7244000,2.0333937e-06,-2.1803862e-06,5.0608645e-12,0.9768958,2.116337e-06,-4.947607e-06,0.21373738,0.0,0.0,0.0,0.0,0
7256000,2.0333937e-06,-2.1803862e-06,5.0509523e-12,0.9768958,2.119849e-06,-4.9561595e-06,0.21373738,0.0,0.0,0.0,0.0,0
7264000,2.0333937e-06,-2.1803862e-06,5.0443443e-12,0.9768958,2.1022367e-06,-4.966227e-06,0.21373738,0.0,0.0,0.0,0.0,0
7280000,2.0333937e-06,-2.1803862e-06,5.0311283e-12,0.9768958,2.09724e-06,-4.979748e-06,0.21373738,0.0,0.0,0.0,0.0,0
7288000,2.0333937e-06,-2.1803862e-06,5.0245203e-12,0.9768958,2.1098413e-06,-4.983205e-06,0.21373738,0.0,0.0,0.0,0.0,0
7304000,2.0333937e-06,-2.1803862e-06,5.0113043e-12,0.9768958,2.1054273e-06,-4.996599e-06,0.21373738,0.0,0.0,0.0,0.0,0
7316000,2.0333937e-06,-2.1803862e-06,5.001392e-12,0.9768958,2.109458e-06,-5.005038e-06,0.21373738,0.0,0.0,0.0,0.0,0
7328000,2.0333937e-06,-2.1803862e-06,4.9914803e-12,0.9768958,2.1134483e-06,-5.013486e-06,0.21373738,0.0,0.0,0.0,0.0,0
7340000,2.0333937e-06,-2.1803862e-06,4.981568e-12,0.9768958,2.1174e-06,-5.021942e-06,0.21373738,0.0,0.0,0.0,0.0,0
7352000,2.0333937e-06,-2.1803862e-06,4.971656e-12,0.9768958,2.1213143e-06,-5.0304066e-06,0.21373738,0.0,0.0,0.0,0.0,0
7364000,2.0333937e-06,-2.1803862e-06,4.961744e-12,0.9768958,2.1251929e-06,-5.038879e-06,0.21373738,0.0,0.0,0.0,0.0,0
7376000,2.0333937e-06,-2.1803862e-06,4.951832e-12,0.9768958,2.1290373e-06,-5.0473586e-06,0.21373738,0.0,0.0,0.0,0.0,0
7388000,2.0333937e-06,-2.1803862e-06,4.94192e-12,0.9768958,2.1328492e-06,-5.0558456e-06,0.21373738,0.0,0.0,0.0,0.0,0
7400000,2.0333937e-06,-2.1803862e-06,4.932008e-12,0.9768958,2.1366302e-06,-5.0643393e-06,0.21373738,0.0,0.0,0.0,0.0,0
7412000,2.0333937e-06,-2.1803862e-06,4.9220957e-12,0.9768958,2.140382e-06,-5.0728395e-06,0.21373738,0.0,0.0,0.0,0.0,0
7424000,2.0333937e-06,-2.1803862e-06,4.912184e-12,0.9768958,2.1441065e-06,-5.0813455e-06,0.21373738,0.0,0.0,0.0,0.0,0
7436000,2.0333937e-06,-2.1803862e-06,4.9022717e-12,0.9768958,2.1478047e-06,-5.0898575e-06,0.21373738,0.0,0.0,0.0,0.0,0
7448000,2.0333937e-06,-2.1803862e-06,4.89236e-12,0.9768958,2.1514786e-06,-5.0983745e-06,0.21373738,0.0,0.0,0.0,0.0,0
7460000,2.0333937e-06,-2.1803862e-06,4.8824477e-12,0.9768958,2.1551296e-06,-5.1068964e-06,0.21373738,0.0,0.0,0.0,0.0,0
7472000,2.0333935e-06,-2.1803862e-06,4.8725355e-12,0.9768958,2.158759e-06,-5.1154234e-06,0.21373738,0.0,0.0,0.0,0.0,0
7484000,2.0333935e-06,-2.1803862e-06,4.8626238e-12,0.9768958,2.162368e-06,-5.123955e-06,0.21373738,0.0,0.0,0.0,0.0,0
7496000,2.0333935e-06,-2.1803862e-06,4.8527115e-12,0.9768958,2.1659584e-06,-5.13249e-06,0.21373738,0.0,0.0,0.0,0.0,0
7508000,2.0333935e-06,-2.1803862e-06,4.8427998e-12,0.9768958,2.1695312e-06,-5.1410293e-06,0.21373738,0.0,0.0,0.0,0.0,0
7520000,2.0333935e-06,-2.1803862e-06,4.8328876e-12,0.9768958,2.1730875e-06,-5.149572e-06,0.21373738,0.0,0.0,0.0,0.0,0
7532000,2.0333935e-06,-2.1803862e-06,4.822976e-12,0.9768958,2.1766286e-06,-5.1581183e-06,0.21373738,0.0,0.0,0.0,0.0,0
7544000,2.0333935e-06,-2.1803862e-06,4.8130636e-12,0.9768958,2.1801557e-06,-5.166668e-06,0.21373738,0.0,0.0,0.0,0.0,0
7556000,2.0333935e-06,-2.1803862e-06,4.8031514e-12,0.9768958,2.1836693e-06,-5.17522e-06,0.21373738,0.0,0.0,0.0,0.0,0
7568000,2.0333935e-06,-2.1803862e-06,4.7932396e-12,0.9768958,2.1871708e-06,-5.1837746e-06,0.21373738,0.0,0.0,0.0,0.0,0
7580000,2.0333935e-06,-2.1803862e-06,4.7833274e-12,0.9768958,2.190661e-06,-5.192332e-06,0.21373738,0.0,0.0,0.0,0.0,0
7592000,2.0333937e-06,-2.1803862e-06,4.773415e-12,0.9768958,2.1947778e-06,-5.200752e-06,0.21373738,0.0,0.0,0.0,0.0,0
7604000,2.0333935e-06,-2.180386e-06,4.7635034e-12,0.9768958,2.198853e-06,-5.209182e-06,0.21373738,0.0,0.0,0.0,0.0,0
7616000,2.0333935e-06,-2.180386e-06,4.753591e-12,0.9768958,2.202888e-06,-5.2176197e-06,0.21373738,0.0,0.0,0.0,0.0,0
7628000,2.0333935e-06,-2.180386e-06,4.7436794e-12,0.9768958,2.206884e-06,-5.2260666e-06,0.21373738,0.0,0.0,0.0,0.0,0
7640000,2.0333935e-06,-2.180386e-06,4.733767e-12,0.9768958,2.2108413e-06,-5.2345217e-06,0.21373738,0.0,0.0,0.0,0.0,0
7652000,2.0333935e-06,-2.180386e-06,4.723855e-12,0.9768958,2.2147622e-06,-5.2429846e-06,0.21373738,0.0,0.0,0.0,0.0,0
7664000,2.0333935e-06,-2.180386e-06,4.713943e-12,0.9768958,2.2186475e-06,-5.2514556e-06,0.21373738,0.0,0.0,0.0,0.0,0
7676000,2.0333935e-06,-2.180386e-06,4.704031e-12,0.9768958,2.2224992e-06,-5.259934e-06,0.21373738,0.0,0.0,0.0,0.0,0
7688000,2.0333935e-06,-2.180386e-06,4.6941192e-12,0.9768958,2.2263184e-06,-5.268419e-06,0.21373738,0.0,0.0,0.0,0.0,0
7700000,2.0333935e-06,-2.180386e-06,4.684207e-12,0.9768958,2.2301067e-06,-5.276911e-06,0.21373738,0.0,0.0,0.0,0.0,0
7712000,2.0333935e-06,-2.180386e-06,4.674295e-12,0.9768958,2.233866e-06,-5.2854098e-06,0.21373738,0.0,0.0,0.0,0.0,0
7724000,2.0333935e-06,-2.180386e-06,4.664383e-12,0.9768958,2.2375975e-06,-5.293914e-06,0.21373738,0.0,0.0,0.0,0.0,0
7736000,2.0333935e-06,-2.180386e-06,4.654471e-12,0.9768958,2.241303e-06,-5.3024246e-06,0.21373738,0.0,0.0,0.0,0.0,0
7748000,2.0333935e-06,-2.180386e-06,4.644559e-12,0.9768958,2.2449838e-06,-5.31094e-06,0.21373738,0.0,0.0,0.0,0.0,0
7760000,2.0333935e-06,-2.180386e-06,4.634647e-12,0.9768958,2.2486413e-06,-5.319461e-06,0.21373738,0.0,0.0,0.0,0.0,0
7772000,2.0333935e-06,-2.180386e-06,4.624735e-12,0.9768958,2.252277e-06,-5.3279864e-06,0.21373738,0.0,0.0,0.0,0.0,0
7784000,2.0333935e-06,-2.180386e-06,4.614823e-12,0.9768958,2.2558922e-06,-5.336516e-06,0.21373738,0.0,0.0,0.0,0.0,0
7796000,2.0333935e-06,-2.180386e-06,4.6049106e-12,0.9768958,2.2594886e-06,-5.3450503e-06,0.21373738,0.0,0.0,0.0,0.0,0
7808000,2.0333935e-06,-2.180386e-06,4.594999e-12,0.9768958,2.2630668e-06,-5.353588e-06,0.21373738,0.0,0.0,0.0,0.0,0
7820000,2.0333935e-06,-2.180386e-06,4.5850867e-12,0.9768958,2.2666286e-06,-5.36213e-06,0.21373738,0.0,0.0,0.0,0.0,0
7832000,2.0333935e-06,-2.180386e-06,4.575175e-12,0.9768958,2.2701747e-06,-5.370675e-06,0.21373738,0.0,0.0,0.0,0.0,0
7844000,2.0333935e-06,-2.180386e-06,4.5652627e-12,0.9768958,2.2737063e-06,-5.3792232e-06,0.21373738,0.0,0.0,0.0,0.0,0
7856000,2.0333935e-06,-2.180386e-06,4.5553505e-12,0.9768958,2.2772244e-06,-5.3877748e-06,0.21373738,0.0,0.0,0.0,0.0,0
7868000,2.0333935e-06,-2.180386e-06,4.5454387e-12,0.9768958,2.28073e-06,-5.3963286e-06,0.21373738,0.0,0.0,0.0,0.0,0
7880000,2.0333935e-06,-2.180386e-06,4.5355265e-12,0.9768958,2.2842241e-06,-5.404885e-06,0.21373738,0.0,0.0,0.0,0.0,0
7892000,2.0333935e-06,-2.180386e-06,4.5256147e-12,0.9768958,2.2877073e-06,-5.413444e-06,0.21373738,0.0,0.0,0.0,0.0,0
7904000,2.0333935e-06,-2.180386e-06,4.5157025e-12,0.9768958,2.2918387e-06,-5.421861e-06,0.21373738,0.0,0.0,0.0,0.0,0
7916000,2.0333935e-06,-2.180386e-06,4.5057907e-12,0.9768958,2.295929e-06,-5.430287e-06,0.21373738,0.0,0.0,0.0,0.0,0
7928000,2.0333935e-06,-2.180386e-06,4.4958785e-12,0.9768958,2.2999798e-06,-5.4387215e-06,0.21373738,0.0,0.0,0.0,0.0,0
7940000,2.0333935e-06,-2.180386e-06,4.4859663e-12,0.9768958,2.3039909e-06,-5.4471648e-06,0.21373738,0.0,0.0,0.0,0.0,0
7952000,2.0333935e-06,-2.180386e-06,4.4760545e-12,0.9768958,2.3079642e-06,-5.4556167e-06,0.21373738,0.0,0.0,0.0,0.0,0
7964000,2.0333935e-06,-2.180386e-06,4.4661423e-12,0.9768958,2.3119003e-06,-5.4640764e-06,0.21373738,0.0,0.0,0.0,0.0,0
7976000,2.0333935e-06,-2.180386e-06,4.4562305e-12,0.9768958,2.3158009e-06,-5.4725438e-06,0.21373738,0.0,0.0,0.0,0.0,0
7988000,2.0333935e-06,-2.180386e-06,4.4463183e-12,0.9768958,2.3196674e-06,-5.481019e-06,0.21373738,0.0,0.0,0.0,0.0,0
8000000,2.0333935e-06,-2.180386e-06,4.4364065e-12,0.9768958,2.3235011e-06,-5.489501e-06,0.21373738,0.0,0.0,0.0,0.0,0
8012000,2.0333935e-06,-2.180386e-06,4.4264943e-12,0.9768958,2.3273033e-06,-5.49799e-06,0.21373738,0.0,0.0,0.0,0.0,0
