timestamp,previous.timestamp,previous.lat,previous.lon,previous.x,previous.y,previous.z,previous.vx,previous.vy,previous.vz,previous.alt,previous.yaw,previous.yawspeed,previous.loiter_radius,previous.pitch_min,previous.a_x,previous.a_y,previous.a_z,previous.acceptance_radius,previous.cruising_speed,previous.cruising_throttle,previous.valid,previous.type,previous.position_valid,previous.velocity_valid,previous.velocity_frame,previous.alt_valid,previous.yaw_valid,previous.yawspeed_valid,previous.landing_gear,previous.loiter_direction,previous.acceleration_valid,previous.acceleration_is_force,current.timestamp,current.lat,current.lon,current.x,current.y,current.z,current.vx,current.vy,current.vz,current.alt,current.yaw,current.yawspeed,current.loiter_radius,current.pitch_min,current.a_x,current.a_y,current.a_z,current.acceptance_radius,current.cruising_speed,current.cruising_throttle,current.valid,current.type,current.position_valid,current.velocity_valid,current.velocity_frame,current.alt_valid,current.yaw_valid,current.yawspeed_valid,current.landing_gear,current.loiter_direction,current.acceleration_valid,current.acceleration_is_force,next.timestamp,next.lat,next.lon,next.x,next.y,next.z,next.vx,next.vy,next.vz,next.alt,next.yaw,next.yawspeed,next.loiter_radius,next.pitch_min,next.a_x,next.a_y,next.a_z,next.acceptance_radius,next.cruising_speed,next.cruising_throttle,next.valid,next.type,next.position_valid,next.velocity_valid,next.velocity_frame,next.alt_valid,next.yaw_valid,next.yawspeed_valid,next.landing_gear,next.loiter_direction,next.acceleration_valid,next.acceleration_is_force
12460000,0,0.0,0.0,0.0,0.0,0.0,0.0,0.0,0.0,0.0,0.0,0.0,0.0,0.0,0.0,0.0,0.0,0.0,0.0,0.0,0,0,0,0,0,0,0,0,0,0,0,0,0,0.0,0.0,0.0,0.0,0.0,0.0,0.0,0.0,0.0,0.0,0.0,0.0,0.0,0.0,0.0,0.0,0.0,0.0,0.0,1,5,0,0,0,0,0,0,0,0,0,0,0,0.0,0.0,0.0,0.0,0.0,0.0,0.0,0.0,0.0,0.0,0.0,0.0,0.0,0.0,0.0,0.0,0.0,0.0,0.0,0,0,0,0,0,0,0,0,0,0,0,0
84928000,0,0.0,0.0,0.0,0.0,0.0,0.0,0.0,0.0,0.0,0.0,0.0,0.0,0.0,0.0,0.0,0.0,0.0,0.0,0.0,0,0,0,0,0,0,0,0,0,0,0,0,0,0.0,0.0,0.0,0.0,0.0,0.0,0.0,0.0,0.0,0.0,0.0,0.0,0.0,0.0,0.0,0.0,0.0,0.0,0.0,1,5,0,0,0,0,0,0,0,0,0,0,0,0.0,0.0,0.0,0.0,0.0,0.0,0.0,0.0,0.0,0.0,0.0,0.0,0.0,0.0,0.0,0.0,0.0,0.0,0.0,0,0,0,0,0,0,0,0,0,0,0,0
91588000,0,0.0,0.0,0.0,0.0,0.0,0.0,0.0,0.0,0.0,0.0,0.0,0.0,0.0,0.0,0.0,0.0,0.0,0.0,0.0,0,5,0,0,0,0,0,0,0,0,0,0,0,47.397751095311705,8.545606989078951,0.0,0.0,0.0,0.0,0.0,0.0,498.10248,0.42332876,0.0,50.0,0.0,0.0,0.0,0.0,2.0,-1.0,-1.0,1,3,0,0,0,0,1,0,0,-1,0,0,0,47.3980898,8.545952,0.0,0.0,0.0,0.0,0.0,0.0,498.10248,nan,0.0,50.0,0.0,0.0,0.0,0.0,2.0,-1.0,-1.0,1,0,0,0,0,0,0,0,0,-1,0,0
102340000,0,47.397751095311705,8.545606989078951,0.0,0.0,0.0,0.0,0.0,0.0,498.10248,0.42332876,0.0,50.0,0.0,0.0,0.0,0.0,2.0,-1.0,-1.0,1,3,0,0,0,0,1,0,0,-1,0,0,0,47.3980898,8.545952,0.0,0.0,0.0,0.0,0.0,0.0,498.0555,nan,0.0,50.0,0.0,0.0,0.0,0.0,2.0,-1.0,-1.0,1,0,0,0,0,0,0,0,0,-1,0,0,0,47.397999899999995,8.5459519,0.0,0.0,0.0,0.0,0.0,0.0,498.0555,nan,0.0,50.0,0.0,0.0,0.0,0.0,2.0,-1.0,-1.0,1,0,0,0,0,0,0,0,0,-1,0,0
116672000,0,47.397751095311705,8.545606989078951,0.0,0.0,0.0,0.0,0.0,0.0,498.10248,0.42332876,0.0,50.0,0.0,0.0,0.0,0.0,2.0,-1.0,-1.0,1,3,0,0,0,0,1,0,0,-1,0,0,0,47.3980898,8.545952,0.0,0.0,0.0,0.0,0.0,0.0,498.0555,nan,0.0,50.0,0.0,0.0,0.0,0.0,2.0,-1.0,-1.0,1,0,0,0,0,0,0,0,0,-1,0,0,0,47.397999899999995,8.5459519,0.0,0.0,0.0,0.0,0.0,0.0,498.0555,nan,0.0,50.0,0.0,0.0,0.0,0.0,2.0,-1.0,-1.0,1,0,0,0,0,0,0,0,0,-1,0,0
116728000,0,47.3980898,8.545952,0.0,0.0,0.0,0.0,0.0,0.0,498.0555,nan,0.0,50.0,0.0,0.0,0.0,0.0,2.0,-1.0,-1.0,1,0,0,0,0,0,0,0,0,-1,0,0,0,47.397999899999995,8.5459519,0.0,0.0,0.0,0.0,0.0,0.0,498.0555,nan,0.0,50.0,0.0,0.0,0.0,0.0,2.0,-1.0,-1.0,1,0,0,0,0,0,0,0,0,-1,0,0,0,47.397714099999995,8.5459517,0.0,0.0,0.0,0.0,0.0,0.0,498.0555,nan,0.0,50.0,0.0,0.0,0.0,0.0,2.0,-1.0,-1.0,1,0,0,0,0,0,0,0,0,-1,0,0
124232000,0,47.3980898,8.545952,0.0,0.0,0.0,0.0,0.0,0.0,498.0555,nan,0.0,50.0,0.0,0.0,0.0,0.0,2.0,-1.0,-1.0,1,0,0,0,0,0,0,0,0,-1,0,0,0,47.397999899999995,8.5459519,0.0,0.0,0.0,0.0,0.0,0.0,498.0555,nan,0.0,50.0,0.0,0.0,0.0,0.0,2.0,-1.0,-1.0,1,0,0,0,0,0,0,0,0,-1,0,0,0,47.397714099999995,8.5459517,0.0,0.0,0.0,0.0,0.0,0.0,498.0555,nan,0.0,50.0,0.0,0.0,0.0,0.0,2.0,-1.0,-1.0,1,0,0,0,0,0,0,0,0,-1,0,0
124288000,0,47.397999899999995,8.5459519,0.0,0.0,0.0,0.0,0.0,0.0,498.0555,nan,0.0,50.0,0.0,0.0,0.0,0.0,2.0,-1.0,-1.0,1,0,0,0,0,0,0,0,0,-1,0,0,0,47.397714099999995,8.5459517,0.0,0.0,0.0,0.0,0.0,0.0,498.0555,nan,0.0,50.0,0.0,0.0,0.0,0.0,2.0,-1.0,-1.0,1,0,0,0,0,0,0,0,0,-1,0,0,0,47.397624099999994,8.5459517,0.0,0.0,0.0,0.0,0.0,0.0,498.0555,nan,0.0,50.0,0.0,0.0,0.0,0.0,2.0,-1.0,-1.0,1,0,0,0,0,0,0,0,0,-1,0,0
136552000,0,47.397714099999995,8.5459517,0.0,0.0,0.0,0.0,0.0,0.0,498.0555,nan,0.0,50.0,0.0,0.0,0.0,0.0,2.0,-1.0,-1.0,1,0,0,0,0,0,0,0,0,-1,0,0,0,47.397624099999994,8.5459517,0.0,0.0,0.0,0.0,0.0,0.0,498.0555,nan,0.0,50.0,0.0,0.0,0.0,0.0,2.0,-1.0,-1.0,1,0,0,0,0,0,0,0,0,-1,0,0,0,47.3976243,8.545619499999999,0.0,0.0,0.0,0.0,0.0,0.0,498.0555,nan,0.0,50.0,0.0,0.0,0.0,0.0,2.0,-1.0,-1.0,1,0,0,0,0,0,0,0,0,-1,0,0
142544000,0,47.397624099999994,8.5459517,0.0,0.0,0.0,0.0,0.0,0.0,498.0555,nan,0.0,50.0,0.0,0.0,0.0,0.0,2.0,-1.0,-1.0,1,0,0,0,0,0,0,0,0,-1,0,0,0,47.3976243,8.545619499999999,0.0,0.0,0.0,0.0,0.0,0.0,498.0555,nan,0.0,50.0,0.0,0.0,0.0,0.0,2.0,-1.0,-1.0,1,0,0,0,0,0,0,0,0,-1,0,0,0,47.397714199999996,8.5456196,0.0,0.0,0.0,0.0,0.0,0.0,498.0555,nan,0.0,50.0,0.0,0.0,0.0,0.0,2.0,-1.0,-1.0,1,0,0,0,0,0,0,0,0,-1,0,0
152904000,0,47.3976243,8.545619499999999,0.0,0.0,0.0,0.0,0.0,0.0,498.0555,nan,0.0,50.0,0.0,0.0,0.0,0.0,2.0,-1.0,-1.0,1,0,0,0,0,0,0,0,0,-1,0,0,0,47.397714199999996,8.5456196,0.0,0.0,0.0,0.0,0.0,0.0,498.0555,nan,0.0,50.0,0.0,0.0,0.0,0.0,2.0,-1.0,-1.0,1,0,0,0,0,0,0,0,0,-1,0,0,0,47.397999999999996,8.545619799999999,0.0,0.0,0.0,0.0,0.0,0.0,498.0555,nan,0.0,50.0,0.0,0.0,0.0,0.0,2.0,-1.0,-1.0,1,0,0,0,0,0,0,0,0,-1,0,0
160128000,0,47.3976243,8.545619499999999,0.0,0.0,0.0,0.0,0.0,0.0,498.0555,nan,0.0,50.0,0.0,0.0,0.0,0.0,2.0,-1.0,-1.0,1,0,0,0,0,0,0,0,0,-1,0,0,0,47.397714199999996,8.5456196,0.0,0.0,0.0,0.0,0.0,0.0,498.0555,nan,0.0,50.0,0.0,0.0,0.0,0.0,2.0,-1.0,-1.0,1,0,0,0,0,0,0,0,0,-1,0,0,0,47.397999999999996,8.545619799999999,0.0,0.0,0.0,0.0,0.0,0.0,498.0555,nan,0.0,50.0,0.0,0.0,0.0,0.0,2.0,-1.0,-1.0,1,0,0,0,0,0,0,0,0,-1,0,0
160184000,0,47.397714199999996,8.5456196,0.0,0.0,0.0,0.0,0.0,0.0,498.0555,nan,0.0,50.0,0.0,0.0,0.0,0.0,2.0,-1.0,-1.0,1,0,0,0,0,0,0,0,0,-1,0,0,0,47.397999999999996,8.545619799999999,0.0,0.0,0.0,0.0,0.0,0.0,498.0555,nan,0.0,50.0,0.0,0.0,0.0,0.0,2.0,-1.0,-1.0,1,0,0,0,0,0,0,0,0,-1,0,0,0,47.398089899999995,8.545619799999999,0.0,0.0,0.0,0.0,0.0,0.0,498.0555,nan,0.0,50.0,0.0,0.0,0.0,0.0,2.0,-1.0,-1.0,1,0,0,0,0,0,0,0,0,-1,0,0
172112000,0,47.397999999999996,8.545619799999999,0.0,0.0,0.0,0.0,0.0,0.0,498.0555,nan,0.0,50.0,0.0,0.0,0.0,0.0,2.0,-1.0,-1.0,1,0,0,0,0,0,0,0,0,-1,0,0,0,47.398089899999995,8.545619799999999,0.0,0.0,0.0,0.0,0.0,0.0,498.0555,nan,0.0,50.0,0.0,0.0,0.0,0.0,2.0,-1.0,-1.0,1,0,0,0,0,0,0,0,0,-1,0,0,0,47.398089899999995,8.545619799999999,0.0,0.0,0.0,0.0,0.0,0.0,498.0555,nan,0.0,50.0,0.0,0.0,0.0,0.0,2.0,-1.0,-1.0,0,0,0,0,0,0,0,0,0,-1,0,0
178048000,0,47.397999999999996,8.545619799999999,0.0,0.0,0.0,0.0,0.0,0.0,498.0555,nan,0.0,50.0,0.0,0.0,0.0,0.0,2.0,-1.0,-1.0,1,0,0,0,0,0,0,0,0,-1,0,0,0,47.398089899999995,8.545619799999999,0.0,0.0,0.0,0.0,0.0,0.0,498.0555,nan,0.0,50.0,0.0,0.0,0.0,0.0,2.0,-1.0,-1.0,1,0,0,0,0,0,0,0,0,-1,0,0,0,47.398089899999995,8.545619799999999,0.0,0.0,0.0,0.0,0.0,0.0,498.0555,nan,0.0,50.0,0.0,0.0,0.0,0.0,2.0,-1.0,-1.0,0,0,0,0,0,0,0,0,0,-1,0,0
178160000,0,47.397999999999996,8.545619799999999,0.0,0.0,0.0,0.0,0.0,0.0,498.0555,nan,0.0,50.0,0.0,0.0,0.0,0.0,2.0,-1.0,-1.0,0,0,0,0,0,0,0,0,0,-1,0,0,0,47.39807281308119,8.545619072458269,0.0,0.0,0.0,0.0,0.0,0.0,518.05554,0.024967656,0.0,50.0,0.0,0.0,0.0,0.0,2.0,-1.0,-1.0,1,0,0,0,0,0,1,0,0,1,0,0,0,47.398089899999995,8.545619799999999,0.0,0.0,0.0,0.0,0.0,0.0,498.0555,nan,0.0,50.0,0.0,0.0,0.0,0.0,2.0,-1.0,-1.0,0,0,0,0,0,0,0,0,0,-1,0,0
190368000,0,47.397999999999996,8.545619799999999,0.0,0.0,0.0,0.0,0.0,0.0,498.0555,nan,0.0,50.0,0.0,0.0,0.0,0.0,2.0,-1.0,-1.0,0,0,0,0,0,0,0,0,0,-1,0,0,0,47.397751140766815,8.545606871272373,0.0,0.0,0.0,0.0,0.0,0.0,518.05554,-3.117096,0.0,50.0,0.0,0.0,0.0,0.0,2.0,-1.0,-1.0,1,0,0,0,0,0,1,0,0,1,0,0,0,47.398089899999995,8.545619799999999,0.0,0.0,0.0,0.0,0.0,0.0,498.0555,nan,0.0,50.0,0.0,0.0,0.0,0.0,2.0,-1.0,-1.0,0,0,0,0,0,0,0,0,0,-1,0,0
203136000,0,47.397999999999996,8.545619799999999,0.0,0.0,0.0,0.0,0.0,0.0,498.0555,nan,0.0,50.0,0.0,0.0,0.0,0.0,2.0,-1.0,-1.0,0,0,0,0,0,0,0,0,0,-1,0,0,0,47.397751140766815,8.545606871272373,0.0,0.0,0.0,0.0,0.0,0.0,488.0555,0.4231058,0.0,50.0,0.0,0.0,0.0,0.0,2.0,-1.0,-1.0,1,4,0,0,0,0,1,0,0,1,0,0,0,47.398089899999995,8.545619799999999,0.0,0.0,0.0,0.0,0.0,0.0,498.0555,nan,0.0,50.0,0.0,0.0,0.0,0.0,2.0,-1.0,-1.0,0,0,0,0,0,0,0,0,0,-1,0,0
239204000,0,47.397999999999996,8.545619799999999,0.0,0.0,0.0,0.0,0.0,0.0,498.0555,nan,0.0,50.0,0.0,0.0,0.0,0.0,2.0,-1.0,-1.0,0,0,0,0,0,0,0,0,0,-1,0,0,0,47.397751140766815,8.545606871272373,0.0,0.0,0.0,0.0,0.0,0.0,488.0555,0.4231058,0.0,50.0,0.0,0.0,0.0,0.0,2.0,-1.0,-1.0,1,5,0,0,0,0,1,0,0,1,0,0,0,47.398089899999995,8.545619799999999,0.0,0.0,0.0,0.0,0.0,0.0,498.0555,nan,0.0,50.0,0.0,0.0,0.0,0.0,2.0,-1.0,-1.0,0,0,0,0,0,0,0,0,0,-1,0,0
