timestamp,timestamp_sample,control[0],control[1],control[2],control[3],control[4],control[5],control[6],control[7]
1900000,1900000,-0.0014315668,-0.007721337,0.00031029608,0.0,0.0,0.0,0.0,0.0
2000000,2000000,0.028086696,0.030781416,0.0014898792,0.08,0.0,0.0,0.0,-1.0
2100000,2100000,0.026314557,0.028715855,-0.001151114,0.08,0.0,0.0,0.0,-1.0
2200000,2200000,0.029952731,0.031687587,0.0010868873,0.08,0.0,0.0,0.0,-1.0
2300000,2300000,0.03195432,0.023223478,0.00079643464,0.08,0.0,0.0,0.0,-1.0
2404000,2404000,0.02638009,0.029853065,0.0023511793,0.08,0.0,0.0,0.0,-1.0
2500000,2500000,0.01853416,0.034774695,0.0010123011,0.08,0.0,0.0,0.0,-1.0
2600000,2600000,0.022919804,0.02134553,-0.00067093875,0.08,0.0,0.0,0.0,-1.0
2700000,2700000,0.018807927,0.022398453,-0.0002905221,0.08,0.0,0.0,0.0,-1.0
2800000,2800000,0.031235266,0.037140146,-2.459978e-05,0.08,0.0,0.0,0.0,-1.0
2900000,2900000,0.02570344,0.052076884,-0.00072303566,0.08,0.0,0.0,0.0,-1.0
3000000,3000000,0.024363836,0.038207933,-0.0006430223,0.08,0.0,0.0,0.0,-1.0
3100000,3100000,0.027342139,0.04011332,0.0015950178,0.08,0.0,0.0,0.0,-1.0
3200000,3200000,0.028460726,0.025008898,-0.0009404612,0.08,0.0,0.0,0.0,-1.0
3300000,3300000,0.024560656,0.027184669,-0.0018621365,0.08,0.0,0.0,0.0,-1.0
3404000,3404000,0.04100926,0.03145746,0.0006677638,0.08,0.0,0.0,0.0,-1.0
3504000,3504000,0.022538073,0.03418231,-0.0009281154,0.08,0.0,0.0,0.0,-1.0
3604000,3604000,0.03845813,0.051444285,0.002341596,0.08,0.0,0.0,0.0,-1.0
3704000,3704000,0.02842027,0.04162037,-0.0007947322,0.08,0.0,0.0,0.0,-1.0
3800000,3800000,0.024365585,0.041699912,0.00074220164,0.08,0.0,0.0,0.0,-1.0
3900000,3900000,0.03644442,0.04148808,-6.306747e-05,0.08,0.0,0.0,0.0,-1.0
3999999,3999999,0.030345468,0.038192548,-0.0012992247,0.08,0.0,0.0,0.0,-1.0
4103999,4103999,0.01840835,0.0473836,-0.00018742219,0.08,0.0,0.0,0.0,-1.0
4204000,4204000,0.022327287,0.045719963,0.0009857027,0.08,0.0,0.0,0.0,-1.0
4304000,4304000,0.032975454,0.036118973,0.0014878443,0.08,0.0,0.0,0.0,-1.0
4404000,4404000,0.034356378,0.04120163,0.000829859,0.08,0.0,0.0,0.0,-1.0
4508000,4508000,0.039725516,0.044087376,0.000107741405,0.08,0.0,0.0,0.0,-1.0
4604000,4604000,0.03070157,0.039387263,0.0008356063,0.08,0.0,0.0,0.0,-1.0
4704000,4704000,0.036006622,0.046889767,0.0011217733,0.08,0.0,0.0,0.0,-1.0
4804000,4804000,0.040659845,0.05830314,0.0028589908,0.08,0.0,0.0,0.0,-1.0
4904000,4904000,0.02604153,0.039364148,0.00068678486,0.08,0.0,0.0,0.0,-1.0
5008000,5008000,0.025136033,0.03645547,0.002044956,0.08,0.0,0.0,0.0,-1.0
5104000,5104000,0.024775296,0.03660038,0.0017231088,0.08,0.0,0.0,0.0,-1.0
5204000,5204000,0.029072044,0.036018178,-0.0012608138,0.08,0.0,0.0,0.0,-1.0
5304000,5304000,0.025312603,0.050193463,-4.2262047e-05,0.08,0.0,0.0,0.0,-1.0
5404000,5404000,0.027827332,0.04973249,-0.0004504274,0.08,0.0,0.0,0.0,-1.0
5504000,5504000,0.020402808,0.04042924,0.00021351397,0.08,0.0,0.0,0.0,-1.0
5604000,5604000,0.03530788,0.02741316,0.0014868709,0.08,0.0,0.0,0.0,-1.0
5704000,5704000,0.03267934,0.048592348,-0.00030697603,0.08,0.0,0.0,0.0,-1.0
5804000,5804000,0.015295152,0.045805234,-0.0012652152,0.08,0.0,0.0,0.0,-1.0
5908000,5908000,0.018501215,0.047902614,0.0005288913,0.08,0.0,0.0,0.0,-1.0
6004000,6004000,0.02534991,0.04391516,-0.0011910246,0.08,0.0,0.0,0.0,-1.0
6104000,6104000,0.024964888,0.042691216,-0.0013555017,0.08,0.0,0.0,0.0,-1.0
6204000,6204000,0.02581911,0.043380417,0.0017400653,0.08,0.0,0.0,0.0,-1.0
6304000,6304000,0.01754538,0.04805312,0.0008456611,0.08,0.0,0.0,0.0,-1.0
6404000,6404000,0.028629735,0.051133953,0.0010897423,0.08,0.0,0.0,0.0,-1.0
6504000,6504000,0.02803828,0.02900649,-0.0012044454,0.08,0.0,0.0,0.0,-1.0
6604000,6604000,0.031215817,0.03824821,0.0029021879,0.08,0.0,0.0,0.0,-1.0
6708000,6708000,0.027162982,0.047766335,0.0014229635,0.08,0.0,0.0,0.0,-1.0
6808000,6808000,0.023760289,0.039660867,0.0005674685,0.08,0.0,0.0,0.0,-1.0
6904000,6904000,0.017851053,0.03317604,-0.0009971339,0.08,0.0,0.0,0.0,-1.0
7004000,7004000,0.033147246,0.0350382,5.5882265e-06,0.08,0.0,0.0,0.0,-1.0
7104000,7104000,0.022178018,0.03612663,-0.0012804623,0.08,0.0,0.0,0.0,-1.0
7208000,7208000,0.025915612,0.03410755,-0.00027108772,0.08,0.0,0.0,0.0,-1.0
7308000,7308000,0.0144035425,0.038101636,-1.7367163e-05,0.08,0.0,0.0,0.0,-1.0
7404000,7404000,0.022002064,0.051271267,6.509415e-05,0.08,0.0,0.0,0.0,-1.0
7504000,7504000,0.025015457,0.04113611,0.00018940648,0.08,0.0,0.0,0.0,-1.0
7604000,7604000,0.02558123,0.04443941,0.0017861594,0.08,0.0,0.0,0.0,-1.0
7708000,7708000,0.030352198,0.03668539,0.0016929891,0.08,0.0,0.0,0.0,-1.0
7804000,7804000,0.028644122,0.027633429,0.0019833753,0.08,0.0,0.0,0.0,-1.0
7904000,7904000,0.025651338,0.028054912,-0.00068636535,0.08,0.0,0.0,0.0,-1.0
8003999,8003999,0.019278655,0.037666153,-0.0012296856,0.08,0.0,0.0,0.0,-1.0
8104000,8104000,0.026582014,0.028456746,-0.00074485206,0.08,0.0,0.0,0.0,-1.0
8204000,8204000,0.015272623,0.027748885,-2.5658474e-05,0.08,0.0,0.0,0.0,-1.0
8312000,8312000,0.02651324,0.029912217,-0.0007082492,0.08,0.0,0.0,0.0,-1.0
8412000,8412000,0.034692936,0.02671411,-1.5222397e-05,0.08,0.0,0.0,0.0,-1.0
8508000,8508000,0.024101932,0.023025919,0.00065767724,0.08,0.0,0.0,0.0,-1.0
8608000,8608000,0.032490756,0.029873071,0.0006076977,0.08,0.0,0.0,0.0,-1.0
8712000,8712000,0.015358938,0.028400512,0.0008553736,0.08,0.0,0.0,0.0,-1.0
8808000,8808000,0.020337911,0.029959202,3.917231e-05,0.08,0.0,0.0,0.0,-1.0
8908000,8908000,0.029639795,0.044083096,0.0005345894,0.08,0.0,0.0,0.0,-1.0
9012000,9012000,0.027943771,0.01965047,0.0018253777,0.08,0.0,0.0,0.0,-1.0
9108000,9108000,0.025366254,0.030771663,-0.00153187,0.08,0.0,0.0,0.0,-1.0
9208000,9208000,0.025222814,0.02574029,-0.0011858497,0.08,0.0,0.0,0.0,-1.0
9308000,9308000,0.012450279,0.031073978,0.00061687845,0.08,0.0,0.0,0.0,-1.0
9408000,9408000,0.024354272,0.022452183,0.0012916907,0.08,0.0,0.0,0.0,-1.0
9508000,9508000,0.032593627,0.028696237,-6.866262e-05,0.08,0.0,0.0,0.0,-1.0
9608000,9608000,0.025196677,0.024798695,-3.2703392e-05,0.08,0.0,0.0,0.0,-1.0
9712000,9712000,0.020237468,0.024475805,0.0011301149,0.08,0.0,0.0,0.0,-1.0
9808000,9808000,0.026575848,0.026620878,-0.0005689031,0.08,0.0,0.0,0.0,-1.0
9912000,9912000,0.03260961,0.021280076,-0.00030744378,0.08,0.0,0.0,0.0,-1.0
10012000,10012000,0.01606127,0.023899646,-0.0011272584,0.08,0.0,0.0,0.0,-1.0
10108000,10108000,0.024094142,0.018973727,-0.00067987124,0.08,0.0,0.0,0.0,-1.0
10212000,10212000,0.02311342,0.022130715,0.00037678034,0.08,0.0,0.0,0.0,-1.0
10308000,10308000,0.018428825,0.041894674,-0.00043167436,0.08,0.0,0.0,0.0,-1.0
10412000,10412000,0.022355894,0.018665891,-0.00055155455,0.08,0.0,0.0,0.0,-1.0
10508000,10508000,0.011541448,0.030407798,0.0026243692,0.08,0.0,0.0,0.0,-1.0
10608000,10608000,0.02463129,0.020727849,-0.0012379441,0.08,0.0,0.0,0.0,-1.0
10708000,10708000,0.024039501,0.01888978,-0.0002046374,0.08,0.0,0.0,0.0,-1.0
10808000,10808000,0.023197133,0.017298682,-0.0006837724,0.08,0.0,0.0,0.0,-1.0
10908000,10908000,0.027662951,0.03461339,0.0016338062,0.08,0.0,0.0,0.0,-1.0
11008000,11008000,0.023124209,0.024871912,0.0013437025,0.08,0.0,0.0,0.0,-1.0
11108000,11108000,0.029290354,0.03715871,-0.0014689005,0.08,0.0,0.0,0.0,-1.0
11208000,11208000,0.01860785,0.026421376,-0.0007273538,0.08,0.0,0.0,0.0,-1.0
11308000,11308000,0.027127706,0.03338102,0.0011888674,0.08,0.0,0.0,0.0,-1.0
11412000,11412000,0.028436609,0.021633573,-0.00079857756,0.08,0.0,0.0,0.0,-1.0
11508000,11508000,0.024504,0.034048814,0.00083351135,0.08,0.0,0.0,0.0,-1.0
11608000,11608000,0.02242129,0.023924071,-0.00074642774,0.08,0.0,0.0,0.0,-1.0
11712000,11712000,0.029560791,0.0241641,0.0011014395,0.08,0.0,0.0,0.0,-1.0
11808000,11808000,0.02912001,0.023629999,-0.0002599983,0.08,0.0,0.0,0.0,-1.0
11908000,11908000,0.024703814,0.022151096,0.0014883087,0.08,0.0,0.0,0.0,-1.0
12008000,12008000,0.025319938,0.026349977,-0.00017447256,0.08,0.0,0.0,0.0,-1.0
12108000,12108000,0.016966868,0.018457597,-0.0008501491,0.08,0.0,0.0,0.0,-1.0
12208000,12208000,0.025168283,0.025582856,0.0008702073,0.08,0.0,0.0,0.0,-1.0
12308000,12308000,0.025584767,0.016611187,0.000489453,0.08,0.0,0.0,0.0,-1.0
12408000,12408000,0.025403503,0.015497259,0.0019845637,0.08,0.0,0.0,0.0,-1.0
12508000,12508000,0.029446049,0.031095212,-0.00047058798,0.08,0.0,0.0,0.0,-1.0
12612000,12612000,0.019380355,0.014147292,0.0031359575,0.08,0.0,0.0,0.0,-1.0
12708000,12708000,0.01987759,0.01894703,-0.00069117284,0.08,0.0,0.0,0.0,-1.0
12812000,12812000,0.025634246,0.018440254,0.0005798338,0.08,0.0,0.0,0.0,-1.0
12908000,12908000,0.023831485,0.0246379,-0.0009115835,0.08,0.0,0.0,0.0,-1.0
13008000,13008000,0.018095475,0.027889363,-0.0007937848,0.08,0.0,0.0,0.0,-1.0
13108000,13108000,0.023304513,0.021620912,0.0015004189,0.08,0.0,0.0,0.0,-1.0
13208000,13208000,0.024266966,0.010166082,0.00021252419,0.08,0.0,0.0,0.0,-1.0
13308000,13308000,0.02775164,0.019723166,-0.0003729472,0.08,0.0,0.0,0.0,-1.0
13408000,13408000,0.026389122,0.02517241,-0.0015759356,0.08,0.0,0.0,0.0,-1.0
13508000,13508000,0.017124977,0.02425105,-7.986673e-06,0.08,0.0,0.0,0.0,-1.0
13608000,13608000,0.03497542,0.035439484,-0.0013196428,0.08,0.0,0.0,0.0,-1.0
13708000,13708000,0.036178537,0.016603412,0.00078425615,0.08,0.0,0.0,0.0,-1.0
13808000,13808000,0.033530198,0.016707564,-0.00013660947,0.08,0.0,0.0,0.0,-1.0
13908000,13908000,0.02682032,0.025751075,0.00033811672,0.08,0.0,0.0,0.0,-1.0
14008000,14008000,0.019211143,0.034168992,-0.0016019794,0.08,0.0,0.0,0.0,-1.0
14112000,14112000,0.031727098,0.018525895,0.0005503244,0.08,0.0,0.0,0.0,-1.0
14208000,14208000,0.017172493,0.022072144,0.00031762157,0.08,0.0,0.0,0.0,-1.0
14308000,14308000,0.026546031,0.020297244,0.00064815505,0.08,0.0,0.0,0.0,-1.0
14412000,14412000,0.024462946,0.0288438,0.0010838659,0.08,0.0,0.0,0.0,-1.0
14508000,14508000,0.015339061,0.024410263,0.0007346369,0.08,0.0,0.0,0.0,-1.0
14608000,14608000,0.024492301,0.03525698,0.00012715705,0.08,0.0,0.0,0.0,-1.0
14712000,14712000,0.022153072,0.018556045,-0.0002328056,0.08,0.0,0.0,0.0,-1.0
14808000,14808000,0.017141253,0.019482391,-4.6871744e-05,0.08,0.0,0.0,0.0,-1.0
14908000,14908000,0.025249643,0.020846223,0.0008630088,0.08,0.0,0.0,0.0,-1.0
15012000,15012000,0.021845032,0.028406512,-0.00028115368,0.08,0.0,0.0,0.0,-1.0
15112000,15112000,0.013273092,0.013873232,0.00013839289,0.08,0.0,0.0,0.0,-1.0
15208000,15208000,0.023036892,0.022454092,0.0004764107,0.08,0.0,0.0,0.0,-1.0
15312000,15312000,0.019414032,0.027888192,0.0012839289,0.08,0.0,0.0,0.0,-1.0
15412000,15412000,0.034617007,0.027086135,0.0008019856,0.08,0.0,0.0,0.0,-1.0
15508000,15508000,0.020540372,0.021489909,0.00024448286,0.08,0.0,0.0,0.0,-1.0
15612000,15612000,0.03228973,0.028399356,0.00020357841,0.08,0.0,0.0,0.0,-1.0
15712000,15712000,0.020657262,0.025739674,-0.0012862998,0.08,0.0,0.0,0.0,-1.0
15808000,15808000,0.02713966,0.020528482,-0.0006365961,0.08,0.0,0.0,0.0,-1.0
15908000,15908000,0.019849041,0.030810788,-0.0019351583,0.08,0.0,0.0,0.0,-1.0
16016000,16016000,0.023731142,0.035219535,0.0007793479,0.08,0.0,0.0,0.0,-1.0
16112000,16112000,0.02653414,0.021211868,-0.00013620665,0.08,0.0,0.0,0.0,-1.0
16215999,16215999,0.021869281,0.020984454,-0.0023410644,0.08,0.0,0.0,0.0,-1.0
16320000,16320000,0.019641452,0.0157533,-0.0012956826,0.08,0.0,0.0,0.0,-1.0
16416000,16416000,0.026703913,0.018835453,-0.0005552816,0.08,0.0,0.0,0.0,-1.0
16520000,16520000,0.028647793,0.03281644,0.00070636015,0.08,0.0,0.0,0.0,-1.0
16624000,16624000,0.031834587,0.027575357,0.00083421665,0.08,0.0,0.0,0.0,-1.0
16720000,16720000,0.030978562,0.019359829,-0.0017390903,0.08,0.0,0.0,0.0,-1.0
16820000,16820000,0.019118926,0.026851516,0.00029352235,0.08,0.0,0.0,0.0,-1.0
16920000,16920000,0.031108702,0.017008267,-0.0010176465,0.08,0.0,0.0,0.0,-1.0
17020000,17020000,0.016506685,0.0146262385,5.056141e-05,0.08,0.0,0.0,0.0,-1.0
17124000,17124000,0.0210435,0.03381689,-0.00041011334,0.08,0.0,0.0,0.0,-1.0
17224000,17224000,0.025397042,0.014753072,-0.00045495442,0.08,0.0,0.0,0.0,-1.0
17320000,17320000,0.022029174,0.020588553,-0.00021285811,0.08,0.0,0.0,0.0,-1.0
17424000,17424000,0.02874644,0.02206391,0.00023823658,0.08,0.0,0.0,0.0,-1.0
17520000,17520000,0.037949104,0.02731467,-0.0017441344,0.08,0.0,0.0,0.0,-1.0
17620000,17620000,0.042443372,0.015755275,-0.00045308584,0.08,0.0,0.0,0.0,-1.0
17720000,17720000,0.02711632,0.0075501576,0.0022136695,0.08,0.0,0.0,0.0,-1.0
17824000,17824000,0.017716795,0.016250605,-0.0017287399,0.08,0.0,0.0,0.0,-1.0
17920000,17920000,0.035222072,0.023316357,-0.0012712142,0.08,0.0,0.0,0.0,-1.0
18020000,18020000,0.030331258,0.0189559,-0.0014457571,0.08,0.0,0.0,0.0,-1.0
18120000,18120000,0.028171504,0.023158088,-0.0005655237,0.08,0.0,0.0,0.0,-1.0
18220000,18220000,0.026729757,0.026268955,-0.0010424074,0.08,0.0,0.0,0.0,-1.0
18320000,18320000,0.016595535,0.022012636,0.00039443583,0.08,0.0,0.0,0.0,-1.0
18420000,18420000,0.030517198,0.025801472,6.446969e-05,0.08,0.0,0.0,0.0,-1.0
18520000,18520000,0.009443854,0.010032137,0.0021176762,0.08,0.0,0.0,0.0,-1.0
18620000,18620000,0.031748507,0.013008464,0.00037739027,0.08,0.0,0.0,0.0,-1.0
18720000,18720000,0.031607818,0.021094052,-0.0012208543,0.08,0.0,0.0,0.0,-1.0
18820000,18820000,0.022505047,0.022033494,0.00038473596,0.08,0.0,0.0,0.0,-1.0
18920000,18920000,0.024558187,0.027427334,0.00040135058,0.08,0.0,0.0,0.0,-1.0
19020000,19020000,0.037461936,0.027213028,0.0014560946,0.08,0.0,0.0,0.0,-1.0
19120000,19120000,0.028242787,0.019884558,-2.5432417e-05,0.08,0.0,0.0,0.0,-1.0
19220000,19220000,0.025283115,0.031644113,0.0024568078,0.08,0.0,0.0,0.0,-1.0
19320000,19320000,0.028568337,0.019978141,0.00084135326,0.08,0.0,0.0,0.0,-1.0
19420000,19420000,0.020409342,0.014791067,0.0024531707,0.08,0.0,0.0,0.0,-1.0
19520000,19520000,0.01388365,0.020924157,-0.0017940652,0.08,0.0,0.0,0.0,-1.0
19620000,19620000,0.02561975,0.018984254,0.00046766244,0.08,0.0,0.0,0.0,-1.0
19720000,19720000,0.045710538,0.027857581,0.0006960439,0.08,0.0,0.0,0.0,-1.0
19820000,19820000,0.028468609,0.01070568,-0.0018963643,0.08,0.0,0.0,0.0,-1.0
19920000,19920000,0.03103461,0.032640498,-0.00039101692,0.08,0.0,0.0,0.0,-1.0
20020000,20020000,0.025068494,0.029817536,0.00017336679,0.08,0.0,0.0,0.0,-1.0
20120000,20120000,0.032184094,0.017668352,0.00031169015,0.08,0.0,0.0,0.0,-1.0
20220000,20220000,0.022950707,0.02565079,-0.0019361748,0.08,0.0,0.0,0.0,-1.0
20320000,20320000,0.021958157,0.009855005,-0.0004531838,0.08,0.0,0.0,0.0,-1.0
20420000,20420000,0.02839038,0.01484146,-0.0013797962,0.08,0.0,0.0,0.0,-1.0
20524000,20524000,0.031553943,0.037848234,-0.00047145627,0.08,0.0,0.0,0.0,-1.0
20620000,20620000,0.031512,0.01499115,0.0006104935,0.08,0.0,0.0,0.0,-1.0
20724000,20724000,0.027034212,0.020633308,0.0010211137,0.08,0.0,0.0,0.0,-1.0
20820000,20820000,0.029904606,0.035216376,0.0002708179,0.08,0.0,0.0,0.0,-1.0
20924000,20924000,0.029743142,0.023653502,0.00021051533,0.08,0.0,0.0,0.0,-1.0
21020000,21020000,0.025061728,0.024970468,-0.0013521052,0.08,0.0,0.0,0.0,-1.0
21120000,21120000,0.019329056,0.017383914,-0.0025966603,0.08,0.0,0.0,0.0,-1.0
21220000,21220000,0.027828563,0.016365698,-0.00075301755,0.08,0.0,0.0,0.0,-1.0
21324000,21324000,0.020557422,0.015173379,-0.0003791587,0.08,0.0,0.0,0.0,-1.0
21420000,21420000,0.019283863,0.03069767,0.0013140942,0.08,0.0,0.0,0.0,-1.0
21520000,21520000,0.021988807,0.022148231,-0.0011993934,0.08,0.0,0.0,0.0,-1.0
21620000,21620000,0.019257974,0.030494977,-0.0023035922,0.08,0.0,0.0,0.0,-1.0
21724000,21724000,0.03156238,0.026784755,0.00022542854,0.08,0.0,0.0,0.0,-1.0
21820000,21820000,0.029739125,0.01310517,0.0009430159,0.08,0.0,0.0,0.0,-1.0
21924000,21924000,0.037116457,0.02803096,0.0018434279,0.08,0.0,0.0,0.0,-1.0
22020000,22020000,0.02800552,0.022065539,3.1675474e-05,0.08,0.0,0.0,0.0,-1.0
22124000,22124000,0.024680458,0.013963755,0.00016350005,0.08,0.0,0.0,0.0,-1.0
22220000,22220000,0.02768947,0.03233614,-0.0004620049,0.08,0.0,0.0,0.0,-1.0
22324000,22324000,0.024814334,0.026472086,-0.00026725122,0.08,0.0,0.0,0.0,-1.0
22424000,22424000,0.018214213,0.0030279383,0.0004002354,0.08,0.0,0.0,0.0,-1.0
22524000,22524000,0.02229519,0.009745047,0.00014195894,0.08,0.0,0.0,0.0,-1.0
22620000,22620000,0.026935602,0.023770211,-0.00028764008,0.08,0.0,0.0,0.0,-1.0
22720000,22720000,0.017703146,0.02386889,0.00017012066,0.08,0.0,0.0,0.0,-1.0
22820000,22820000,0.033747617,0.021677295,0.0021977345,0.08,0.0,0.0,0.0,-1.0
22924000,22924000,0.028691903,0.023378072,0.0010663455,0.08,0.0,0.0,0.0,-1.0
23020000,23020000,0.017742496,0.010917185,-0.001696662,0.08,0.0,0.0,0.0,-1.0
23120000,23120000,0.023865543,0.013749676,-0.001188116,0.08,0.0,0.0,0.0,-1.0
23220000,23220000,0.02989289,0.012037147,0.00010146385,0.08,0.0,0.0,0.0,-1.0
23320000,23320000,0.037010852,0.02349436,0.00050588365,0.08,0.0,0.0,0.0,-1.0
23424000,23424000,0.012745921,0.022599354,-0.00014517228,0.08,0.0,0.0,0.0,-1.0
23520000,23520000,0.022884429,0.019963296,0.00066889124,0.08,0.0,0.0,0.0,-1.0
23620000,23620000,0.021973103,0.015113059,0.0003762352,0.08,0.0,0.0,0.0,-1.0
23724000,23724000,0.027756533,0.01664044,0.0006605211,0.08,0.0,0.0,0.0,-1.0
23820000,23820000,0.020097937,0.016162083,-0.000767314,0.08,0.0,0.0,0.0,-1.0
23920000,23920000,0.0332733,0.026768751,-0.0007018621,0.08,0.0,0.0,0.0,-1.0
24020000,24020000,0.0216642,0.03099801,-0.00056496187,0.08,0.0,0.0,0.0,-1.0
24120000,24120000,0.028231757,0.0151251815,-0.0010290522,0.08,0.0,0.0,0.0,-1.0
24224000,24224000,0.03591288,0.016948495,0.0018546785,0.08,0.0,0.0,0.0,-1.0
24320000,24320000,0.022647113,0.033058714,0.0013188593,0.08,0.0,0.0,0.0,-1.0
24420000,24420000,0.021462945,0.025450926,6.938842e-06,0.08,0.0,0.0,0.0,-1.0
24524000,24524000,0.026739836,0.023984361,0.00023535821,0.08,0.0,0.0,0.0,-1.0
24620000,24620000,0.026337732,0.016923238,-0.0003053102,0.08,0.0,0.0,0.0,-1.0
24724000,24724000,0.031172687,0.021003915,0.0007752729,0.08,0.0,0.0,0.0,-1.0
24824000,24824000,0.033566758,0.015711896,-3.7925733e-05,0.08,0.0,0.0,0.0,-1.0
24924000,24924000,0.034670215,0.02379737,-0.00048508984,0.08,0.0,0.0,0.0,-1.0
25024000,25024000,0.023041178,0.024857543,-0.00012509596,0.08,0.0,0.0,0.0,-1.0
25120000,25120000,0.024828473,0.025849743,-0.0009873154,0.08,0.0,0.0,0.0,-1.0
25220000,25220000,0.025771525,0.028944638,0.001157469,0.08,0.0,0.0,0.0,-1.0
25324000,25324000,0.039604668,0.018265855,-0.00078646344,0.08,0.0,0.0,0.0,-1.0
25420000,25420000,0.020077875,0.028663982,-0.002192701,0.08,0.0,0.0,0.0,-1.0
25524000,25524000,0.029846806,0.021214062,0.0006321173,0.08,0.0,0.0,0.0,-1.0
25620000,25620000,0.024429377,0.02083849,-0.00026799837,0.08,0.0,0.0,0.0,-1.0
25724000,25724000,0.032440156,0.01895602,-0.0012485022,0.08,0.0,0.0,0.0,-1.0
25820000,25820000,0.030969074,0.020276802,-0.001061815,0.08,0.0,0.0,0.0,-1.0
25920000,25920000,0.020765742,0.030899273,0.0006918359,0.08,0.0,0.0,0.0,-1.0
26020000,26020000,0.027650295,0.025199004,0.0005970832,0.08,0.0,0.0,0.0,-1.0
26120000,26120000,0.022790616,0.008915602,0.0017511285,0.08,0.0,0.0,0.0,-1.0
26220000,26220000,0.020714179,0.021251908,9.799504e-06,0.08,0.0,0.0,0.0,-1.0
26320000,26320000,0.02274877,0.032553777,0.0028622446,0.08,0.0,0.0,0.0,-1.0
26424000,26424000,0.01812936,0.028523546,-0.0012432846,0.08,0.0,0.0,0.0,-1.0
26524000,26524000,0.020851435,0.015101146,-0.00034442177,0.08,0.0,0.0,0.0,-1.0
26620000,26620000,0.03430187,0.029682131,3.9785704e-05,0.08,0.0,0.0,0.0,-1.0
26724000,26724000,0.023301234,0.016093679,0.00029490716,0.08,0.0,0.0,0.0,-1.0
26820000,26820000,0.030198373,0.024742201,0.0012717946,0.08,0.0,0.0,0.0,-1.0
26920000,26920000,0.019174477,0.021059398,-0.0013217739,0.08,0.0,0.0,0.0,-1.0
27020000,27020000,0.023090348,0.026022235,0.0005484709,0.08,0.0,0.0,0.0,-1.0
27120000,27120000,0.017399618,0.023846917,0.0012593529,0.08,0.0,0.0,0.0,-1.0
27220000,27220000,0.026134249,0.01345739,-0.00043747184,0.08,0.0,0.0,0.0,-1.0
27324000,27324000,0.022919778,0.013078861,-0.0003985595,0.08,0.0,0.0,0.0,-1.0
27420000,27420000,0.028424429,0.03382373,-0.00086880586,0.08,0.0,0.0,0.0,-1.0
27520000,27520000,0.022722656,0.019332511,-0.00023572175,0.08,0.0,0.0,0.0,-1.0
27624000,27624000,0.03201991,0.017861797,0.00013597686,0.08,0.0,0.0,0.0,-1.0
27724000,27724000,0.021848913,0.01288488,-0.001132884,0.08,0.0,0.0,0.0,-1.0
27824000,27824000,0.02410984,0.029025659,-0.00023253598,0.08,0.0,0.0,0.0,-1.0
27920000,27920000,0.023719104,0.030192524,-0.001923892,0.08,0.0,0.0,0.0,-1.0
28020000,28020000,0.03143824,0.020177137,0.0007462025,0.08,0.0,0.0,0.0,-1.0
28120000,28120000,0.012824407,0.027707038,0.00096584065,0.08,0.0,0.0,0.0,-1.0
28220000,28220000,0.015212608,0.017371012,-0.0007465067,0.08,0.0,0.0,0.0,-1.0
28320000,28320000,0.026494825,0.026352674,-3.7400518e-05,0.08,0.0,0.0,0.0,-1.0
28420000,28420000,0.015111104,0.026963973,-0.0013799424,0.08,0.0,0.0,0.0,-1.0
28520000,28520000,0.023763163,0.02657916,-0.0025064198,0.08,0.0,0.0,0.0,-1.0
28620000,28620000,0.017391633,0.022922851,-0.0004895515,0.08,0.0,0.0,0.0,-1.0
28720000,28720000,0.026148193,0.027462058,-0.0028093725,0.08,0.0,0.0,0.0,-1.0
28820000,28820000,0.020685457,0.03012626,-0.00229865,0.08,0.0,0.0,0.0,-1.0
28920000,28920000,0.030094523,0.030281067,0.0009957262,0.08,0.0,0.0,0.0,-1.0
29020000,29020000,0.026532894,0.020155884,-0.0023047456,0.08,0.0,0.0,0.0,-1.0
29120000,29120000,0.019416744,0.021933384,-0.0010368204,0.08,0.0,0.0,0.0,-1.0
29220000,29220000,0.025955327,0.018683707,-0.0017009911,0.08,0.0,0.0,0.0,-1.0
29324000,29324000,0.021746809,0.019661842,-0.0014067537,0.08,0.0,0.0,0.0,-1.0
29424000,29424000,0.026529726,0.032535017,-0.0014766887,0.08,0.0,0.0,0.0,-1.0
29520000,29520000,0.02045236,0.018287724,-0.0024493507,0.08,0.0,0.0,0.0,-1.0
29620000,29620000,0.019413076,0.031393375,-0.0023902643,0.08,0.0,0.0,0.0,-1.0
29720000,29720000,0.026241789,0.031259257,-0.00043418235,0.08,0.0,0.0,0.0,-1.0
29820000,29820000,0.015959866,0.02620749,-4.128311e-05,0.08,0.0,0.0,0.0,-1.0
29920000,29920000,0.02579333,0.02612218,-0.0011482738,0.08,0.0,0.0,0.0,-1.0
30020000,30020000,0.028575994,0.014461135,1.1273473e-05,0.08,0.0,0.0,0.0,-1.0
30120000,30120000,0.031418655,0.04005819,0.0009849881,0.08,0.0,0.0,0.0,-1.0
30220000,30220000,0.021052562,0.02127072,-0.0015072164,0.08,0.0,0.0,0.0,-1.0
30320000,30320000,0.01879581,0.024463085,-0.0016984706,0.08,0.0,0.0,0.0,-1.0
30420000,30420000,0.026834635,0.022031812,-0.00085268356,0.08,0.0,0.0,0.0,-1.0
30524000,30524000,0.024221446,0.020397516,-0.002113736,0.08,0.0,0.0,0.0,-1.0
30620000,30620000,0.017665848,0.031465802,-0.00080084783,0.08,0.0,0.0,0.0,-1.0
30720000,30720000,0.02465212,0.024749197,-0.00022175512,0.08,0.0,0.0,0.0,-1.0
30820000,30820000,0.026375337,0.038355432,-0.0008326294,0.08,0.0,0.0,0.0,-1.0
30920000,30920000,0.020703997,0.01788216,-0.00083916046,0.08,0.0,0.0,0.0,-1.0
31024000,31024000,0.02398775,0.015164081,0.0001842156,0.08,0.0,0.0,0.0,-1.0
31120000,31120000,0.03096548,0.027777487,-1.860601e-05,0.08,0.0,0.0,0.0,-1.0
31220000,31220000,0.01179092,0.0292938,-0.0014720162,0.08,0.0,0.0,0.0,-1.0
31320000,31320000,0.028949073,0.024999022,0.00094161875,0.08,0.0,0.0,0.0,-1.0
31420000,31420000,0.037353672,0.033979636,0.00032092453,0.08,0.0,0.0,0.0,-1.0
31520000,31520000,0.03651228,0.03430922,-0.0016116871,0.08,0.0,0.0,0.0,-1.0
31624000,31624000,0.023692124,0.006739814,0.00048269128,0.08,0.0,0.0,0.0,-1.0
31724000,31724000,0.027674371,0.024810154,0.00047797986,0.08,0.0,0.0,0.0,-1.0
31820000,31820000,0.026433423,0.024712542,-0.0004025235,0.08,0.0,0.0,0.0,-1.0
31920000,31920000,0.025480418,0.02838017,-0.00037391906,0.08,0.0,0.0,0.0,-1.0
32024000,32024000,0.027692081,0.028282251,0.0009889858,0.08,0.0,0.0,0.0,-1.0
32124000,32124000,0.027352562,0.02199494,0.0018069521,0.08,0.0,0.0,0.0,-1.0
32224000,32224000,0.028564043,0.022003293,-0.0018964689,0.08,0.0,0.0,0.0,-1.0
32319999,32319999,0.03287325,0.02851459,-0.0012726412,0.08,0.0,0.0,0.0,-1.0
32423999,32423999,0.020501701,0.039491586,0.00047837413,0.08,0.0,0.0,0.0,-1.0
32527999,32527999,0.019025462,0.011069575,0.000936089,0.08,0.0,0.0,0.0,-1.0
32627999,32627999,0.038261764,0.02628265,-0.00042186372,0.08,0.0,0.0,0.0,-1.0
32731999,32731999,0.029314214,0.02733895,0.00043117354,0.08,0.0,0.0,0.0,-1.0
32836000,32836000,0.019257175,0.02794052,-0.00014465686,0.08,0.0,0.0,0.0,-1.0
32935999,32935999,0.027630886,0.034891665,0.0017678868,0.08,0.0,0.0,0.0,-1.0
33039999,33039999,0.034029692,0.036166303,7.5859716e-06,0.08,0.0,0.0,0.0,-1.0
33144000,33144000,0.017982243,0.020399742,-0.0015538266,0.08,0.0,0.0,0.0,-1.0
33243999,33243999,0.016545787,0.03665678,-0.0004974436,0.08,0.0,0.0,0.0,-1.0
33352000,33352000,0.03122975,0.018747065,0.00047151357,0.08,0.0,0.0,0.0,-1.0
33448000,33448000,0.024325805,0.029374141,-0.0004442784,0.08,0.0,0.0,0.0,-1.0
33548000,33548000,0.022390341,0.023673164,-0.00041434818,0.08,0.0,0.0,0.0,-1.0
33648000,33648000,0.023250647,0.037429206,-0.00036568913,0.08,0.0,0.0,0.0,-1.0
33748000,33748000,0.031576306,0.030482715,-0.00055462535,0.08,0.0,0.0,0.0,-1.0
33852000,33852000,0.025736688,0.026120272,0.00044782038,0.08,0.0,0.0,0.0,-1.0
33948000,33948000,0.0304508,0.024832342,0.00081211946,0.08,0.0,0.0,0.0,-1.0
34048000,34048000,0.022069603,0.016938297,-0.0008441765,0.08,0.0,0.0,0.0,-1.0
34148000,34148000,0.033791874,0.026452329,0.00135544,0.08,0.0,0.0,0.0,-1.0
34248000,34248000,0.029906342,0.014129426,-0.002058085,0.08,0.0,0.0,0.0,-1.0
34352000,34352000,0.029176436,0.031147953,-0.001488971,0.08,0.0,0.0,0.0,-1.0
34452000,34452000,0.012202102,0.03210773,-0.0017306742,0.08,0.0,0.0,0.0,-1.0
34548000,34548000,0.019158784,0.025976289,-0.00080444914,0.08,0.0,0.0,0.0,-1.0
34652000,34652000,0.035927743,0.026554855,0.0008010326,0.08,0.0,0.0,0.0,-1.0
34748000,34748000,0.03070534,0.026482496,-0.0010821017,0.08,0.0,0.0,0.0,-1.0
34852000,34852000,0.022734826,0.02351292,5.772072e-05,0.08,0.0,0.0,0.0,-1.0
34948000,34948000,0.029508296,0.024624206,-0.00058178994,0.08,0.0,0.0,0.0,-1.0
35048000,35048000,0.033678878,0.01959771,-0.000696588,0.08,0.0,0.0,0.0,-1.0
35148000,35148000,0.024973951,0.035686135,-0.00061100535,0.08,0.0,0.0,0.0,-1.0
35248000,35248000,0.024933914,0.026976788,0.000896874,0.08,0.0,0.0,0.0,-1.0
35348000,35348000,0.018630818,0.027393036,-0.0005994958,0.08,0.0,0.0,0.0,-1.0
35448000,35448000,0.023608591,0.0333762,-0.0005311925,0.08,0.0,0.0,0.0,-1.0
35548000,35548000,0.017257746,0.027789945,0.0004996677,0.08,0.0,0.0,0.0,-1.0
35648000,35648000,0.03606242,0.024109729,-0.0015461235,0.08,0.0,0.0,0.0,-1.0
35752000,35752000,0.024056528,0.025597088,-0.0012881036,0.08,0.0,0.0,0.0,-1.0
35848000,35848000,0.03256285,0.02279172,0.00020391196,0.08,0.0,0.0,0.0,-1.0
35948000,35948000,0.028706754,0.018042268,0.00033322498,0.08,0.0,0.0,0.0,-1.0
36048000,36048000,0.018752059,0.029720986,-0.002793615,0.08,0.0,0.0,0.0,-1.0
36148000,36148000,0.024602316,0.029140437,0.0026462683,0.08,0.0,0.0,0.0,-1.0
36248000,36248000,0.027147196,0.017161556,-0.00046687978,0.08,0.0,0.0,0.0,-1.0
36348000,36348000,0.035621576,0.015959363,0.0014247086,0.08,0.0,0.0,0.0,-1.0
36448000,36448000,0.031004678,0.024445534,0.0007057941,0.08,0.0,0.0,0.0,-1.0
36552000,36552000,0.03219814,0.024696602,0.0018762104,0.08,0.0,0.0,0.0,-1.0
36652000,36652000,0.034879554,0.013809948,-0.0027102611,0.08,0.0,0.0,0.0,-1.0
36748000,36748000,0.024331292,0.030376604,-0.0013041042,0.08,0.0,0.0,0.0,-1.0
36848000,36848000,0.020884775,0.02172246,0.00017958265,0.08,0.0,0.0,0.0,-1.0
36948000,36948000,0.01585382,0.028908709,0.0004673344,0.08,0.0,0.0,0.0,-1.0
37048000,37048000,0.030610714,0.019615918,-0.00033583233,0.08,0.0,0.0,0.0,-1.0
37148000,37148000,0.019541103,0.024332756,-0.001988389,0.08,0.0,0.0,0.0,-1.0
37248000,37248000,0.02452811,0.025024094,-0.0016004745,0.08,0.0,0.0,0.0,-1.0
37352000,37352000,0.012906503,0.027436715,-0.00089868385,0.08,0.0,0.0,0.0,-1.0
37448000,37448000,0.029204514,0.02515938,-0.0022114622,0.08,0.0,0.0,0.0,-1.0
37548000,37548000,0.030707173,0.027435059,0.0005618832,0.08,0.0,0.0,0.0,-1.0
37652000,37652000,0.02959,0.025948342,0.00045071318,0.08,0.0,0.0,0.0,-1.0
37752000,37752000,0.035082754,0.016184367,0.001556204,0.08,0.0,0.0,0.0,-1.0
37848000,37848000,0.018315453,0.015078578,-0.0010404951,0.08,0.0,0.0,0.0,-1.0
37948000,37948000,0.030514278,0.030762821,-0.0017740931,0.08,0.0,0.0,0.0,-1.0
38052000,38052000,0.011046664,0.036766704,-0.0010823717,0.08,0.0,0.0,0.0,-1.0
38148000,38148000,0.02999796,0.035224132,-0.00094474404,0.08,0.0,0.0,0.0,-1.0
38248000,38248000,0.025344308,0.03434476,-0.0012735265,0.08,0.0,0.0,0.0,-1.0
38348000,38348000,0.024315715,0.02621691,-0.00027009912,0.08,0.0,0.0,0.0,-1.0
38452000,38452000,0.021471867,0.027883617,-0.0014931188,0.08,0.0,0.0,0.0,-1.0
38548000,38548000,0.018169371,0.031922124,-0.00086165604,0.08,0.0,0.0,0.0,-1.0
38648000,38648000,0.031110128,0.025789574,0.0016717988,0.08,0.0,0.0,0.0,-1.0
38748000,38748000,0.026273815,0.024418173,-0.00025400968,0.08,0.0,0.0,0.0,-1.0
38848000,38848000,0.02351538,0.038377088,-0.0012586712,0.08,0.0,0.0,0.0,-1.0
38948000,38948000,0.02996832,0.031309776,-0.0011905887,0.08,0.0,0.0,0.0,-1.0
39048000,39048000,0.024999086,0.040079057,-0.0015291004,0.08,0.0,0.0,0.0,-1.0
39148000,39148000,0.023850868,0.0329893,-0.002170774,0.08,0.0,0.0,0.0,-1.0
39248000,39248000,0.027598217,0.026947401,-0.00051578914,0.08,0.0,0.0,0.0,-1.0
39348000,39348000,0.022778455,0.02665344,-0.0011506865,0.08,0.0,0.0,0.0,-1.0
39448000,39448000,0.03272853,0.029440608,-0.0017492612,0.08,0.0,0.0,0.0,-1.0
39552000,39552000,0.0263351,0.013844078,-0.001697805,0.08,0.0,0.0,0.0,-1.0
39648000,39648000,0.019085512,0.03168279,9.051105e-05,0.08,0.0,0.0,0.0,-1.0
39748000,39748000,0.0066593206,0.031242754,-0.00064661657,0.08,0.0,0.0,0.0,-1.0
39852000,39852000,0.027446039,0.0299535,-0.0020089566,0.08,0.0,0.0,0.0,-1.0
39948000,39948000,0.015378261,0.019000527,-0.0004788987,0.08,0.0,0.0,0.0,-1.0
40052000,40052000,0.029400967,0.01959961,0.00025052048,0.08,0.0,0.0,0.0,-1.0
40152000,40152000,0.035318613,0.026709523,-0.0026914144,0.08,0.0,0.0,0.0,-1.0
40248000,40248000,0.02275848,0.01357325,-0.001615093,0.08,0.0,0.0,0.0,-1.0
40352000,40352000,0.017141998,0.028788682,-0.0008275917,0.08,0.0,0.0,0.0,-1.0
40448000,40448000,0.037706442,0.023776934,-0.0014802286,0.08,0.0,0.0,0.0,-1.0
40552000,40552000,0.028418355,0.044554118,0.00019181185,0.08,0.0,0.0,0.0,-1.0
40648000,40648000,0.016340908,0.027435027,-0.0017256037,0.08,0.0,0.0,0.0,-1.0
40752000,40752000,0.028603125,0.026552334,-0.00057871285,0.08,0.0,0.0,0.0,-1.0
40852000,40852000,0.03283275,0.024558883,-0.00064256956,0.08,0.0,0.0,0.0,-1.0
40948000,40948000,0.034976296,0.022351038,0.00016737152,0.08,0.0,0.0,0.0,-1.0
41048000,41048000,0.02792423,0.030469216,-0.0016967433,0.08,0.0,0.0,0.0,-1.0
41148000,41148000,0.014915613,0.025878213,-0.004552785,0.08,0.0,0.0,0.0,-1.0
41248000,41248000,0.029024675,0.025218263,-0.0011900831,0.08,0.0,0.0,0.0,-1.0
41348000,41348000,0.030265931,0.023045892,-0.0010024616,0.08,0.0,0.0,0.0,-1.0
41452000,41452000,0.0255046,0.02308107,-0.0004903869,0.08,0.0,0.0,0.0,-1.0
41548000,41548000,0.022879422,0.03432008,-0.0014382986,0.08,0.0,0.0,0.0,-1.0
41648000,41648000,0.039341062,0.038002677,-0.0011740163,0.08,0.0,0.0,0.0,-1.0
41748000,41748000,0.015247337,0.029368779,-0.0013212573,0.08,0.0,0.0,0.0,-1.0
41848000,41848000,0.032563627,0.025216874,-0.0030075156,0.08,0.0,0.0,0.0,-1.0
41948000,41948000,0.016148506,0.021463878,-0.0017611996,0.08,0.0,0.0,0.0,-1.0
42048000,42048000,0.014171401,0.035057895,-0.0044314163,0.08,0.0,0.0,0.0,-1.0
42152000,42152000,0.027334243,0.033691864,6.295871e-05,0.08,0.0,0.0,0.0,-1.0
42248000,42248000,0.01988674,0.025191445,-0.0021811288,0.08,0.0,0.0,0.0,-1.0
42348000,42348000,0.017664628,0.031777605,-0.002636472,0.08,0.0,0.0,0.0,-1.0
42448000,42448000,0.021030467,0.04576984,-0.002920404,0.08,0.0,0.0,0.0,-1.0
42548000,42548000,0.0160421,0.027398026,-0.003004795,0.08,0.0,0.0,0.0,-1.0
42648000,42648000,0.027337417,0.021678487,-0.0021584062,0.08,0.0,0.0,0.0,-1.0
42748000,42748000,0.01827471,0.035550285,-0.0018193607,0.08,0.0,0.0,0.0,-1.0
42848000,42848000,0.023451542,0.03263315,-0.0020388903,0.08,0.0,0.0,0.0,-1.0
42952000,42952000,0.033052415,0.03131455,-0.0026803948,0.08,0.0,0.0,0.0,-1.0
43052000,43052000,0.023791855,0.027519094,-0.0030544156,0.08,0.0,0.0,0.0,-1.0
43148000,43148000,0.025527494,0.023134653,-0.0031700635,0.08,0.0,0.0,0.0,-1.0
43248000,43248000,0.023374977,0.038158815,-0.0024815842,0.08,0.0,0.0,0.0,-1.0
43348000,43348000,0.015112173,0.025538914,-0.003261755,0.08,0.0,0.0,0.0,-1.0
43452000,43452000,0.022128174,0.03231273,-0.0044241063,0.08,0.0,0.0,0.0,-1.0
43548000,43548000,0.023232002,0.02934103,-0.0012975213,0.08,0.0,0.0,0.0,-1.0
43648000,43648000,0.010470318,0.028247949,-0.0025588358,0.08,0.0,0.0,0.0,-1.0
43752000,43752000,0.01818223,0.01999771,-0.0028991292,0.08,0.0,0.0,0.0,-1.0
43848000,43848000,0.025217704,0.035051197,-0.00182555,0.08,0.0,0.0,0.0,-1.0
43948000,43948000,0.026955519,0.040219255,-0.0035785956,0.08,0.0,0.0,0.0,-1.0
44052000,44052000,0.024102667,0.0411819,-0.0020289493,0.08,0.0,0.0,0.0,-1.0
44148000,44148000,0.020208528,0.026534203,0.00019175671,0.08,0.0,0.0,0.0,-1.0
44248000,44248000,0.010192797,0.026742809,-0.0025975977,0.08,0.0,0.0,0.0,-1.0
44348000,44348000,0.03390318,0.030378547,-0.0035224308,0.08,0.0,0.0,0.0,-1.0
44448000,44448000,0.015417967,0.03597874,-0.0028736144,0.08,0.0,0.0,0.0,-1.0
44548000,44548000,0.020161651,0.01932385,-0.005015285,0.08,0.0,0.0,0.0,-1.0
44648000,44648000,0.03278966,0.026066225,-0.00314318,0.08,0.0,0.0,0.0,-1.0
44748000,44748000,0.00966927,0.03556725,-0.0045101205,0.08,0.0,0.0,0.0,-1.0
44848000,44848000,0.012601923,0.030134808,-0.0038373123,0.08,0.0,0.0,0.0,-1.0
44948000,44948000,0.015338912,0.032932635,-0.0043540047,0.08,0.0,0.0,0.0,-1.0
45048000,45048000,0.006329744,0.028307721,-0.002479126,0.08,0.0,0.0,0.0,-1.0
45148000,45148000,0.012805672,0.029631624,-0.0027501155,0.08,0.0,0.0,0.0,-1.0
45248000,45248000,0.025141818,0.0366407,-0.0037574812,0.08,0.0,0.0,0.0,-1.0
45348000,45348000,0.017988393,0.028930468,-0.0047990433,0.08,0.0,0.0,0.0,-1.0
45452000,45452000,0.02551191,0.03062254,-0.0034353551,0.08,0.0,0.0,0.0,-1.0
45548000,45548000,0.018100899,0.023856658,-0.0048494274,0.08,0.0,0.0,0.0,-1.0
45652000,45652000,0.01599675,0.03819319,-0.0043957173,0.08,0.0,0.0,0.0,-1.0
45752000,45752000,0.013993954,0.029775567,-0.0035859884,0.08,0.0,0.0,0.0,-1.0
45848000,45848000,0.019407852,0.025013512,-0.003808237,0.08,0.0,0.0,0.0,-1.0
45948000,45948000,0.027940324,0.030610407,-0.0044455393,0.08,0.0,0.0,0.0,-1.0
46048000,46048000,0.015236037,0.020222573,-0.004581691,0.08,0.0,0.0,0.0,-1.0
46148000,46148000,0.027913818,0.02232676,-0.004513234,0.08,0.0,0.0,0.0,-1.0
46248000,46248000,0.018721977,0.034998283,-0.004190871,0.08,0.0,0.0,0.0,-1.0
46348000,46348000,0.017752789,0.037840694,-0.0025993423,0.08,0.0,0.0,0.0,-1.0
46452000,46452000,0.021665217,0.0314344,-0.0035063282,0.08,0.0,0.0,0.0,-1.0
46552000,46552000,0.018979983,0.033460252,-0.0043312344,0.08,0.0,0.0,0.0,-1.0
46648000,46648000,0.023281498,0.033426505,-0.0042262287,0.08,0.0,0.0,0.0,-1.0
46748000,46748000,0.010567006,0.033806395,-0.0027166326,0.08,0.0,0.0,0.0,-1.0
46848000,46848000,0.018746035,0.022537438,-0.005165968,0.08,0.0,0.0,0.0,-1.0
46948000,46948000,0.025111549,0.024166862,-0.0025631874,0.08,0.0,0.0,0.0,-1.0
47052000,47052000,0.017830689,0.024339056,-0.0050476193,0.08,0.0,0.0,0.0,-1.0
47148000,47148000,0.026404362,0.027807554,-0.004172775,0.08,0.0,0.0,0.0,-1.0
47248000,47248000,0.022588562,0.029066293,-0.0028314814,0.08,0.0,0.0,0.0,-1.0
47348000,47348000,0.030942503,0.036718193,-0.0052965283,0.08,0.0,0.0,0.0,-1.0
47448000,47448000,0.019916702,0.024172429,-0.00055213383,0.08,0.0,0.0,0.0,-1.0
47548000,47548000,0.018632095,0.0202513,-0.0032672666,0.08,0.0,0.0,0.0,-1.0
47648000,47648000,0.025904605,0.03404993,-0.005755073,0.08,0.0,0.0,0.0,-1.0
47748000,47748000,0.024800133,0.016943032,-0.004780572,0.08,0.0,0.0,0.0,-1.0
47848000,47848000,0.018165493,0.029716877,-0.004526369,0.08,0.0,0.0,0.0,-1.0
47948000,47948000,0.023617227,0.022652052,-0.005126735,0.08,0.0,0.0,0.0,-1.0
48048000,48048000,0.027377006,0.03190808,-0.005153616,0.08,0.0,0.0,0.0,-1.0
48148000,48148000,0.027432326,0.02721775,-0.004572704,0.08,0.0,0.0,0.0,-1.0
48248000,48248000,0.018733252,0.03852372,-0.004024235,0.08,0.0,0.0,0.0,-1.0
48352000,48352000,0.026786506,0.02580403,-0.0046985946,0.08,0.0,0.0,0.0,-1.0
48448000,48448000,0.026118884,0.024062352,-0.0032906153,0.08,0.0,0.0,0.0,-1.0
48548000,48548000,0.01865508,0.018017557,-0.0063817995,0.08,0.0,0.0,0.0,-1.0
48652000,48652000,0.02848107,0.031225715,-0.005202864,0.08,0.0,0.0,0.0,-1.0
48748000,48748000,0.014402306,0.03761862,-0.0059701456,0.08,0.0,0.0,0.0,-1.0
48852000,48852000,0.025523076,0.038535405,-0.0061809905,0.08,0.0,0.0,0.0,-1.0
48952000,48952000,0.01516434,0.017639007,-0.0046626576,0.08,0.0,0.0,0.0,-1.0
49048000,49048000,0.02276847,0.023988597,-0.0052094967,0.08,0.0,0.0,0.0,-1.0
49148000,49148000,0.017909436,0.026566058,-0.003620835,0.08,0.0,0.0,0.0,-1.0
49248000,49248000,0.011940307,0.023303788,-0.006009906,0.08,0.0,0.0,0.0,-1.0
49348000,49348000,0.019813087,0.03506261,-0.0060838065,0.08,0.0,0.0,0.0,-1.0
49452000,49452000,0.020428697,0.03143269,-0.0068106465,0.08,0.0,0.0,0.0,-1.0
49548000,49548000,0.019430453,0.020388585,-0.005871994,0.08,0.0,0.0,0.0,-1.0
49648000,49648000,0.02395248,0.02063075,-0.006314501,0.08,0.0,0.0,0.0,-1.0
49752000,49752000,0.020941678,0.030196976,-0.006212811,0.08,0.0,0.0,0.0,-1.0
49848000,49848000,0.02715001,0.032382995,-0.005429533,0.08,0.0,0.0,0.0,-1.0
49948000,49948000,0.019674504,0.024519412,-0.007041763,0.08,0.0,0.0,0.0,-1.0
50052000,50052000,0.012810428,0.027963893,-0.0037685193,0.08,0.0,0.0,0.0,-1.0
50152000,50152000,0.01853597,0.028126722,-0.0062372475,0.08,0.0,0.0,0.0,-1.0
50248000,50248000,0.02339211,0.034086395,-0.0041891085,0.08,0.0,0.0,0.0,-1.0
50352000,50352000,0.02052321,0.02873491,-0.0055471766,0.08,0.0,0.0,0.0,-1.0
50448000,50448000,0.021847552,0.023235757,-0.0036562101,0.08,0.0,0.0,0.0,-1.0
50548000,50548000,0.027237922,0.0247329,-0.006195271,0.08,0.0,0.0,0.0,-1.0
50648000,50648000,0.017743625,0.031758804,-0.005184231,0.08,0.0,0.0,0.0,-1.0
50748000,50748000,0.029107723,0.024882738,-0.00607001,0.08,0.0,0.0,0.0,-1.0
50848000,50848000,0.011476922,0.019096522,-0.0052535622,0.08,0.0,0.0,0.0,-1.0
50948000,50948000,0.010415942,0.033842135,-0.0065050772,0.08,0.0,0.0,0.0,-1.0
51052000,51052000,0.03194555,0.021912899,-0.006039145,0.08,0.0,0.0,0.0,-1.0
51148000,51148000,0.020606132,0.0337401,-0.003845596,0.08,0.0,0.0,0.0,-1.0
51248000,51248000,0.0077518085,0.03632807,-0.007688229,0.08,0.0,0.0,0.0,-1.0
51352000,51352000,0.016680717,0.027052717,-0.008208132,0.08,0.0,0.0,0.0,-1.0
51448000,51448000,0.021816147,0.024508659,-0.005964263,0.08,0.0,0.0,0.0,-1.0
51552000,51552000,0.034273706,0.033573154,-0.005833726,0.08,0.0,0.0,0.0,-1.0
51648000,51648000,0.022707961,0.025831036,-0.004438245,0.08,0.0,0.0,0.0,-1.0
51748000,51748000,0.009014944,0.028487409,-0.005691527,0.08,0.0,0.0,0.0,-1.0
51848000,51848000,0.021442337,0.02490319,-0.0043048565,0.08,0.0,0.0,0.0,-1.0
51948000,51948000,0.022446264,0.02511609,-0.004740442,0.08,0.0,0.0,0.0,-1.0
52048000,52048000,0.026268821,0.021388669,-0.0054495623,0.08,0.0,0.0,0.0,-1.0
52148000,52148000,0.03477852,0.03185597,-0.0046015144,0.08,0.0,0.0,0.0,-1.0
52248000,52248000,0.020050991,0.03328651,-0.0071660616,0.08,0.0,0.0,0.0,-1.0
52348000,52348000,0.036204576,0.026948996,-0.0061166147,0.08,0.0,0.0,0.0,-1.0
52448000,52448000,0.01451933,0.026627747,-0.0046619335,0.08,0.0,0.0,0.0,-1.0
52548000,52548000,0.024091752,0.03665888,-0.006133468,0.08,0.0,0.0,0.0,-1.0
52648000,52648000,0.013347052,0.022394395,-0.005345404,0.08,0.0,0.0,0.0,-1.0
52748000,52748000,0.012741225,0.033305217,-0.0062041036,0.08,0.0,0.0,0.0,-1.0
52848000,52848000,0.022555716,0.03330276,-0.007140095,0.08,0.0,0.0,0.0,-1.0
52948000,52948000,0.029025324,0.034718364,-0.008155683,0.08,0.0,0.0,0.0,-1.0
53052000,53052000,0.014683412,0.02524407,-0.0055733263,0.08,0.0,0.0,0.0,-1.0
53148000,53148000,0.028282404,0.033531025,-0.0048881094,0.08,0.0,0.0,0.0,-1.0
53252000,53252000,0.027712299,0.03148719,-0.007533278,0.08,0.0,0.0,0.0,-1.0
53348000,53348000,0.01976834,0.032891564,-0.008003883,0.08,0.0,0.0,0.0,-1.0
53448000,53448000,0.02322076,0.021714613,-0.006384164,0.08,0.0,0.0,0.0,-1.0
53548000,53548000,0.011704963,0.027801028,-0.008640259,0.08,0.0,0.0,0.0,-1.0
53648000,53648000,0.027521826,0.02331854,-0.0071249614,0.08,0.0,0.0,0.0,-1.0
53748000,53748000,0.02139642,0.027216269,-0.0049676783,0.08,0.0,0.0,0.0,-1.0
53848000,53848000,0.01881087,0.035107013,-0.006734212,0.08,0.0,0.0,0.0,-1.0
53948000,53948000,0.021789799,0.0341952,-0.008673744,0.08,0.0,0.0,0.0,-1.0
54052000,54052000,0.012073252,0.0222456,-0.008008658,0.08,0.0,0.0,0.0,-1.0
54152000,54152000,0.023581652,0.037812375,-0.006480864,0.08,0.0,0.0,0.0,-1.0
54248000,54248000,0.020460963,0.030205835,-0.006085858,0.08,0.0,0.0,0.0,-1.0
54348000,54348000,0.023167709,0.033156425,-0.0077319355,0.08,0.0,0.0,0.0,-1.0
54448000,54448000,0.025057387,0.044402737,-0.008440178,0.08,0.0,0.0,0.0,-1.0
54548000,54548000,0.03022045,0.025481159,-0.008466045,0.08,0.0,0.0,0.0,-1.0
54648000,54648000,0.024768695,0.029818522,-0.007725596,0.08,0.0,0.0,0.0,-1.0
54748000,54748000,0.032157287,0.029844493,-0.008352174,0.08,0.0,0.0,0.0,-1.0
54848000,54848000,0.027136292,0.01900125,-0.007576304,0.08,0.0,0.0,0.0,-1.0
54948000,54948000,0.028998451,0.032402545,-0.008237147,0.08,0.0,0.0,0.0,-1.0
55048000,55048000,0.014298714,0.038200554,-0.0063448134,0.08,0.0,0.0,0.0,-1.0
55152000,55152000,0.017829435,0.025417855,-0.0105441585,0.08,0.0,0.0,0.0,-1.0
55248000,55248000,0.017139582,0.03911213,-0.007617499,0.08,0.0,0.0,0.0,-1.0
55348000,55348000,0.016490828,0.024095416,-0.009200132,0.08,0.0,0.0,0.0,-1.0
55448000,55448000,0.018133882,0.02879289,-0.008594755,0.08,0.0,0.0,0.0,-1.0
55552000,55552000,0.026568746,0.03406052,-0.008259784,0.08,0.0,0.0,0.0,-1.0
55648000,55648000,0.02079683,0.03506967,-0.007949621,0.08,0.0,0.0,0.0,-1.0
55748000,55748000,0.024848353,0.032079797,-0.008390999,0.08,0.0,0.0,0.0,-1.0
55848000,55848000,0.012702246,0.019488994,-0.008189935,0.08,0.0,0.0,0.0,-1.0
55948000,55948000,0.020271072,0.02747257,-0.005051467,0.08,0.0,0.0,0.0,-1.0
56052000,56052000,0.030853469,0.028457042,-0.0068472633,0.08,0.0,0.0,0.0,-1.0
56152000,56152000,0.008790865,0.03381111,-0.0089069195,0.08,0.0,0.0,0.0,-1.0
56248000,56248000,0.007370253,0.04024388,-0.008473417,0.08,0.0,0.0,0.0,-1.0
56348000,56348000,0.03081568,0.03098522,-0.008672787,0.08,0.0,0.0,0.0,-1.0
56448000,56448000,0.016909376,0.03490798,-0.008351263,0.08,0.0,0.0,0.0,-1.0
56548000,56548000,0.008212557,0.03383233,-0.0075923363,0.08,0.0,0.0,0.0,-1.0
56648000,56648000,0.011079004,0.039016552,-0.009527828,0.08,0.0,0.0,0.0,-1.0
56748000,56748000,0.024930997,0.021959737,-0.008666455,0.08,0.0,0.0,0.0,-1.0
56852000,56852000,0.023667607,0.031659774,-0.006648471,0.08,0.0,0.0,0.0,-1.0
56952000,56952000,0.017588954,0.033812374,-0.010319893,0.08,0.0,0.0,0.0,-1.0
57048000,57048000,0.013785263,0.028435024,-0.0077843503,0.08,0.0,0.0,0.0,-1.0
57148000,57148000,0.008298209,0.03561987,-0.008251274,0.08,0.0,0.0,0.0,-1.0
57248000,57248000,0.023597233,0.029555194,-0.0061098686,0.08,0.0,0.0,0.0,-1.0
57352000,57352000,0.01649973,0.03070674,-0.0075011775,0.08,0.0,0.0,0.0,-1.0
57448000,57448000,0.016381854,0.03469432,-0.0099843545,0.08,0.0,0.0,0.0,-1.0
57552000,57552000,0.035070617,0.03162812,-0.00779709,0.08,0.0,0.0,0.0,-1.0
57652000,57652000,0.008419208,0.037950575,-0.009356837,0.08,0.0,0.0,0.0,-1.0
57748000,57748000,0.022870438,0.021860149,-0.009021617,0.08,0.0,0.0,0.0,-1.0
57848000,57848000,0.024029147,0.03891506,-0.009034391,0.08,0.0,0.0,0.0,-1.0
57948000,57948000,0.023225233,0.033135768,-0.0089802,0.08,0.0,0.0,0.0,-1.0
58052000,58052000,0.017365834,0.023695035,-0.00747892,0.08,0.0,0.0,0.0,-1.0
58148000,58148000,0.011782771,0.030384343,-0.0070198416,0.08,0.0,0.0,0.0,-1.0
58248000,58248000,0.03861384,0.028457776,-0.008730484,0.08,0.0,0.0,0.0,-1.0
58348000,58348000,0.019950278,0.030829132,-0.010134387,0.08,0.0,0.0,0.0,-1.0
58448000,58448000,0.025633663,0.035259604,-0.010119125,0.08,0.0,0.0,0.0,-1.0
58548000,58548000,0.026633637,0.030468263,-0.010151201,0.08,0.0,0.0,0.0,-1.0
58648000,58648000,0.025606563,0.026927747,-0.0095648095,0.08,0.0,0.0,0.0,-1.0
58748000,58748000,0.01568958,0.029581385,-0.012117274,0.08,0.0,0.0,0.0,-1.0
58848000,58848000,0.026680574,0.026674718,-0.0074688266,0.08,0.0,0.0,0.0,-1.0
58952000,58952000,0.015308611,0.041238267,-0.009639224,0.08,0.0,0.0,0.0,-1.0
59048000,59048000,0.024972772,0.03362993,-0.008021257,0.08,0.0,0.0,0.0,-1.0
59148000,59148000,0.0191414,0.03735792,-0.008042612,0.08,0.0,0.0,0.0,-1.0
59248000,59248000,0.01998624,0.039752908,-0.010610172,0.08,0.0,0.0,0.0,-1.0
59348000,59348000,0.011366161,0.036862224,-0.009290007,0.08,0.0,0.0,0.0,-1.0
59448000,59448000,0.026374206,0.03924099,-0.0091175875,0.08,0.0,0.0,0.0,-1.0
59548000,59548000,0.007804187,0.04128811,-0.008660874,0.08,0.0,0.0,0.0,-1.0
59648000,59648000,0.026254198,0.035663303,-0.011636197,0.08,0.0,0.0,0.0,-1.0
59752000,59752000,0.022527283,0.0361015,-0.008314445,0.08,0.0,0.0,0.0,-1.0
59848000,59848000,0.025453517,0.03345487,-0.009016513,0.08,0.0,0.0,0.0,-1.0
59948000,59948000,0.012956258,0.04003793,-0.008794208,0.08,0.0,0.0,0.0,-1.0
60048000,60048000,0.027764985,0.037564687,-0.009065818,0.08,0.0,0.0,0.0,-1.0
60148000,60148000,0.025510862,0.025953628,-0.008522096,0.08,0.0,0.0,0.0,-1.0
60252000,60252000,0.015899897,0.0354116,-0.009616396,0.08,0.0,0.0,0.0,-1.0
60348000,60348000,0.014464328,0.0291029,-0.006509963,0.08,0.0,0.0,0.0,-1.0
60448000,60448000,0.026869327,0.02962715,-0.009331459,0.08,0.0,0.0,0.0,-1.0
60548000,60548000,0.020071607,0.038061474,-0.009090291,0.08,0.0,0.0,0.0,-1.0
60648000,60648000,0.01724408,0.027123991,-0.010043139,0.08,0.0,0.0,0.0,-1.0
60748000,60748000,0.025004102,0.028230935,-0.008355322,0.08,0.0,0.0,0.0,-1.0
60852000,60852000,0.016346768,0.036042843,-0.009002834,0.08,0.0,0.0,0.0,-1.0
60948000,60948000,0.023872653,0.03455996,-0.009562439,0.08,0.0,0.0,0.0,-1.0
61048000,61048000,0.023679366,0.03564516,-0.010626409,0.08,0.0,0.0,0.0,-1.0
61148000,61148000,0.01591376,0.023689453,-0.008743251,0.08,0.0,0.0,0.0,-1.0
61252000,61252000,0.030218171,0.021699462,-0.009596116,0.08,0.0,0.0,0.0,-1.0
61348000,61348000,0.016864039,0.03981181,-0.011274519,0.08,0.0,0.0,0.0,-1.0
61452000,61452000,0.013625573,0.03327217,-0.008702579,0.08,0.0,0.0,0.0,-1.0
61548000,61548000,0.024076631,0.033768043,-0.0077975923,0.08,0.0,0.0,0.0,-1.0
61648000,61648000,0.02616833,0.038676336,-0.0103560705,0.08,0.0,0.0,0.0,-1.0
61752000,61752000,0.02823921,0.025862766,-0.009382714,0.08,0.0,0.0,0.0,-1.0
61852000,61852000,0.0151382685,0.03620064,-0.010187197,0.08,0.0,0.0,0.0,-1.0
61948000,61948000,0.024148459,0.03728927,-0.0081197545,0.08,0.0,0.0,0.0,-1.0
62048000,62048000,0.029868811,0.019541213,-0.009583277,0.08,0.0,0.0,0.0,-1.0
62148000,62148000,0.033045627,0.038133595,-0.009914453,0.08,0.0,0.0,0.0,-1.0
62248000,62248000,0.034994412,0.02878289,-0.010669366,0.08,0.0,0.0,0.0,-1.0
62348000,62348000,0.025408667,0.044263512,-0.010043095,0.08,0.0,0.0,0.0,-1.0
62448000,62448000,0.015591097,0.029145861,-0.009823286,0.08,0.0,0.0,0.0,-1.0
62548000,62548000,0.020043952,0.044620834,-0.0099349795,0.08,0.0,0.0,0.0,-1.0
62648000,62648000,0.015725162,0.034648076,-0.008733132,0.08,0.0,0.0,0.0,-1.0
62752000,62752000,0.019076744,0.031102521,-0.010053354,0.08,0.0,0.0,0.0,-1.0
62848000,62848000,0.026528323,0.0326114,-0.0068967314,0.08,0.0,0.0,0.0,-1.0
62948000,62948000,0.032024004,0.03677527,-0.00887473,0.08,0.0,0.0,0.0,-1.0
63048000,63048000,0.025466036,0.039196152,-0.009000723,0.08,0.0,0.0,0.0,-1.0
63148000,63148000,0.024017282,0.033293195,-0.009885879,0.08,0.0,0.0,0.0,-1.0
63248000,63248000,0.030298421,0.023648247,-0.009946481,0.08,0.0,0.0,0.0,-1.0
63348000,63348000,0.01596396,0.032671154,-0.008612449,0.08,0.0,0.0,0.0,-1.0
63448000,63448000,0.02370948,0.027395912,-0.009634999,0.08,0.0,0.0,0.0,-1.0
63548000,63548000,0.016467705,0.022679828,-0.01109768,0.08,0.0,0.0,0.0,-1.0
63648000,63648000,0.023790743,0.04261195,-0.009257273,0.08,0.0,0.0,0.0,-1.0
63752000,63752000,0.02929738,0.027889501,-0.00826026,0.08,0.0,0.0,0.0,-1.0
63848000,63848000,0.027021836,0.028457625,-0.010661543,0.08,0.0,0.0,0.0,-1.0
63948000,63948000,0.01426608,0.04541037,-0.009566351,0.08,0.0,0.0,0.0,-1.0
64052000,64052000,0.02592149,0.023810465,-0.010175078,0.08,0.0,0.0,0.0,-1.0
64148000,64148000,0.015441736,0.03913833,-0.010515078,0.08,0.0,0.0,0.0,-1.0
64252000,64252000,0.014799033,0.02792734,-0.009541374,0.08,0.0,0.0,0.0,-1.0
64351999,64351999,0.025252117,0.023116045,-0.009341004,0.08,0.0,0.0,0.0,-1.0
64460000,64460000,0.02502772,0.030877681,-0.008498476,0.08,0.0,0.0,0.0,-1.0
64564000,64564000,0.025630418,0.013550309,-0.009801032,0.08,0.0,0.0,0.0,-1.0
64660000,64660000,0.024639918,0.036922812,-0.009271099,0.08,0.0,0.0,0.0,-1.0
64764000,64764000,0.009659659,0.03306507,-0.01028105,0.08,0.0,0.0,0.0,-1.0
64863999,64863999,0.028798096,0.03312654,-0.011131201,0.08,0.0,0.0,0.0,-1.0
64972000,64972000,0.02082981,0.03241782,-0.008757679,0.08,0.0,0.0,0.0,-1.0
65071999,65071999,0.019015832,0.032031864,-0.010888329,0.08,0.0,0.0,0.0,-1.0
65172000,65172000,0.021351734,0.030490557,-0.009297815,0.08,0.0,0.0,0.0,-1.0
65271999,65271999,0.016371904,0.020403583,-0.008126807,0.08,0.0,0.0,0.0,-1.0
65375999,65375999,0.015891988,0.027865116,-0.009765706,0.08,0.0,0.0,0.0,-1.0
65479999,65479999,0.01890908,0.032005116,-0.0102202725,0.08,0.0,0.0,0.0,-1.0
65583999,65583999,0.019543918,0.03168108,-0.009769018,0.08,0.0,0.0,0.0,-1.0
65687999,65687999,0.021918785,0.030944876,-0.010175158,0.08,0.0,0.0,0.0,-1.0
65792000,65792000,0.02641631,0.03898331,-0.007700205,0.08,0.0,0.0,0.0,-1.0
65887999,65887999,0.019061718,0.021950208,-0.0077165775,0.08,0.0,0.0,0.0,-1.0
65991999,65991999,0.018266829,0.03738411,-0.00820438,0.08,0.0,0.0,0.0,-1.0
66095999,66095999,0.024089191,0.029855544,-0.010074697,0.08,0.0,0.0,0.0,-1.0
66204000,66204000,0.01671087,0.03678452,-0.010601314,0.08,0.0,0.0,0.0,-1.0
66304000,66304000,0.020278024,0.038528316,-0.009663097,0.08,0.0,0.0,0.0,-1.0
66400000,66400000,0.0094579505,0.032983888,-0.010165775,0.08,0.0,0.0,0.0,-1.0
66508000,66508000,0.024574287,0.032218773,-0.008360467,0.08,0.0,0.0,0.0,-1.0
66607999,66607999,0.014647763,0.027709985,-0.011761337,0.08,0.0,0.0,0.0,-1.0
66711999,66711999,0.026278656,0.019697154,-0.009994693,0.08,0.0,0.0,0.0,-1.0
66820000,66820000,0.022966372,0.031391058,-0.0091124205,0.08,0.0,0.0,0.0,-1.0
66916000,66916000,0.011909956,0.041380808,-0.010738643,0.08,0.0,0.0,0.0,-1.0
67015999,67015999,0.027068984,0.03236705,-0.008347131,0.08,0.0,0.0,0.0,-1.0
67120000,67120000,0.02817293,0.027673462,-0.009057019,0.08,0.0,0.0,0.0,-1.0
67216000,67216000,0.019119501,0.03168228,-0.009883763,0.08,0.0,0.0,0.0,-1.0
67316000,67316000,0.01945689,0.04030666,-0.008065201,0.08,0.0,0.0,0.0,-1.0
67416000,67416000,0.026563974,0.03663409,-0.01225497,0.08,0.0,0.0,0.0,-1.0
67516000,67516000,0.0063752076,0.036478862,-0.009041062,0.08,0.0,0.0,0.0,-1.0
67616000,67616000,0.0248729,0.013071051,-0.008047248,0.08,0.0,0.0,0.0,-1.0
67716000,67716000,0.022426324,0.02795303,-0.011353206,0.08,0.0,0.0,0.0,-1.0
67816000,67816000,0.014180154,0.033535592,-0.008121556,0.08,0.0,0.0,0.0,-1.0
67916000,67916000,0.020821327,0.027262561,-0.0096847145,0.08,0.0,0.0,0.0,-1.0
68020000,68020000,0.0133905895,0.035807665,-0.009986619,0.08,0.0,0.0,0.0,-1.0
68116000,68116000,0.0146591775,0.029520325,-0.009649156,0.08,0.0,0.0,0.0,-1.0
68216000,68216000,0.0233445,0.0394616,-0.010275557,0.08,0.0,0.0,0.0,-1.0
68316000,68316000,0.02175406,0.04087517,-0.010098366,0.08,0.0,0.0,0.0,-1.0
68420000,68420000,0.014850406,0.030858822,-0.011948317,0.08,0.0,0.0,0.0,-1.0
68516000,68516000,0.017801894,0.028661506,-0.009082347,0.08,0.0,0.0,0.0,-1.0
68616000,68616000,0.013591759,0.0338873,-0.010423441,0.08,0.0,0.0,0.0,-1.0
68716000,68716000,0.01612977,0.03261419,-0.010084682,0.08,0.0,0.0,0.0,-1.0
68820000,68820000,0.010361507,0.021467756,-0.008545245,0.08,0.0,0.0,0.0,-1.0
68916000,68916000,0.026083736,0.040636145,-0.010049532,0.08,0.0,0.0,0.0,-1.0
69020000,69020000,0.011852749,0.024351437,-0.0098348735,0.08,0.0,0.0,0.0,-1.0
69120000,69120000,0.015892787,0.03789981,-0.010177574,0.08,0.0,0.0,0.0,-1.0
69216000,69216000,0.017490495,0.03919237,-0.010609302,0.08,0.0,0.0,0.0,-1.0
69320000,69320000,0.024558032,0.020106167,-0.011260669,0.08,0.0,0.0,0.0,-1.0
69416000,69416000,0.014913263,0.035159316,-0.010790881,0.08,0.0,0.0,0.0,-1.0
69516000,69516000,0.015719011,0.05039587,-0.010394648,0.08,0.0,0.0,0.0,-1.0
69616000,69616000,0.022101222,0.019951561,-0.012850954,0.08,0.0,0.0,0.0,-1.0
69716000,69716000,0.021833057,0.038199976,-0.01196977,0.08,0.0,0.0,0.0,-1.0
69816000,69816000,0.027632654,0.043440957,-0.0109799495,0.08,0.0,0.0,0.0,-1.0
69916000,69916000,0.019692233,0.022786248,-0.008222759,0.08,0.0,0.0,0.0,-1.0
70016000,70016000,0.026348677,0.026890125,-0.009539281,0.08,0.0,0.0,0.0,-1.0
70120000,70120000,0.027466733,0.019963697,-0.01096267,0.08,0.0,0.0,0.0,-1.0
70216000,70216000,0.019592822,0.03267882,-0.010101404,0.08,0.0,0.0,0.0,-1.0
70316000,70316000,0.016341388,0.027221661,-0.009491183,0.08,0.0,0.0,0.0,-1.0
70416000,70416000,0.016566843,0.034183927,-0.009887042,0.08,0.0,0.0,0.0,-1.0
70516000,70516000,0.015202842,0.03733254,-0.010669596,0.08,0.0,0.0,0.0,-1.0
70616000,70616000,0.024677476,0.028211614,-0.010548263,0.08,0.0,0.0,0.0,-1.0
70716000,70716000,0.01481458,0.021838633,-0.0117506785,0.08,0.0,0.0,0.0,-1.0
70816000,70816000,0.026458904,0.029948704,-0.011016363,0.08,0.0,0.0,0.0,-1.0
70916000,70916000,0.016096512,0.02552637,-0.010294401,0.08,0.0,0.0,0.0,-1.0
71016000,71016000,0.0136031825,0.021486273,-0.009698167,0.08,0.0,0.0,0.0,-1.0
71116000,71116000,0.017709631,0.028844865,-0.011461553,0.08,0.0,0.0,0.0,-1.0
71216000,71216000,0.016063174,0.031139918,-0.00906108,0.08,0.0,0.0,0.0,-1.0
71316000,71316000,0.02445519,0.034663256,-0.009575955,0.08,0.0,0.0,0.0,-1.0
71416000,71416000,0.020917159,0.0341197,-0.011140994,0.08,0.0,0.0,0.0,-1.0
71516000,71516000,0.010675946,0.030784389,-0.012134332,0.08,0.0,0.0,0.0,-1.0
71620000,71620000,0.020348601,0.032634787,-0.009781312,0.08,0.0,0.0,0.0,-1.0
71716000,71716000,0.028676162,0.030607698,-0.011243375,0.08,0.0,0.0,0.0,-1.0
71820000,71820000,0.018271515,0.023624154,-0.0099113835,0.08,0.0,0.0,0.0,-1.0
71916000,71916000,0.023460228,0.030476205,-0.009991614,0.08,0.0,0.0,0.0,-1.0
72016000,72016000,0.010887387,0.03275508,-0.009681763,0.08,0.0,0.0,0.0,-1.0
72116000,72116000,0.015242561,0.024197454,-0.011380051,0.08,0.0,0.0,0.0,-1.0
72216000,72216000,0.010852297,0.028656434,-0.0094058635,0.08,0.0,0.0,0.0,-1.0
72316000,72316000,0.016217902,0.026598845,-0.01040753,0.08,0.0,0.0,0.0,-1.0
72420000,72420000,0.011929009,0.027211985,-0.012419101,0.08,0.0,0.0,0.0,-1.0
72516000,72516000,0.027564999,0.030248985,-0.0106582595,0.08,0.0,0.0,0.0,-1.0
72616000,72616000,0.020572472,0.03407792,-0.010856468,0.08,0.0,0.0,0.0,-1.0
72716000,72716000,0.03153421,0.028034767,-0.010705406,0.08,0.0,0.0,0.0,-1.0
72816000,72816000,0.031084558,0.021434374,-0.01094519,0.08,0.0,0.0,0.0,-1.0
72920000,72920000,0.0245831,0.042372797,-0.011755374,0.08,0.0,0.0,0.0,-1.0
73020000,73020000,0.022430288,0.026433028,-0.01034077,0.08,0.0,0.0,0.0,-1.0
73116000,73116000,0.014693663,0.034579787,-0.010229827,0.08,0.0,0.0,0.0,-1.0
73220000,73220000,0.01070152,0.031765252,-0.012674029,0.08,0.0,0.0,0.0,-1.0
73316000,73316000,0.021398433,0.02206596,-0.011779492,0.08,0.0,0.0,0.0,-1.0
73416000,73416000,0.016683798,0.028564828,-0.010722909,0.08,0.0,0.0,0.0,-1.0
73516000,73516000,0.02052175,0.038019747,-0.009992443,0.08,0.0,0.0,0.0,-1.0
73616000,73616000,0.01834334,0.037481554,-0.0103486655,0.08,0.0,0.0,0.0,-1.0
73716000,73716000,0.027572151,0.025737587,-0.009804516,0.08,0.0,0.0,0.0,-1.0
73816000,73816000,0.02321416,0.040449414,-0.010251784,0.08,0.0,0.0,0.0,-1.0
73916000,73916000,0.017936502,0.033914085,-0.0094771795,0.08,0.0,0.0,0.0,-1.0
74016000,74016000,0.02589258,0.030780349,-0.010754992,0.08,0.0,0.0,0.0,-1.0
74116000,74116000,0.013102218,0.031714145,-0.011204237,0.08,0.0,0.0,0.0,-1.0
74216000,74216000,0.018730542,0.021368444,-0.011280916,0.08,0.0,0.0,0.0,-1.0
74320000,74320000,0.017598966,0.038274832,-0.011309593,0.08,0.0,0.0,0.0,-1.0
74416000,74416000,0.036486894,0.031009234,-0.010264817,0.08,0.0,0.0,0.0,-1.0
74516000,74516000,0.02871067,0.0296232,-0.00918672,0.08,0.0,0.0,0.0,-1.0
74620000,74620000,0.015307589,0.031538144,-0.009621582,0.08,0.0,0.0,0.0,-1.0
74716000,74716000,0.025279578,0.028429477,-0.009650192,0.08,0.0,0.0,0.0,-1.0
74820000,74820000,0.011843296,0.035980325,-0.010665975,0.08,0.0,0.0,0.0,-1.0
74916000,74916000,0.024799917,0.020338014,-0.0104559595,0.08,0.0,0.0,0.0,-1.0
75016000,75016000,0.02163706,0.033966966,-0.011391313,0.08,0.0,0.0,0.0,-1.0
75116000,75116000,0.01515323,0.02059226,-0.010939605,0.08,0.0,0.0,0.0,-1.0
75216000,75216000,0.01122616,0.030279363,-0.011005604,0.08,0.0,0.0,0.0,-1.0
75316000,75316000,0.019432269,0.027042776,-0.009478341,0.08,0.0,0.0,0.0,-1.0
75416000,75416000,0.015182193,0.03421469,-0.01092443,0.08,0.0,0.0,0.0,-1.0
75516000,75516000,0.02226874,0.0334464,-0.007873446,0.08,0.0,0.0,0.0,-1.0
75620000,75620000,0.021978687,0.028358174,-0.010218162,0.08,0.0,0.0,0.0,-1.0
75716000,75716000,0.017231166,0.034247346,-0.008083224,0.08,0.0,0.0,0.0,-1.0
75816000,75816000,0.016259726,0.04176953,-0.010399173,0.08,0.0,0.0,0.0,-1.0
75916000,75916000,0.024835153,0.024470668,-0.009586255,0.08,0.0,0.0,0.0,-1.0
76016000,76016000,0.012745636,0.032082494,-0.008399303,0.08,0.0,0.0,0.0,-1.0
76120000,76120000,0.006886323,0.038855854,-0.010175349,0.08,0.0,0.0,0.0,-1.0
76216000,76216000,0.014810212,0.027466409,-0.008857589,0.08,0.0,0.0,0.0,-1.0
76320000,76320000,0.020786464,0.031955812,-0.010403263,0.08,0.0,0.0,0.0,-1.0
76416000,76416000,0.0165238,0.03173628,-0.010625872,0.08,0.0,0.0,0.0,-1.0
76516000,76516000,0.018018454,0.029216781,-0.009215543,0.08,0.0,0.0,0.0,-1.0
76616000,76616000,0.02681501,0.028949691,-0.008970353,0.08,0.0,0.0,0.0,-1.0
76716000,76716000,0.024566496,0.024714652,-0.012742901,0.08,0.0,0.0,0.0,-1.0
76816000,76816000,0.014119521,0.03546935,-0.013220883,0.08,0.0,0.0,0.0,-1.0
76916000,76916000,0.011432644,0.02813696,-0.0106154485,0.08,0.0,0.0,0.0,-1.0
77016000,77016000,0.011412373,0.035885453,-0.011428846,0.08,0.0,0.0,0.0,-1.0
77116000,77116000,0.023528516,0.042259913,-0.010716128,0.08,0.0,0.0,0.0,-1.0
77220000,77220000,0.022804309,0.03797331,-0.011449374,0.08,0.0,0.0,0.0,-1.0
77316000,77316000,0.009509716,0.021129955,-0.011680639,0.08,0.0,0.0,0.0,-1.0
77416000,77416000,0.015861692,0.025506036,-0.008961095,0.08,0.0,0.0,0.0,-1.0
77516000,77516000,0.016237842,0.0270974,-0.010591889,0.08,0.0,0.0,0.0,-1.0
77620000,77620000,0.0056777336,0.023473905,-0.009851425,0.08,0.0,0.0,0.0,-1.0
77716000,77716000,0.010369591,0.02292317,-0.011687744,0.08,0.0,0.0,0.0,-1.0
77816000,77816000,0.018686322,0.028000396,-0.011371006,0.08,0.0,0.0,0.0,-1.0
77920000,77920000,0.027619706,0.015410386,-0.010171759,0.08,0.0,0.0,0.0,-1.0
78016000,78016000,0.02414349,0.03151849,-0.010510889,0.08,0.0,0.0,0.0,-1.0
78116000,78116000,0.022087483,0.025268732,-0.009719724,0.08,0.0,0.0,0.0,-1.0
78216000,78216000,0.025256865,0.025408253,-0.011485444,0.08,0.0,0.0,0.0,-1.0
78316000,78316000,0.019489992,0.023232859,-0.010434177,0.08,0.0,0.0,0.0,-1.0
78416000,78416000,0.01698501,0.027097814,-0.009673881,0.08,0.0,0.0,0.0,-1.0
78516000,78516000,0.026530346,0.03578767,-0.011106397,0.08,0.0,0.0,0.0,-1.0
78616000,78616000,0.01993943,0.022970289,-0.01224329,0.08,0.0,0.0,0.0,-1.0
78716000,78716000,0.017212031,0.04332395,-0.0095711,0.08,0.0,0.0,0.0,-1.0
78816000,78816000,-0.0052782083,0.03071045,-0.009778738,0.08,0.0,0.0,0.0,-1.0
78916000,78916000,0.020033184,0.034603246,-0.011994707,0.08,0.0,0.0,0.0,-1.0
79016000,79016000,0.022231283,0.03344171,-0.011167214,0.08,0.0,0.0,0.0,-1.0
79116000,79116000,0.030702055,0.03655768,-0.012807526,0.08,0.0,0.0,0.0,-1.0
79216000,79216000,0.022654045,0.030635921,-0.009417714,0.08,0.0,0.0,0.0,-1.0
79316000,79316000,0.022860613,0.024677528,-0.0100691505,0.08,0.0,0.0,0.0,-1.0
79416000,79416000,0.01740132,0.03384843,-0.011066928,0.08,0.0,0.0,0.0,-1.0
79520000,79520000,0.02535604,0.033123594,-0.011514085,0.08,0.0,0.0,0.0,-1.0
79616000,79616000,0.02257854,0.022516537,-0.010743115,0.08,0.0,0.0,0.0,-1.0
79716000,79716000,0.018763725,0.0319097,-0.010979791,0.08,0.0,0.0,0.0,-1.0
79816000,79816000,0.011154538,0.027289936,-0.013705164,0.08,0.0,0.0,0.0,-1.0
