timestamp,magnetometer_ga[0],magnetometer_ga[1],magnetometer_ga[2]
1280000,0.19863445,-0.081137,0.43088514
1900000,0.20053989,-0.08139659,0.42935362
1912000,0.2005399,-0.08139659,0.42935362
1920000,0.20069711,-0.083136015,0.4261355
1932000,0.20069711,-0.083136015,0.4261355
1940000,0.20069712,-0.08313603,0.4261355
1952000,0.20069712,-0.08313603,0.4261355
1960000,0.20069712,-0.08313602,0.4261355
1972000,0.20250985,-0.081290066,0.42881578
1980000,0.20250985,-0.08129006,0.42881578
1992000,0.20250987,-0.08129006,0.42881578
2000000,0.20250987,-0.08129007,0.42881578
2012000,0.20250988,-0.08129007,0.42881578
2020000,0.20250988,-0.08129006,0.42881578
2032000,0.19835013,-0.08336943,0.43055546
2040000,0.19835013,-0.08336942,0.43055546
2052000,0.19835015,-0.08336942,0.43055546
2060000,0.19835015,-0.083369434,0.43055543
2072000,0.19835016,-0.083369434,0.43055543
2080000,0.1972791,-0.078940265,0.43128556
2092000,0.1972791,-0.078940265,0.43128556
2100000,0.1972791,-0.07894028,0.43128556
2112000,0.19727911,-0.07894028,0.43128553
2120000,0.19727911,-0.07894027,0.43128553
2132000,0.1994365,-0.08378956,0.42947474
2140000,0.1994365,-0.08378954,0.42947474
2152000,0.1994365,-0.08378954,0.42947474
2160000,0.19943652,-0.08378956,0.42947474
2172000,0.19943652,-0.08378956,0.42947474
2180000,0.19858652,-0.083316945,0.42654717
2192000,0.19858652,-0.083316945,0.42654717
2200000,0.19858654,-0.08331694,0.42654717
2212000,0.19858654,-0.08331694,0.42654717
2220000,0.19858655,-0.08331695,0.42654717
2232000,0.19829606,-0.08433859,0.42913634
2240000,0.19829607,-0.08433858,0.42913634
2252000,0.19829607,-0.08433858,0.42913634
2260000,0.19829609,-0.084338576,0.42913634
2272000,0.19829609,-0.08433857,0.4291363
2280000,0.19829609,-0.08433859,0.4291363
2292000,0.20168905,-0.0795412,0.428808
2300000,0.20168905,-0.079541184,0.428808
2312000,0.20168906,-0.079541184,0.428808
2320000,0.20168906,-0.07954118,0.428808
2332000,0.20168908,-0.07954118,0.428808
2340000,0.2013253,-0.08396354,0.42843276
2352000,0.20132531,-0.08396354,0.42843276
2360000,0.20132531,-0.083963536,0.42843276
2372000,0.20132533,-0.08396353,0.42843276
2380000,0.20132533,-0.08396354,0.42843276
2392000,0.20060962,-0.08138185,0.43062192
2400000,0.20060962,-0.08138184,0.43062192
2412000,0.20060964,-0.08138184,0.43062192
2420000,0.20060964,-0.08138183,0.43062192
2432000,0.20060964,-0.08138183,0.43062192
2440000,0.20060965,-0.08138184,0.43062192
2452000,0.20234106,-0.08218734,0.43365452
2460000,0.20234106,-0.082187325,0.43365452
2472000,0.20234106,-0.082187325,0.43365452
2480000,0.20234108,-0.08218732,0.43365452
2492000,0.20494132,-0.07995325,0.42416072
2500000,0.20494132,-0.07995327,0.42416072
2512000,0.20494133,-0.07995327,0.42416072
2520000,0.20494133,-0.07995325,0.42416072
2532000,0.20494135,-0.07995325,0.42416072
2540000,0.20494135,-0.079953246,0.42416072
2552000,0.20037301,-0.07948013,0.43202195
2560000,0.20037301,-0.07948014,0.43202195
2572000,0.20037302,-0.07948014,0.43202195
2580000,0.20037302,-0.079480134,0.43202195
2592000,0.20037304,-0.079480134,0.43202195
2600000,0.20421328,-0.08133188,0.42615995
2612000,0.20421328,-0.08133188,0.42615995
2620000,0.20421329,-0.081331894,0.42615995
2632000,0.20421329,-0.081331894,0.42615995
2640000,0.2042133,-0.08133188,0.42615995
2652000,0.1980258,-0.0807507,0.4296179
2660000,0.1980258,-0.08075069,0.4296179
2672000,0.19802581,-0.08075071,0.4296179
2680000,0.19802581,-0.080750704,0.4296179
2692000,0.19802582,-0.080750704,0.42961788
2700000,0.19802582,-0.08075069,0.42961788
2712000,0.19880061,-0.082113154,0.42607695
2720000,0.19880061,-0.08211318,0.42607692
2732000,0.19880062,-0.08211317,0.42607692
2740000,0.19880062,-0.08211316,0.42607692
2752000,0.2002357,-0.08175663,0.42596418
2760000,0.20023571,-0.081756614,0.42596418
2772000,0.20023571,-0.081756614,0.42596418
2780000,0.20023572,-0.08175663,0.42596415
2792000,0.20023572,-0.08175663,0.42596415
2800000,0.20023572,-0.08175662,0.42596415
2812000,0.20085658,-0.081296444,0.42991364
2820000,0.2008566,-0.08129643,0.42991364
2832000,0.2008566,-0.08129643,0.42991364
2840000,0.20085661,-0.081296444,0.42991364
2852000,0.20085661,-0.081296444,0.4299136
2860000,0.20164736,-0.08160702,0.4296162
2872000,0.20164737,-0.081607014,0.4296162
2880000,0.20164737,-0.08160701,0.4296162
2892000,0.20164737,-0.08160701,0.42961618
2900000,0.20164739,-0.08160702,0.42961618
2912000,0.19960046,-0.07978205,0.43097878
2920000,0.19960046,-0.07978203,0.43097878
2932000,0.19960047,-0.07978203,0.43097878
2940000,0.19960047,-0.079782024,0.43097878
2952000,0.19960049,-0.079782024,0.43097878
2960000,0.19829558,-0.08203031,0.43177015
2972000,0.1982956,-0.08203031,0.43177015
2980000,0.1982956,-0.082030304,0.43177015
2992000,0.19829561,-0.0820303,0.43177015
3000000,0.19829561,-0.08203032,0.43177012
3012000,0.19398904,-0.07995245,0.4269615
3020000,0.19398904,-0.07995244,0.4269615
3032000,0.19398905,-0.07995244,0.4269615
3040000,0.19398905,-0.07995243,0.4269615
3052000,0.19398905,-0.079952426,0.4269615
3060000,0.19398907,-0.07995245,0.4269615
3072000,0.20254321,-0.08182294,0.4312919
3080000,0.20254323,-0.08182293,0.4312919
3092000,0.20254323,-0.081822924,0.4312919
3100000,0.20254324,-0.08182292,0.4312919
3112000,0.20254324,-0.08182292,0.4312919
3120000,0.20081978,-0.07938747,0.42855713
3132000,0.20081978,-0.07938747,0.42855713
3140000,0.20081978,-0.07938746,0.42855713
3152000,0.20081979,-0.07938746,0.42855713
3160000,0.20081979,-0.07938745,0.42855713
3172000,0.20236099,-0.0819866,0.42949918
3180000,0.20236099,-0.08198662,0.42949918
3192000,0.20236099,-0.08198661,0.42949918
3200000,0.202361,-0.081986606,0.42949918
3212000,0.202361,-0.081986606,0.42949918
3220000,0.20203912,-0.08246891,0.4303637
3232000,0.20203912,-0.08246891,0.4303637
3240000,0.20203914,-0.082468934,0.43036368
3252000,0.20203914,-0.08246893,0.43036368
3260000,0.20203915,-0.08246892,0.43036368
3272000,0.20203915,-0.08246892,0.43036368
3280000,0.1991442,-0.07937612,0.42894495
3292000,0.19914421,-0.07937614,0.42894495
3300000,0.19914421,-0.07937613,0.42894495
3312000,0.19914421,-0.07937613,0.42894495
3320000,0.19914423,-0.07937612,0.42894495
3332000,0.20205662,-0.0848353,0.43344155
3340000,0.20205662,-0.08483532,0.43344155
3352000,0.20205663,-0.08483531,0.43344155
3360000,0.20205663,-0.084835306,0.43344155
3372000,0.20205665,-0.084835306,0.43344155
3380000,0.19985634,-0.08388188,0.4301801
3392000,0.19985634,-0.08388188,0.4301801
3400000,0.19985636,-0.08388189,0.4301801
3412000,0.19985636,-0.08388189,0.4301801
3420000,0.19985636,-0.08388188,0.4301801
3432000,0.20291995,-0.08184068,0.42851365
3440000,0.20291995,-0.081840664,0.42851365
3452000,0.20291996,-0.081840664,0.42851365
3460000,0.20291996,-0.08184068,0.42851365
3472000,0.20291996,-0.08184068,0.42851365
3480000,0.20291997,-0.08184067,0.42851365
3492000,0.19762786,-0.07908777,0.42854604
3500000,0.19762786,-0.079087764,0.42854604
3512000,0.19762787,-0.079087764,0.42854604
3520000,0.19762787,-0.07908778,0.428546
3532000,0.19762789,-0.07908778,0.428546
3540000,0.203601,-0.079153195,0.42959177
3552000,0.203601,-0.079153195,0.42959177
3560000,0.20360102,-0.07915318,0.42959177
3572000,0.20360102,-0.07915318,0.42959177
3580000,0.20360103,-0.079153195,0.42959175
3592000,0.20020236,-0.07965919,0.4324152
3600000,0.20020238,-0.07965918,0.4324152
3612000,0.20020238,-0.07965918,0.4324152
3620000,0.20020238,-0.079659194,0.4324152
3632000,0.20020239,-0.07965919,0.4324152
3640000,0.1993616,-0.08254587,0.42923722
3652000,0.19936162,-0.08254587,0.42923722
3660000,0.19936162,-0.08254586,0.42923722
3672000,0.19936164,-0.08254586,0.42923722
3680000,0.19936164,-0.08254588,0.4292372
3692000,0.1997637,-0.080136694,0.42736965
3700000,0.1997637,-0.08013669,0.42736965
3712000,0.1997637,-0.08013668,0.42736965
3720000,0.19976372,-0.08013667,0.42736965
3732000,0.19976372,-0.08013667,0.42736965
3740000,0.20162055,-0.07896436,0.43001017
3752000,0.20162056,-0.07896436,0.43001017
3760000,0.20162056,-0.078964345,0.43001017
3772000,0.20162058,-0.078964345,0.43001017
3780000,0.20162058,-0.07896434,0.43001014
3792000,0.20037274,-0.07827224,0.42873323
3800000,0.20037274,-0.07827225,0.4287332
3812000,0.20037276,-0.07827225,0.4287332
3820000,0.20037276,-0.078272246,0.4287332
3832000,0.20037277,-0.07827224,0.4287332
3840000,0.20037277,-0.07827223,0.4287332
3852000,0.20022847,-0.08333171,0.43086904
3860000,0.20022847,-0.083331734,0.43086904
3872000,0.20022848,-0.08333173,0.43086904
3880000,0.20022848,-0.08333172,0.43086904
3892000,0.20022848,-0.08333172,0.43086904
3900000,0.20233046,-0.07948112,0.42974958
3912000,0.20233047,-0.07948112,0.42974958
3920000,0.20233047,-0.07948111,0.42974958
3932000,0.20233048,-0.07948111,0.42974958
3940000,0.20233048,-0.079481095,0.42974958
3952000,0.20133038,-0.08222274,0.43148783
3960000,0.20133038,-0.08222275,0.43148783
3972000,0.2013304,-0.08222275,0.43148783
3980000,0.2013304,-0.082222745,0.43148783
3992000,0.20133041,-0.08222274,0.4314878
3999999,0.20133041,-0.08222273,0.4314878
4012000,0.20061766,-0.07855457,0.42884365
4020000,0.20061767,-0.07855459,0.42884365
4031999,0.20061767,-0.078554586,0.42884365
4039999,0.20061767,-0.07855458,0.42884365
4052000,0.20061769,-0.07855458,0.42884365
4060000,0.19847131,-0.08421656,0.429947
4071999,0.19847131,-0.08421656,0.429947
4079999,0.19847132,-0.08421657,0.429947
4092000,0.19847132,-0.08421657,0.429947
4100000,0.19847132,-0.084216565,0.429947
4111999,0.19933864,-0.08037642,0.43162286
4119999,0.19933864,-0.08037641,0.43162286
4132000,0.19933866,-0.0803764,0.43162286
4140000,0.19933866,-0.080376424,0.43162286
4151999,0.19933867,-0.08037642,0.43162283
4159999,0.20103276,-0.078595474,0.42738026
4172000,0.20103276,-0.07859547,0.42738026
4180000,0.20103276,-0.07859546,0.42738026
4192000,0.20103277,-0.07859546,0.42738026
4200000,0.20103277,-0.078595474,0.42738023
4212000,0.19971891,-0.080878615,0.4267352
4220000,0.19971891,-0.0808786,0.4267352
4232000,0.19971891,-0.0808786,0.4267352
4240000,0.19971892,-0.080878615,0.4267352
4252000,0.19971892,-0.080878615,0.4267352
4260000,0.19971894,-0.08087861,0.4267352
4272000,0.19859244,-0.079150304,0.4310816
4280000,0.19859244,-0.07915029,0.4310816
4292000,0.19859245,-0.07915029,0.4310816
4300000,0.19859245,-0.079150304,0.43108156
4312000,0.19859247,-0.079150304,0.43108156
4320000,0.20260313,-0.08214497,0.42733192
4332000,0.20260313,-0.08214497,0.42733192
4340000,0.20260315,-0.08214495,0.42733192
4352000,0.20260315,-0.08214495,0.42733192
4360000,0.20260315,-0.08214497,0.4273319
4372000,0.20159264,-0.08248353,0.42843398
4380000,0.20159264,-0.08248352,0.42843398
4392000,0.20159265,-0.08248352,0.42843398
4400000,0.20159265,-0.08248351,0.42843398
4412000,0.20159265,-0.08248351,0.42843398
4420000,0.19713137,-0.08542195,0.43223798
4432000,0.19713138,-0.08542194,0.43223798
4440000,0.19713138,-0.085421935,0.43223798
4452000,0.19713138,-0.085421935,0.43223798
4460000,0.1971314,-0.08542193,0.43223798
4472000,0.19895181,-0.07808622,0.4291355
4480000,0.19895181,-0.078086235,0.42913547
4492000,0.19895183,-0.078086235,0.42913547
4500000,0.19895183,-0.07808623,0.42913547
4512000,0.19895184,-0.07808622,0.42913547
4520000,0.19895184,-0.07808624,0.42913547
4532000,0.19842874,-0.081620395,0.42963943
4540000,0.19842875,-0.08162039,0.42963943
4552000,0.19842875,-0.08162039,0.42963943
4560000,0.19842876,-0.08162037,0.42963943
4572000,0.19842876,-0.08162037,0.42963943
4580000,0.20120448,-0.081115805,0.43080893
4592000,0.2012045,-0.081115805,0.43080893
4600000,0.2012045,-0.0811158,0.43080893
4612000,0.20120451,-0.08111579,0.43080893
4620000,0.20120451,-0.08111578,0.43080893
4632000,0.2005826,-0.08310687,0.42556217
4640000,0.2005826,-0.08310688,0.42556217
4652000,0.20058261,-0.08310688,0.42556217
4660000,0.20058261,-0.08310687,0.42556217
4672000,0.20058262,-0.08310687,0.42556217
4680000,0.2026173,-0.083070114,0.42714587
4692000,0.20261732,-0.08307011,0.42714587
4700000,0.20261732,-0.08307013,0.42714587
4712000,0.20261732,-0.08307012,0.42714587
4720000,0.20261733,-0.083070114,0.42714587
4732000,0.20203482,-0.08375761,0.4260158
4740000,0.20203482,-0.0837576,0.4260158
4752000,0.20203483,-0.083757594,0.4260158
4760000,0.20203483,-0.08375762,0.4260158
4772000,0.20203483,-0.08375761,0.4260158
4780000,0.20203485,-0.0837576,0.4260158
4792000,0.19981374,-0.08304999,0.42958823
4800000,0.19981374,-0.083049975,0.42958823
4812000,0.19981375,-0.083049975,0.42958823
4820000,0.19981375,-0.08304999,0.42958823
4832000,0.19930646,-0.08065842,0.42940405
4840000,0.19930646,-0.08065841,0.42940405
4852000,0.19930647,-0.08065841,0.42940405
4860000,0.19930647,-0.08065843,0.42940405
4872000,0.19930649,-0.08065843,0.42940405
4880000,0.19930649,-0.080658406,0.42940405
4892000,0.20078719,-0.07940733,0.4301857
4900000,0.20078719,-0.07940732,0.4301857
4912000,0.2007872,-0.07940732,0.4301857
4920000,0.2007872,-0.079407334,0.4301857
4932000,0.20078722,-0.079407334,0.4301857
4940000,0.19994828,-0.078328,0.42774275
4952000,0.1999483,-0.078328,0.42774275
4960000,0.1999483,-0.07832799,0.42774275
4972000,0.19994831,-0.07832798,0.42774275
4980000,0.19994831,-0.078328006,0.42774275
4992000,0.20026287,-0.08322633,0.4310337
5000000,0.20026287,-0.08322632,0.4310337
5012000,0.20026289,-0.08322632,0.43103367
5020000,0.20026289,-0.08322631,0.43103367
5032000,0.2002629,-0.08322631,0.43103367
5040000,0.2002629,-0.08322633,0.43103367
5052000,0.20063621,-0.08095466,0.42731214
5060000,0.20063621,-0.08095465,0.42731214
5072000,0.20063622,-0.08095465,0.42731214
5080000,0.20063622,-0.08095464,0.42731214
5092000,0.20063624,-0.08095464,0.42731214
5100000,0.20177998,-0.08050701,0.42939016
5112000,0.20177998,-0.08050701,0.42939016
5120000,0.20177999,-0.080507,0.42939016
5132000,0.20177999,-0.080507,0.42939016
5140000,0.20178,-0.08050702,0.42939016
5152000,0.20299856,-0.08019275,0.42720008
5160000,0.20299858,-0.080192745,0.42720008
5172000,0.20299858,-0.08019274,0.42720008
5180000,0.20299858,-0.08019273,0.42720008
5192000,0.2029986,-0.08019273,0.42720008
5200000,0.19760676,-0.0827814,0.42685163
5212000,0.19760676,-0.0827814,0.42685163
5220000,0.19760677,-0.08278139,0.42685163
5232000,0.19760677,-0.08278138,0.42685163
5240000,0.19760677,-0.082781374,0.42685163
5252000,0.19975358,-0.08270378,0.42957693
5260000,0.19975358,-0.08270379,0.42957693
5272000,0.1997536,-0.08270379,0.42957693
5280000,0.1997536,-0.082703784,0.42957693
5292000,0.19975361,-0.082703784,0.42957693
5300000,0.19975361,-0.08270377,0.42957693
5312000,0.20013608,-0.08267113,0.43149513
5320000,0.20013608,-0.08267114,0.4314951
5332000,0.2001361,-0.08267114,0.4314951
5340000,0.2001361,-0.082671136,0.4314951
5352000,0.20053709,-0.08282405,0.42868116
5360000,0.20053709,-0.08282404,0.42868116
5372000,0.2005371,-0.08282404,0.42868116
5380000,0.2005371,-0.08282405,0.42868114
5392000,0.2005371,-0.08282405,0.42868114
5400000,0.20053712,-0.082824044,0.42868114
5412000,0.19862205,-0.08010505,0.42991126
5420000,0.19862205,-0.08010504,0.42991126
5432000,0.19862206,-0.08010507,0.42991126
5440000,0.19862206,-0.08010505,0.42991126
5452000,0.19862208,-0.08010505,0.42991123
5460000,0.2015733,-0.079871714,0.42786464
5472000,0.20157331,-0.079871714,0.42786464
5480000,0.20157331,-0.07987173,0.42786464
5492000,0.20157333,-0.07987173,0.42786464
5500000,0.20157333,-0.079871714,0.42786464
5512000,0.20237704,-0.08058838,0.42792028
5520000,0.20237705,-0.08058836,0.42792028
5532000,0.20237705,-0.08058836,0.42792028
5540000,0.20237705,-0.08058838,0.42792028
5552000,0.20237707,-0.08058838,0.42792028
5560000,0.20237707,-0.08058837,0.42792028
5572000,0.1976597,-0.079149336,0.4297834
5580000,0.1976597,-0.07914933,0.4297834
5592000,0.19765972,-0.07914933,0.42978337
5600000,0.19765972,-0.07914934,0.42978337
5612000,0.20369367,-0.08049428,0.42741203
5620000,0.20369367,-0.08049427,0.42741203
5632000,0.20369369,-0.08049426,0.42741203
5640000,0.20369369,-0.080494255,0.42741203
5652000,0.2036937,-0.080494255,0.42741203
5660000,0.2036937,-0.08049427,0.427412
5672000,0.20197994,-0.079660244,0.4265533
5680000,0.20197994,-0.07966024,0.4265533
5692000,0.20197995,-0.07966024,0.4265533
5700000,0.20197995,-0.07966022,0.4265533
5712000,0.20197995,-0.07966022,0.4265533
5720000,0.20163931,-0.08110177,0.4285211
5732000,0.20163932,-0.08110177,0.4285211
5740000,0.20163932,-0.08110176,0.4285211
5752000,0.20163934,-0.08110176,0.4285211
5760000,0.20163934,-0.081101775,0.4285211
5772000,0.19819084,-0.08169974,0.4292265
5780000,0.19819084,-0.08169972,0.4292265
5792000,0.19819084,-0.08169972,0.4292265
5800000,0.19819085,-0.081699714,0.4292265
5812000,0.19819085,-0.081699714,0.4292265
5820000,0.1999465,-0.08130684,0.42970115
5832000,0.19994651,-0.08130684,0.42970115
5840000,0.19994651,-0.08130682,0.42970115
5852000,0.19994652,-0.08130682,0.42970115
5860000,0.19994652,-0.081306815,0.42970115
5872000,0.19963028,-0.08323136,0.42812815
5880000,0.19963029,-0.083231375,0.42812815
5892000,0.19963029,-0.083231375,0.42812812
5900000,0.1996303,-0.08323136,0.42812812
5912000,0.1996303,-0.08323136,0.42812812
5920000,0.19963032,-0.08323135,0.42812812
5932000,0.20380117,-0.0774457,0.42616925
5940000,0.20380118,-0.07744572,0.42616922
5952000,0.20380118,-0.077445716,0.42616922
5960000,0.2038012,-0.07744571,0.42616922
5972000,0.2038012,-0.07744571,0.42616922
5980000,0.20144896,-0.08270375,0.43084422
5992000,0.20144898,-0.08270375,0.43084422
6000000,0.20144898,-0.08270376,0.43084422
6012000,0.20144898,-0.08270376,0.43084422
6020000,0.20144899,-0.08270375,0.43084422
6032000,0.19923249,-0.08174288,0.42883036
6040000,0.19923249,-0.081742875,0.42883036
6052000,0.19923249,-0.0817429,0.42883033
6060000,0.1992325,-0.08174289,0.42883033
6072000,0.1992325,-0.08174289,0.42883033
6080000,0.1999537,-0.08112594,0.4293446
6092000,0.19995372,-0.08112594,0.4293446
6100000,0.19995372,-0.08112595,0.4293446
6112000,0.19995373,-0.08112595,0.4293446
6120000,0.19995373,-0.081125945,0.4293446
6132000,0.2031456,-0.079526596,0.42475465
6140000,0.20314561,-0.07952658,0.42475465
6152000,0.20314561,-0.07952658,0.42475465
6160000,0.20314561,-0.079526596,0.42475465
6172000,0.20314562,-0.079526596,0.42475462
6180000,0.20314562,-0.07952659,0.42475462
6192000,0.20119001,-0.08361174,0.42846105
6200000,0.20119001,-0.08361173,0.42846105
6212000,0.20119002,-0.08361173,0.42846105
6220000,0.20119002,-0.08361174,0.42846105
6232000,0.20119004,-0.08361174,0.42846105
6240000,0.20223211,-0.08054474,0.42787477
6252000,0.20223211,-0.08054474,0.42787477
6260000,0.20223212,-0.08054473,0.42787477
6272000,0.20223212,-0.08054473,0.42787477
6280000,0.20223214,-0.08054475,0.42787477
6292000,0.20333293,-0.082339935,0.43274212
6300000,0.20333293,-0.08233993,0.43274212
6312000,0.20333295,-0.08233993,0.43274212
6320000,0.20333295,-0.08233992,0.43274212
6332000,0.20333296,-0.08233991,0.43274212
6340000,0.20010148,-0.082317926,0.42804807
6352000,0.2001015,-0.082317926,0.42804807
6360000,0.2001015,-0.08231792,0.42804807
6372000,0.20010151,-0.08231792,0.42804807
6380000,0.20010151,-0.08231793,0.42804807
6392000,0.20010152,-0.082317926,0.42804804
6400000,0.20150898,-0.08305929,0.4285597
6412000,0.20150898,-0.08305929,0.4285597
6420000,0.201509,-0.08305928,0.4285597
6432000,0.201509,-0.08305928,0.4285597
6440000,0.201509,-0.083059296,0.4285597
6452000,0.20095491,-0.078755625,0.42719203
6460000,0.20095491,-0.07875562,0.42719203
6472000,0.20095493,-0.07875562,0.42719203
6480000,0.20095493,-0.07875561,0.42719203
6492000,0.20095493,-0.0787556,0.42719203
6500000,0.20000951,-0.08036468,0.43209538
6512000,0.20000952,-0.08036468,0.43209538
6520000,0.20000952,-0.080364674,0.43209538
6532000,0.20000954,-0.08036467,0.43209538
6540000,0.20000954,-0.08036466,0.43209538
6552000,0.20104094,-0.080276385,0.43004993
6560000,0.20104095,-0.08027641,0.4300499
6572000,0.20104095,-0.0802764,0.4300499
6580000,0.20104097,-0.08027639,0.4300499
6592000,0.20104097,-0.08027639,0.4300499
6600000,0.20009956,-0.08291215,0.42849997
6612000,0.20009956,-0.08291215,0.42849997
6620000,0.20009957,-0.08291216,0.42849997
6632000,0.20009957,-0.08291216,0.42849997
6640000,0.20009957,-0.08291215,0.42849997
6652000,0.1998464,-0.07908245,0.4287175
6660000,0.1998464,-0.07908247,0.4287175
6672000,0.19984642,-0.07908247,0.4287175
6680000,0.19984642,-0.07908245,0.4287175
6692000,0.19984643,-0.07908245,0.4287175
6700000,0.19984643,-0.079082444,0.4287175
6712000,0.19985487,-0.08193175,0.43304768
6720000,0.19985487,-0.08193177,0.43304768
6732000,0.19985488,-0.08193176,0.43304765
6740000,0.19985488,-0.081931755,0.43304765
6752000,0.1998549,-0.081931755,0.43304765
6760000,0.20036341,-0.08003175,0.42998385
6772000,0.20036341,-0.080031745,0.42998385
6780000,0.20036343,-0.08003177,0.42998385
6792000,0.20036343,-0.08003176,0.42998385
6800000,0.20036344,-0.08003175,0.42998385
6812000,0.19889235,-0.0792389,0.42833948
6820000,0.19889237,-0.07923889,0.42833948
6832000,0.19889237,-0.07923889,0.42833948
6840000,0.19889238,-0.07923891,0.42833948
6852000,0.19889238,-0.07923891,0.42833948
6860000,0.19889238,-0.0792389,0.42833948
6872000,0.19948791,-0.082740724,0.42987412
6880000,0.19948791,-0.08274072,0.42987412
6892000,0.19948791,-0.08274072,0.42987412
6900000,0.19948792,-0.08274073,0.42987412
6912000,0.19762821,-0.081805475,0.4291171
6920000,0.19762821,-0.08180546,0.4291171
6932000,0.19762823,-0.08180546,0.4291171
6940000,0.19762823,-0.08180545,0.4291171
6952000,0.19762823,-0.08180545,0.4291171
6960000,0.19762824,-0.08180547,0.4291171
6972000,0.2016546,-0.08080648,0.42902893
6980000,0.20165461,-0.080806464,0.42902893
6992000,0.20165461,-0.080806464,0.42902893
7000000,0.20165461,-0.08080648,0.4290289
7012000,0.20165463,-0.08080648,0.4290289
7020000,0.20434651,-0.07984231,0.4279857
7032000,0.20434652,-0.07984231,0.42798567
7040000,0.20434652,-0.07984229,0.42798567
7052000,0.20434652,-0.07984229,0.42798567
7060000,0.20434654,-0.07984231,0.42798567
7072000,0.20225362,-0.08289382,0.42845368
7080000,0.20225364,-0.08289381,0.42845368
7092000,0.20225364,-0.08289381,0.42845368
7100000,0.20225365,-0.0828938,0.42845368
7112000,0.20225365,-0.082893796,0.42845368
7120000,0.20225365,-0.08289382,0.42845365
7132000,0.20072275,-0.08046566,0.4318158
7140000,0.20072275,-0.08046565,0.4318158
7152000,0.20072277,-0.08046565,0.4318158
7160000,0.20072277,-0.080465645,0.4318158
7172000,0.20072278,-0.08046564,0.4318158
7180000,0.20030272,-0.08082229,0.43005517
7192000,0.20030273,-0.08082228,0.43005517
7200000,0.20030273,-0.080822274,0.43005517
7212000,0.20030273,-0.080822274,0.43005517
7220000,0.20030275,-0.08082227,0.43005517
7232000,0.20177953,-0.08292443,0.42743176
7240000,0.20177953,-0.08292445,0.42743176
7252000,0.20177954,-0.08292445,0.42743176
7260000,0.20177954,-0.08292443,0.42743176
7272000,0.20177956,-0.08292443,0.42743176
7280000,0.19922234,-0.083938524,0.427249
7292000,0.19922236,-0.083938524,0.427249
7300000,0.19922236,-0.08393852,0.427249
7312000,0.19922237,-0.08393851,0.427249
7320000,0.19922237,-0.0839385,0.427249
7332000,0.20081423,-0.08218214,0.430378
7340000,0.20081423,-0.08218216,0.430378
7352000,0.20081425,-0.082182154,0.430378
7360000,0.20081425,-0.08218215,0.430378
7372000,0.20081425,-0.08218215,0.430378
7380000,0.19945571,-0.0832704,0.43067238
7392000,0.19945572,-0.0832704,0.43067238
7400000,0.19945572,-0.083270416,0.43067238
7412000,0.19945572,-0.083270416,0.43067238
7420000,0.19945574,-0.08327041,0.43067238
7432000,0.1994029,-0.08043638,0.42844874
7440000,0.19940291,-0.080436364,0.42844874
7452000,0.19940291,-0.080436364,0.4284487
7460000,0.19940291,-0.08043638,0.4284487
7472000,0.19940293,-0.08043638,0.4284487
7480000,0.19940293,-0.08043637,0.4284487
7492000,0.201414,-0.080105565,0.42845425
7500000,0.201414,-0.08010556,0.42845425
7512000,0.201414,-0.08010556,0.42845425
7520000,0.20141402,-0.08010557,0.42845422
7532000,0.20141402,-0.08010557,0.42845422
7540000,0.20023099,-0.082696505,0.4273918
7552000,0.200231,-0.082696505,0.42739177
7560000,0.200231,-0.08269649,0.42739177
7572000,0.20023102,-0.08269649,0.42739177
7580000,0.20023102,-0.082696505,0.42739177
7592000,0.20162457,-0.07975769,0.42798916
7600000,0.20162459,-0.07975768,0.42798913
7612000,0.20162459,-0.079757676,0.42798913
7620000,0.20162459,-0.07975769,0.42798913
7632000,0.2016246,-0.07975769,0.42798913
7640000,0.19995353,-0.08065678,0.4283452
7652000,0.19995353,-0.08065678,0.4283452
7660000,0.19995354,-0.080656774,0.4283452
7672000,0.19995354,-0.080656774,0.4283452
7680000,0.19995356,-0.08065679,0.42834517
7692000,0.19995356,-0.08065679,0.42834517
7700000,0.20113738,-0.08070597,0.42749366
7712000,0.2011374,-0.08070597,0.42749366
7720000,0.2011374,-0.080705956,0.42749366
7732000,0.20113741,-0.080705956,0.42749366
7740000,0.20113741,-0.08070597,0.42749366
7752000,0.20101519,-0.08399323,0.4296449
7760000,0.20101519,-0.08399321,0.4296449
7772000,0.2010152,-0.08399321,0.42964488
7780000,0.2010152,-0.083993204,0.42964488
7792000,0.20101522,-0.083993204,0.42964488
7800000,0.20188913,-0.08245867,0.42684573
7812000,0.20188914,-0.08245867,0.42684573
7820000,0.20188914,-0.08245865,0.42684573
7832000,0.20188914,-0.08245865,0.42684573
7840000,0.20188916,-0.082458645,0.42684573
7852000,0.20147754,-0.0827972,0.43051544
7860000,0.20147756,-0.082797214,0.43051544
7872000,0.20147756,-0.082797214,0.43051544
7880000,0.20147756,-0.08279721,0.43051544
7892000,0.20147757,-0.0827972,0.43051544
7900000,0.20147757,-0.08279722,0.43051544
7912000,0.20046017,-0.07906236,0.43146154
7920000,0.20046017,-0.07906235,0.43146154
7932000,0.20046017,-0.07906234,0.43146154
7940000,0.20046018,-0.079062335,0.43146154
7952000,0.20046018,-0.079062335,0.43146154
7960000,0.19923398,-0.08419325,0.43003276
7972000,0.19923398,-0.08419325,0.43003273
7980000,0.199234,-0.084193245,0.43003273
7992000,0.199234,-0.08419324,0.43003273
8000000,0.199234,-0.08419323,0.43003273
8012000,0.20229465,-0.082687266,0.42872703
8019999,0.20229466,-0.08268728,0.428727
8032000,0.20229466,-0.08268728,0.428727
8040000,0.20229466,-0.082687266,0.428727
8051999,0.20229468,-0.082687266,0.428727
8060000,0.20263934,-0.08364893,0.4276983
8072000,0.20263936,-0.08364893,0.4276983
8080000,0.20263936,-0.08364894,0.42769828
8092000,0.20263937,-0.08364894,0.42769828
8099999,0.20263937,-0.083648935,0.42769828
8112000,0.20251805,-0.082497306,0.42746222
8120000,0.20251806,-0.08249729,0.42746222
8131999,0.20251806,-0.08249729,0.42746222
8140000,0.20251808,-0.082497306,0.4274622
8152000,0.20251808,-0.082497306,0.4274622
8160000,0.19763775,-0.080867276,0.42967406
8172000,0.19763775,-0.080867276,0.42967406
8179999,0.19763777,-0.08086726,0.42967406
8192000,0.19763777,-0.08086726,0.42967406
8200000,0.19763778,-0.080867276,0.42967406
8211999,0.201018,-0.07919058,0.4317113
8220000,0.201018,-0.079190575,0.4317113
8232000,0.20101802,-0.079190575,0.43171126
8240000,0.20101802,-0.07919059,0.43171126
8252000,0.20101804,-0.07919059,0.43171126
8259999,0.20101804,-0.079190575,0.43171126
8272000,0.20192277,-0.08475878,0.4308796
8280000,0.20192277,-0.084758766,0.4308796
8291999,0.20192279,-0.084758766,0.4308796
8300000,0.20192279,-0.08475878,0.43087956
8312000,0.2019228,-0.08475878,0.43087956
8320000,0.19931908,-0.080807425,0.4309484
8332000,0.1993191,-0.080807425,0.43094838
8339999,0.1993191,-0.08080741,0.43094838
8352000,0.19931911,-0.08080741,0.43094838
8360000,0.19931911,-0.080807425,0.43094838
8371999,0.19984928,-0.08073837,0.4284596
8380000,0.19984928,-0.080738366,0.4284596
8392000,0.1998493,-0.080738366,0.4284596
8400000,0.1998493,-0.08073835,0.4284596
8412000,0.19984931,-0.08073835,0.4284596
8420000,0.20126139,-0.083764896,0.4283136
8432000,0.2012614,-0.083764896,0.4283136
8440000,0.2012614,-0.08376489,0.4283136
8452000,0.2012614,-0.08376489,0.42831358
8460000,0.20126142,-0.08376487,0.42831358
8472000,0.20126142,-0.08376487,0.42831358
8480000,0.19971606,-0.080796525,0.43189287
8492000,0.19971606,-0.080796525,0.43189284
8500000,0.19971608,-0.08079652,0.43189284
8512000,0.19971608,-0.08079652,0.43189284
8520000,0.19971608,-0.08079653,0.43189284
8532000,0.19845574,-0.08214015,0.42993683
8540000,0.19845575,-0.08214013,0.42993683
8552000,0.19845575,-0.08214013,0.42993683
8560000,0.19845575,-0.082140125,0.42993683
8572000,0.19845577,-0.082140125,0.42993683
8580000,0.20061569,-0.07712974,0.4308261
8592000,0.20061569,-0.07712974,0.43082607
8600000,0.20061569,-0.07712972,0.43082607
8612000,0.2006157,-0.07712972,0.43082607
8620000,0.2006157,-0.077129714,0.43082607
8632000,0.19877575,-0.0815398,0.43076685
8640000,0.19877575,-0.081539825,0.43076685
8652000,0.19877577,-0.08153982,0.43076685
8660000,0.19877577,-0.08153981,0.43076685
8672000,0.19877577,-0.08153981,0.43076685
8680000,0.19945565,-0.08186466,0.42858356
8692000,0.19945565,-0.081864655,0.42858356
8700000,0.19945566,-0.08186468,0.42858356
8712000,0.19945566,-0.08186467,0.42858353
8720000,0.19945568,-0.08186466,0.42858353
8732000,0.20208019,-0.079651326,0.42757818
8740000,0.2020802,-0.07965132,0.42757818
8752000,0.2020802,-0.07965132,0.42757818
8760000,0.20208022,-0.07965133,0.42757818
8772000,0.20208022,-0.07965133,0.42757818
8780000,0.20208023,-0.07965132,0.42757818
8792000,0.20273562,-0.08016782,0.42882136
8800000,0.20273562,-0.08016781,0.42882136
8812000,0.20273563,-0.08016781,0.42882136
8820000,0.20273563,-0.08016782,0.42882136
8832000,0.20273565,-0.08016782,0.42882136
8840000,0.20088848,-0.0819026,0.43244255
8852000,0.2008885,-0.0819026,0.43244255
8860000,0.2008885,-0.081902616,0.43244252
8872000,0.20088851,-0.081902616,0.43244252
8880000,0.20088851,-0.0819026,0.43244252
8892000,0.20094544,-0.08161218,0.4277486
8900000,0.20094544,-0.08161217,0.4277486
8912000,0.20094545,-0.08161216,0.4277486
8920000,0.20094545,-0.081612185,0.4277486
8932000,0.20094547,-0.08161218,0.4277486
8940000,0.2015293,-0.081143625,0.4313801
8952000,0.20152931,-0.081143625,0.4313801
8960000,0.20152931,-0.08114362,0.4313801
8972000,0.20152932,-0.08114361,0.4313801
8980000,0.20152932,-0.08114363,0.43138006
8992000,0.20019308,-0.08243272,0.42796767
9000000,0.20019308,-0.08243271,0.42796767
9012000,0.20019308,-0.0824327,0.42796767
9020000,0.20019309,-0.082432695,0.42796767
9032000,0.20019309,-0.082432695,0.42796767
9040000,0.2001931,-0.08243271,0.42796767
9052000,0.20518064,-0.082526125,0.4308131
9060000,0.20518066,-0.08252612,0.4308131
9072000,0.20518066,-0.08252612,0.4308131
9080000,0.20518067,-0.0825261,0.4308131
9092000,0.20518067,-0.0825261,0.4308131
9100000,0.20101434,-0.083001114,0.43243703
9112000,0.20101435,-0.083001114,0.43243703
9120000,0.20101435,-0.0830011,0.43243703
9132000,0.20101437,-0.0830011,0.43243703
9140000,0.20101437,-0.083001114,0.43243703
9152000,0.20016906,-0.08054849,0.4285054
9160000,0.20016906,-0.08054848,0.4285054
9172000,0.20016907,-0.08054847,0.4285054
9180000,0.20016907,-0.080548465,0.4285054
9192000,0.20016907,-0.080548465,0.4285054
9200000,0.19976977,-0.07946787,0.43146262
9212000,0.19976978,-0.07946786,0.43146262
9220000,0.19976978,-0.079467855,0.43146262
9232000,0.19976978,-0.079467855,0.43146262
9240000,0.1997698,-0.07946785,0.43146262
9252000,0.1997698,-0.07946784,0.43146262
9260000,0.19984855,-0.08108167,0.4306617
9272000,0.19984856,-0.08108167,0.4306617
9280000,0.19984856,-0.08108166,0.4306617
9292000,0.19984858,-0.08108166,0.4306617
9300000,0.19984858,-0.08108165,0.4306617
9312000,0.19991161,-0.08315419,0.43103436
9320000,0.19991161,-0.08315421,0.43103436
9332000,0.19991162,-0.0831542,0.43103436
9340000,0.19991162,-0.083154194,0.43103436
9352000,0.19991162,-0.083154194,0.43103436
9360000,0.20148815,-0.08110685,0.42985806
9372000,0.20148815,-0.08110685,0.42985806
9380000,0.20148817,-0.081106864,0.42985806
9392000,0.20148817,-0.081106864,0.42985806
9400000,0.20148818,-0.08110685,0.42985806
9412000,0.20278119,-0.082706824,0.4314258
9420000,0.20278119,-0.08270682,0.4314258
9432000,0.20278119,-0.08270684,0.43142578
9440000,0.2027812,-0.08270683,0.43142578
9452000,0.2027812,-0.08270683,0.43142578
9460000,0.20278122,-0.08270682,0.43142578
9472000,0.19902086,-0.08205733,0.43008402
9480000,0.19902086,-0.08205734,0.43008402
9492000,0.19902086,-0.08205734,0.43008402
9500000,0.19902088,-0.082057334,0.43008402
9512000,0.19902088,-0.082057334,0.43008402
9520000,0.19765556,-0.08021156,0.42859295
9532000,0.19765557,-0.08021156,0.42859292
9540000,0.19765557,-0.08021157,0.42859292
9552000,0.19765559,-0.08021157,0.42859292
9560000,0.19765559,-0.08021156,0.42859292
9572000,0.19784054,-0.07961525,0.4318434
9580000,0.19784054,-0.07961524,0.4318434
9592000,0.19784056,-0.07961524,0.4318434
9600000,0.19784056,-0.07961526,0.4318434
9612000,0.19784057,-0.07961526,0.4318434
9620000,0.19994062,-0.08104742,0.42841387
9632000,0.19994062,-0.08104742,0.42841387
9640000,0.19994064,-0.08104741,0.42841387
9652000,0.19994064,-0.08104741,0.42841387
9660000,0.19994065,-0.08104742,0.42841387
9672000,0.19951065,-0.08023805,0.42973554
9680000,0.19951065,-0.080238044,0.42973554
9692000,0.19951065,-0.080238044,0.42973554
9700000,0.19951066,-0.08023803,0.42973554
9712000,0.19951066,-0.08023803,0.4297355
9720000,0.19977367,-0.079895504,0.430677
9732000,0.19977367,-0.079895504,0.430677
9740000,0.19977368,-0.0798955,0.430677
9752000,0.19977368,-0.0798955,0.430677
9760000,0.19977368,-0.07989551,0.430677
9772000,0.19999985,-0.07969311,0.4307088
9780000,0.19999987,-0.0796931,0.4307088
9792000,0.19999987,-0.079693094,0.43070877
9800000,0.19999988,-0.07969309,0.43070877
9812000,0.19999988,-0.07969309,0.43070877
9820000,0.1999999,-0.0796931,0.43070877
9832000,0.20222305,-0.08231489,0.42712122
9840000,0.20222306,-0.082314886,0.42712122
9852000,0.20222306,-0.082314886,0.42712122
9860000,0.20222308,-0.08231488,0.42712122
9872000,0.20222308,-0.08231487,0.42712122
9880000,0.20155981,-0.08284709,0.42897704
9892000,0.20155981,-0.08284709,0.42897704
9900000,0.20155983,-0.08284708,0.42897704
9912000,0.20155983,-0.08284708,0.42897704
9920000,0.20155983,-0.082847066,0.42897704
9932000,0.19712798,-0.07865897,0.42592743
9940000,0.19712798,-0.07865898,0.42592743
9952000,0.197128,-0.07865898,0.42592743
9960000,0.197128,-0.07865897,0.42592743
9972000,0.19712801,-0.07865897,0.42592743
9980000,0.19712801,-0.07865896,0.42592743
9992000,0.1982476,-0.080758356,0.4293135
10000000,0.1982476,-0.08075837,0.4293135
10012000,0.19824761,-0.08075837,0.4293135
10020000,0.19824761,-0.08075836,0.4293135
10032000,0.19824763,-0.080758356,0.4293135
10040000,0.19867724,-0.0819017,0.4287001
10052000,0.19867726,-0.08190173,0.4287001
10060000,0.19867726,-0.081901714,0.42870006
10072000,0.19867727,-0.081901714,0.42870006
10080000,0.19867727,-0.08190171,0.42870006
10092000,0.2034399,-0.08226681,0.43187824
10100000,0.20343992,-0.08226682,0.43187824
10112000,0.20343992,-0.08226682,0.43187824
10120000,0.20343994,-0.08226681,0.43187824
10132000,0.20343994,-0.08226681,0.43187824
10140000,0.19947888,-0.07884091,0.42679015
10152000,0.1994789,-0.07884091,0.42679015
10160000,0.1994789,-0.07884093,0.42679012
10172000,0.19947891,-0.07884093,0.42679012
10180000,0.19947891,-0.07884092,0.42679012
10192000,0.2036199,-0.081439175,0.42707792
10200000,0.20361991,-0.08143916,0.42707792
10212000,0.20361991,-0.08143916,0.42707792
10220000,0.20361993,-0.081439175,0.42707792
10232000,0.20361993,-0.081439175,0.42707792
10240000,0.20207173,-0.07917203,0.42846343
10252000,0.20207174,-0.07917203,0.42846343
10260000,0.20207174,-0.079172015,0.42846343
10272000,0.20207174,-0.079172015,0.42846343
10280000,0.20207176,-0.07917204,0.42846343
10292000,0.1994889,-0.07826417,0.43277168
10300000,0.1994889,-0.07826416,0.43277168
10312000,0.19948891,-0.078264154,0.43277168
10320000,0.19948891,-0.07826415,0.43277168
10332000,0.19948891,-0.07826415,0.43277168
10340000,0.19948892,-0.07826416,0.43277168
10352000,0.19919243,-0.07934835,0.43112248
10360000,0.19919243,-0.07934833,0.43112248
10372000,0.19919245,-0.07934833,0.43112248
10380000,0.19919245,-0.07934835,0.43112245
10392000,0.19919246,-0.07934835,0.43112245
10400000,0.20269892,-0.081655055,0.4285293
10412000,0.20269892,-0.081655055,0.4285293
10420000,0.20269893,-0.08165505,0.4285293
10432000,0.20269893,-0.08165505,0.4285293
10440000,0.20269895,-0.08165506,0.42852926
10452000,0.19857259,-0.077655956,0.4290102
10460000,0.1985726,-0.07765594,0.4290102
10472000,0.1985726,-0.07765594,0.4290102
10480000,0.19857262,-0.077655934,0.4290102
10492000,0.19857262,-0.077655934,0.4290102
10500000,0.19857264,-0.07765595,0.4290102
10512000,0.20024784,-0.07905281,0.42922544
10520000,0.20024784,-0.079052806,0.42922544
10532000,0.20024785,-0.0790528,0.42922544
10540000,0.20024785,-0.07905279,0.42922544
10552000,0.20024787,-0.07905279,0.42922544
10560000,0.2021135,-0.08140181,0.4266152
10572000,0.2021135,-0.0814018,0.42661518
10580000,0.20211351,-0.081401795,0.42661518
10592000,0.20211351,-0.081401795,0.42661518
10600000,0.20211351,-0.08140179,0.42661518
10612000,0.20114325,-0.08316429,0.43259248
10620000,0.20114325,-0.083164304,0.43259248
10632000,0.20114326,-0.083164304,0.43259248
10640000,0.20114326,-0.0831643,0.43259248
10652000,0.20114328,-0.0831643,0.43259248
10660000,0.20158319,-0.080679536,0.43007043
10672000,0.20158319,-0.08067956,0.43007043
10680000,0.2015832,-0.08067955,0.43007043
10692000,0.2015832,-0.08067954,0.43007043
10700000,0.2015832,-0.080679536,0.43007043
10712000,0.19536719,-0.079141974,0.4291122
10720000,0.1953672,-0.07914199,0.4291122
10732000,0.1953672,-0.07914198,0.4291122
10740000,0.19536722,-0.079141974,0.4291122
10752000,0.19536722,-0.079141974,0.4291122
10760000,0.19536722,-0.07914197,0.4291122
10772000,0.20422344,-0.079617165,0.42811522
10780000,0.20422344,-0.07961718,0.42811522
10792000,0.20422345,-0.07961718,0.42811522
10800000,0.20422345,-0.07961717,0.42811522
10812000,0.20422347,-0.07961717,0.42811522
10820000,0.1986085,-0.08358445,0.42686692
10832000,0.19860852,-0.08358445,0.42686692
10840000,0.19860852,-0.083584465,0.42686692
10852000,0.19860853,-0.083584465,0.42686692
10860000,0.19860853,-0.08358446,0.42686692
10872000,0.1989227,-0.081969224,0.42838502
10880000,0.1989227,-0.08196922,0.42838502
10892000,0.1989227,-0.08196922,0.42838502
10900000,0.19892271,-0.08196923,0.42838502
10912000,0.19892271,-0.08196923,0.42838502
10920000,0.2019174,-0.08126538,0.4291591
10932000,0.20191741,-0.081265375,0.4291591
10940000,0.20191741,-0.08126537,0.4291591
10952000,0.20191741,-0.08126537,0.4291591
10960000,0.20191742,-0.08126538,0.4291591
10972000,0.20165505,-0.08180608,0.4305468
10980000,0.20165505,-0.08180606,0.4305468
10992000,0.20165506,-0.08180606,0.4305468
11000000,0.20165506,-0.08180608,0.4305468
11012000,0.20165507,-0.08180608,0.4305468
11020000,0.1968695,-0.08208783,0.4302604
11032000,0.1968695,-0.08208783,0.4302604
11040000,0.19686952,-0.08208782,0.4302604
11052000,0.19686952,-0.08208782,0.43026036
11060000,0.19686952,-0.08208784,0.43026036
11072000,0.19686954,-0.08208784,0.43026036
11080000,0.20155759,-0.08269374,0.43053904
11092000,0.20155759,-0.08269374,0.43053904
11100000,0.2015576,-0.082693726,0.43053904
11112000,0.2015576,-0.082693726,0.430539
11120000,0.20155762,-0.08269374,0.430539
11132000,0.20305914,-0.07964396,0.43104577
11140000,0.20305914,-0.07964395,0.43104577
11152000,0.20305915,-0.07964395,0.43104577
11160000,0.20305915,-0.07964394,0.43104577
11172000,0.20305917,-0.079643935,0.43104574
11180000,0.19820859,-0.08121648,0.42757785
11192000,0.19820859,-0.08121648,0.42757785
11200000,0.1982086,-0.08121647,0.42757785
11212000,0.1982086,-0.08121647,0.42757785
11220000,0.1982086,-0.081216455,0.42757785
11232000,0.19965476,-0.08220498,0.43269816
11240000,0.19965477,-0.082205005,0.43269816
11252000,0.19965477,-0.082205,0.43269816
11260000,0.19965477,-0.08220499,0.43269816
11272000,0.19965479,-0.08220499,0.43269813
11280000,0.19965479,-0.082205005,0.43269813
11292000,0.19949095,-0.08280687,0.42804244
11300000,0.19949095,-0.082806855,0.42804244
11312000,0.19949096,-0.082806855,0.42804244
11320000,0.19949096,-0.08280685,0.42804244
11332000,0.19949098,-0.08280685,0.42804244
11340000,0.20076858,-0.08286449,0.42946377
11352000,0.20076859,-0.08286449,0.42946377
11360000,0.20076859,-0.082864486,0.42946377
11372000,0.2007686,-0.082864486,0.42946377
11380000,0.2007686,-0.08286447,0.42946377
11392000,0.2002226,-0.08336868,0.4294458
11400000,0.2002226,-0.0833687,0.4294458
11412000,0.2002226,-0.083368696,0.4294458
11420000,0.20022261,-0.08336869,0.4294458
11432000,0.20022261,-0.08336869,0.4294458
11440000,0.20008592,-0.084044784,0.42766756
11452000,0.20008592,-0.084044784,0.42766756
11460000,0.20008594,-0.0840448,0.42766756
11472000,0.20008594,-0.0840448,0.42766756
11480000,0.20008595,-0.08404479,0.42766756
11492000,0.20161507,-0.08181015,0.42649668
11500000,0.20161507,-0.08181013,0.42649668
11512000,0.20161507,-0.08181013,0.42649668
11520000,0.20161508,-0.08181015,0.42649665
11532000,0.20161508,-0.08181015,0.42649665
11540000,0.20196025,-0.07908769,0.43034053
11552000,0.20196025,-0.07908769,0.43034053
11560000,0.20196025,-0.079087675,0.43034053
11572000,0.20196027,-0.079087675,0.43034053
11580000,0.20196027,-0.07908769,0.4303405
11592000,0.20196028,-0.07908769,0.4303405
11600000,0.20147851,-0.08259359,0.43149567
11612000,0.20147851,-0.08259359,0.43149567
11620000,0.20147853,-0.082593605,0.43149567
11632000,0.20147853,-0.0825936,0.43149564
11640000,0.20147853,-0.08259359,0.43149564
11652000,0.20231847,-0.079504326,0.43026534
11660000,0.20231847,-0.07950432,0.43026534
11672000,0.20231847,-0.07950431,0.43026534
11680000,0.20231849,-0.079504326,0.43026534
11692000,0.20231849,-0.079504326,0.43026534
11700000,0.19993033,-0.085110776,0.42878628
11712000,0.19993034,-0.085110776,0.42878628
11720000,0.19993034,-0.08511077,0.42878628
11732000,0.19993035,-0.08511077,0.42878628
11740000,0.19993035,-0.08511078,0.42878628
11752000,0.20032851,-0.08003591,0.42952883
11760000,0.20032851,-0.0800359,0.42952883
11772000,0.20032853,-0.080035895,0.42952883
11780000,0.20032853,-0.08003589,0.42952883
11792000,0.20032854,-0.08003589,0.42952883
11800000,0.20032854,-0.0800359,0.42952883
11812000,0.20135327,-0.08124637,0.43009683
11820000,0.20135327,-0.08124636,0.43009683
11832000,0.20135327,-0.08124635,0.43009683
11840000,0.20135328,-0.081246346,0.43009683
11852000,0.20037505,-0.0787812,0.4296151
11860000,0.20037505,-0.07878122,0.42961508
11872000,0.20037507,-0.07878122,0.42961508
11880000,0.20037507,-0.0787812,0.42961508
11892000,0.20037508,-0.0787812,0.42961508
11900000,0.20037508,-0.07878122,0.42961508
11912000,0.20136093,-0.0819876,0.42857185
11920000,0.20136093,-0.08198758,0.42857185
11932000,0.20136093,-0.08198758,0.42857185
11940000,0.20136094,-0.081987575,0.42857185
11952000,0.20136094,-0.081987575,0.42857185
11960000,0.19989322,-0.08161571,0.42734295
11972000,0.19989322,-0.08161571,0.42734295
11980000,0.19989324,-0.0816157,0.42734295
11992000,0.19989324,-0.081615694,0.42734295
12000000,0.19989325,-0.08161569,0.42734295
12012000,0.19919223,-0.08189197,0.4253317
12020000,0.19919223,-0.081891984,0.4253317
12032000,0.19919223,-0.08189198,0.4253317
12040000,0.19919224,-0.08189197,0.4253317
12052000,0.19919224,-0.08189197,0.4253317
12060000,0.19919226,-0.08189196,0.4253317
12072000,0.20019141,-0.08002782,0.426383
12080000,0.20019141,-0.08002783,0.426383
12092000,0.20019141,-0.08002783,0.426383
12100000,0.20019142,-0.08002782,0.426383
12112000,0.20038715,-0.07910212,0.43055648
12120000,0.20038715,-0.079102114,0.43055648
12132000,0.20038716,-0.079102114,0.43055648
12140000,0.20038716,-0.07910213,0.43055648
12152000,0.20038716,-0.07910213,0.43055648
12160000,0.20038718,-0.07910212,0.43055648
12172000,0.20220087,-0.07864631,0.4270766
12180000,0.20220087,-0.0786463,0.4270766
12192000,0.20220089,-0.0786463,0.4270766
12200000,0.20220089,-0.07864632,0.42707658
12212000,0.2022009,-0.07864632,0.42707658
12220000,0.19593492,-0.08102412,0.4289702
12232000,0.19593494,-0.08102411,0.4289702
12240000,0.19593494,-0.08102413,0.4289702
12252000,0.19593495,-0.081024125,0.4289702
12260000,0.19593495,-0.08102412,0.4289702
12272000,0.20334625,-0.08220348,0.4301435
12280000,0.20334625,-0.08220347,0.4301435
12292000,0.20334627,-0.08220346,0.4301435
12300000,0.20334627,-0.082203485,0.43014348
12312000,0.20334628,-0.08220348,0.43014348
12320000,0.20125559,-0.08313518,0.42805025
12332000,0.20125559,-0.08313518,0.42805025
12340000,0.2012556,-0.08313517,0.42805025
12352000,0.2012556,-0.083135165,0.42805025
12360000,0.20125562,-0.08313519,0.42805022
12372000,0.20061332,-0.08448252,0.43193948
12380000,0.20061332,-0.08448251,0.43193948
12392000,0.20061332,-0.08448251,0.43193948
12400000,0.20061333,-0.084482506,0.43193948
12412000,0.20061333,-0.0844825,0.43193948
12420000,0.20061335,-0.08448252,0.43193948
12432000,0.20081486,-0.08300729,0.43143535
12440000,0.20081487,-0.08300728,0.43143535
12452000,0.20081487,-0.08300728,0.43143535
12460000,0.20081487,-0.08300727,0.43143535
12472000,0.20081489,-0.08300727,0.43143535
12480000,0.20073462,-0.07936357,0.4311174
12492000,0.20073462,-0.07936357,0.4311174
12500000,0.20073462,-0.07936356,0.4311174
12512000,0.20073463,-0.079363555,0.4311174
12520000,0.20073463,-0.07936358,0.4311174
12532000,0.19843921,-0.082619846,0.42979807
12540000,0.19843921,-0.08261984,0.42979807
12552000,0.19843923,-0.08261983,0.42979807
12560000,0.19843923,-0.08261982,0.42979807
12572000,0.19843923,-0.08261982,0.42979807
12580000,0.19977894,-0.08069047,0.43041378
12592000,0.19977894,-0.080690466,0.43041378
12600000,0.19977896,-0.08069046,0.43041378
12612000,0.19977896,-0.08069046,0.43041378
12620000,0.19977897,-0.08069045,0.43041378
12632000,0.19974689,-0.0819794,0.4278093
12640000,0.1997469,-0.08197942,0.4278093
12652000,0.1997469,-0.08197942,0.4278093
12660000,0.19974692,-0.0819794,0.4278093
12672000,0.19974692,-0.0819794,0.4278093
12680000,0.19974694,-0.081979394,0.4278093
12692000,0.20232147,-0.079130016,0.42836502
12700000,0.20232148,-0.07913003,0.42836502
12712000,0.20232148,-0.07913003,0.42836502
12720000,0.20232148,-0.07913002,0.42836502
12732000,0.2023215,-0.079130016,0.42836502
12740000,0.20020404,-0.08283786,0.42827624
12752000,0.20020406,-0.08283785,0.42827624
12760000,0.20020406,-0.08283787,0.42827624
12772000,0.20020407,-0.082837865,0.42827624
12780000,0.20020407,-0.08283786,0.42827624
12792000,0.19877128,-0.08017319,0.42989528
12800000,0.1987713,-0.08017317,0.42989528
12812000,0.1987713,-0.08017317,0.42989525
12820000,0.19877131,-0.08017319,0.42989525
12832000,0.19877131,-0.08017319,0.42989525
12840000,0.19877131,-0.08017318,0.42989525
12852000,0.20004994,-0.08127527,0.43110624
12860000,0.20004995,-0.081275284,0.4311062
12872000,0.20004995,-0.081275284,0.4311062
12880000,0.20004997,-0.08127528,0.4311062
12892000,0.20004997,-0.08127527,0.4311062
12900000,0.20047005,-0.08338117,0.4286459
12912000,0.20047006,-0.08338117,0.42864588
12920000,0.20047006,-0.08338118,0.42864588
12932000,0.20047008,-0.08338118,0.42864588
12940000,0.20047008,-0.08338117,0.42864588
12952000,0.19887532,-0.07756645,0.42811522
12960000,0.19887534,-0.077566445,0.42811522
12972000,0.19887534,-0.077566445,0.42811522
12980000,0.19887535,-0.07756646,0.42811522
12992000,0.19887535,-0.07756646,0.42811522
13000000,0.20178343,-0.080267414,0.42904186
13012000,0.20178343,-0.080267414,0.42904186
13020000,0.20178343,-0.08026741,0.42904186
13032000,0.20178345,-0.08026741,0.42904186
13040000,0.20178345,-0.08026742,0.42904186
13052000,0.19830726,-0.07808442,0.42714912
13060000,0.19830726,-0.07808441,0.42714912
13072000,0.19830728,-0.07808441,0.42714912
13080000,0.19830728,-0.078084394,0.42714912
13092000,0.19830728,-0.078084394,0.4271491
13100000,0.19992211,-0.079340436,0.4265143
13112000,0.19992213,-0.079340436,0.4265143
13120000,0.19992213,-0.07934043,0.4265143
13132000,0.19992214,-0.07934042,0.4265143
13140000,0.19992214,-0.079340436,0.4265143
13152000,0.19890277,-0.08306293,0.43038416
13160000,0.19890279,-0.083062924,0.43038416
13172000,0.19890279,-0.083062924,0.43038416
13180000,0.19890279,-0.08306291,0.43038416
13192000,0.1989028,-0.08306291,0.43038416
13200000,0.1989028,-0.083062924,0.43038416
13212000,0.20037806,-0.08043524,0.42604527
13220000,0.20037808,-0.08043523,0.42604527
13232000,0.20037808,-0.08043523,0.42604527
13240000,0.20037809,-0.08043522,0.42604527
13252000,0.20037809,-0.08043522,0.42604524
13260000,0.19918339,-0.08164515,0.43192208
13272000,0.1991834,-0.08164515,0.43192208
13280000,0.1991834,-0.08164514,0.43192208
13292000,0.19918342,-0.08164514,0.43192208
13300000,0.19918342,-0.08164513,0.43192208
13312000,0.20330384,-0.08317307,0.429102
13320000,0.20330386,-0.08317308,0.429102
13332000,0.20330386,-0.08317308,0.429102
13340000,0.20330386,-0.083173074,0.429102
13352000,0.20330387,-0.083173074,0.42910197
13360000,0.1983325,-0.08084025,0.4279702
13372000,0.1983325,-0.080840245,0.4279702
13380000,0.19833252,-0.08084027,0.4279702
13392000,0.19833252,-0.08084026,0.4279702
13400000,0.19833252,-0.08084025,0.4279702
13412000,0.20177095,-0.08510111,0.42695457
13420000,0.20177096,-0.085101105,0.42695457
13432000,0.20177096,-0.085101105,0.42695457
13440000,0.20177096,-0.08510112,0.42695457
13452000,0.20177098,-0.08510112,0.42695457
13460000,0.20177098,-0.08510111,0.42695457
13472000,0.20092793,-0.08001046,0.42973635
13480000,0.20092793,-0.080010474,0.42973635
13492000,0.20092794,-0.080010474,0.42973635
13500000,0.20092794,-0.08001046,0.42973635
13512000,0.20092796,-0.08001046,0.42973635
13520000,0.19926834,-0.083509296,0.43120852
13532000,0.19926836,-0.083509296,0.43120852
13540000,0.19926836,-0.08350931,0.4312085
13552000,0.19926837,-0.08350931,0.4312085
13560000,0.19926837,-0.083509296,0.4312085
13572000,0.20174734,-0.082038864,0.42951745
13580000,0.20174736,-0.08203886,0.42951745
13592000,0.20174736,-0.08203886,0.42951745
13600000,0.20174736,-0.08203887,0.42951745
13612000,0.20174737,-0.08203887,0.42951745
13620000,0.20174737,-0.08203886,0.42951745
13632000,0.20162007,-0.082529835,0.42854157
13640000,0.20162009,-0.08252982,0.42854157
13652000,0.20162009,-0.08252982,0.42854157
13660000,0.2016201,-0.082529835,0.42854157
13672000,0.19898552,-0.08138346,0.42789936
13680000,0.19898553,-0.08138345,0.42789936
13692000,0.19898553,-0.08138345,0.42789936
13700000,0.19898553,-0.08138344,0.42789936
13712000,0.19898555,-0.08138344,0.42789933
13720000,0.19898555,-0.08138345,0.42789933
13732000,0.20171662,-0.08177968,0.42878374
13740000,0.20171662,-0.08177967,0.42878374
13752000,0.20171662,-0.08177967,0.42878374
13760000,0.20171663,-0.08177969,0.42878374
13772000,0.20171663,-0.08177969,0.42878374
13780000,0.20069462,-0.08353228,0.42726648
13792000,0.20069462,-0.08353228,0.42726648
13800000,0.20069462,-0.08353227,0.42726648
13812000,0.20069464,-0.08353227,0.42726648
13820000,0.20069464,-0.08353228,0.42726648
13832000,0.19962499,-0.080996454,0.43025512
13840000,0.19962499,-0.08099645,0.43025512
13852000,0.199625,-0.08099645,0.43025512
13860000,0.199625,-0.08099644,0.4302551
13872000,0.19962502,-0.08099643,0.4302551
13880000,0.19962502,-0.080996454,0.4302551
13892000,0.20077088,-0.08416554,0.42838526
13900000,0.2007709,-0.084165536,0.42838526
13912000,0.2007709,-0.08416553,0.42838523
13920000,0.20077091,-0.08416552,0.42838523
13932000,0.19916356,-0.080856055,0.4294437
13940000,0.19916356,-0.08085607,0.4294437
13952000,0.19916357,-0.08085607,0.4294437
13960000,0.19916357,-0.08085606,0.4294437
13972000,0.19916357,-0.08085606,0.4294437
13980000,0.19916359,-0.08085605,0.4294437
13992000,0.2005292,-0.07893509,0.4278914
14000000,0.2005292,-0.0789351,0.4278914
14012000,0.20052922,-0.0789351,0.4278914
14020000,0.20052922,-0.078935094,0.4278914
14032000,0.20052922,-0.078935094,0.4278914
14040000,0.20232873,-0.080733195,0.4286475
14052000,0.20232874,-0.080733225,0.4286475
14060000,0.20232874,-0.08073321,0.4286475
14072000,0.20232874,-0.08073321,0.4286475
14080000,0.20232876,-0.0807332,0.4286475
14092000,0.20018615,-0.08198573,0.43160418
14100000,0.20018615,-0.08198574,0.43160415
14112000,0.20018616,-0.08198574,0.43160415
14120000,0.20018616,-0.081985734,0.43160415
14132000,0.20018618,-0.08198573,0.43160415
14140000,0.20160125,-0.07968776,0.42745325
14152000,0.20160125,-0.07968775,0.42745325
14160000,0.20160127,-0.079687774,0.42745325
14172000,0.20160127,-0.07968777,0.42745322
14180000,0.20160128,-0.07968776,0.42745322
14192000,0.20160128,-0.07968776,0.42745322
14200000,0.20155491,-0.08140995,0.42899892
14212000,0.20155491,-0.08140995,0.42899892
14220000,0.20155492,-0.08140997,0.42899892
14232000,0.20155492,-0.08140997,0.42899892
14240000,0.20155492,-0.08140995,0.42899892
14252000,0.19728015,-0.078633584,0.4278166
14260000,0.19728015,-0.07863358,0.4278166
14272000,0.19728017,-0.07863358,0.4278166
14280000,0.19728017,-0.07863359,0.4278166
14292000,0.19728018,-0.07863359,0.4278166
14300000,0.200142,-0.07931851,0.4316921
14312000,0.20014201,-0.07931851,0.4316921
14320000,0.20014201,-0.0793185,0.4316921
14332000,0.20014203,-0.0793185,0.4316921
14340000,0.20014203,-0.079318516,0.43169206
14352000,0.2017656,-0.08093267,0.4262695
14360000,0.20176561,-0.08093266,0.4262695
14372000,0.20176561,-0.08093266,0.4262695
14380000,0.20176563,-0.08093268,0.4262695
14392000,0.20176563,-0.08093268,0.4262695
14400000,0.20203404,-0.07898951,0.42826334
14412000,0.20203406,-0.078989506,0.42826334
14420000,0.20203406,-0.0789895,0.42826334
14432000,0.20203407,-0.0789895,0.42826334
14440000,0.20203407,-0.07898951,0.42826334
14452000,0.19896851,-0.082603216,0.4300352
14460000,0.19896851,-0.08260321,0.4300352
14472000,0.19896853,-0.0826032,0.4300352
14480000,0.19896853,-0.082603194,0.4300352
14492000,0.19896854,-0.082603194,0.4300352
14500000,0.19896854,-0.08260321,0.4300352
14512000,0.20054692,-0.08179103,0.42844358
14520000,0.20054692,-0.08179102,0.42844358
14532000,0.20054694,-0.08179101,0.42844358
14540000,0.20054694,-0.081791006,0.42844358
14552000,0.20054695,-0.081791006,0.42844358
14560000,0.202918,-0.083065,0.42948434
14572000,0.20291801,-0.083065,0.4294843
14580000,0.20291801,-0.083064996,0.4294843
14592000,0.20291802,-0.08306499,0.4294843
14600000,0.20291802,-0.08306498,0.4294843
14612000,0.19796996,-0.08097051,0.42993104
14620000,0.19796996,-0.080970526,0.42993104
14632000,0.19796997,-0.080970526,0.42993104
14640000,0.19796997,-0.08097052,0.42993104
14652000,0.19796999,-0.08097052,0.42993104
14660000,0.19942164,-0.083582476,0.42495778
14672000,0.19942164,-0.083582506,0.42495778
14680000,0.19942166,-0.08358249,0.42495778
14692000,0.19942166,-0.08358249,0.42495775
14700000,0.19942167,-0.08358248,0.42495775
14712000,0.19942167,-0.08358248,0.42495775
14720000,0.201505,-0.08068515,0.42700142
14732000,0.201505,-0.08068515,0.42700142
14740000,0.20150502,-0.080685146,0.42700142
14752000,0.20150502,-0.080685146,0.42700142
14760000,0.20150504,-0.08068513,0.42700142
14772000,0.20056202,-0.08199904,0.42981145
14780000,0.20056202,-0.081999056,0.42981145
14792000,0.20056203,-0.081999056,0.42981145
14800000,0.20056203,-0.08199904,0.42981145
14812000,0.20056204,-0.08199904,0.42981145
14820000,0.2010483,-0.083207436,0.4311708
14832000,0.2010483,-0.083207436,0.4311708
14840000,0.20104831,-0.08320745,0.4311708
14852000,0.20104831,-0.08320745,0.43117076
14860000,0.20104831,-0.08320744,0.43117076
14872000,0.2014605,-0.08200776,0.42904228
14880000,0.2014605,-0.08200775,0.42904228
14892000,0.20146051,-0.08200774,0.42904228
14900000,0.20146051,-0.082007766,0.42904228
14912000,0.20146053,-0.08200776,0.42904228
14920000,0.20080078,-0.08001151,0.4326167
14932000,0.20080078,-0.08001151,0.4326167
14940000,0.20080079,-0.0800115,0.4326167
14952000,0.20080079,-0.0800115,0.4326167
14960000,0.2008008,-0.08001152,0.4326167
14972000,0.20106846,-0.082278155,0.4299993
14980000,0.20106846,-0.08227815,0.4299993
14992000,0.20106848,-0.08227815,0.4299993
15000000,0.20106848,-0.08227816,0.4299993
15012000,0.20106849,-0.08227816,0.4299993
15020000,0.20106849,-0.08227815,0.4299993
15032000,0.19851603,-0.08115617,0.428475
15040000,0.19851604,-0.081156164,0.428475
15052000,0.19851604,-0.081156164,0.428475
15060000,0.19851604,-0.08115618,0.428475
15072000,0.19851606,-0.08115618,0.428475
15080000,0.19991723,-0.08163295,0.43060014
15092000,0.19991723,-0.08163295,0.43060014
15100000,0.19991724,-0.081632935,0.43060014
15112000,0.19991724,-0.081632935,0.43060014
15120000,0.19991724,-0.08163295,0.43060014
15132000,0.1985611,-0.0783933,0.42845398
15140000,0.1985611,-0.07839329,0.42845398
15152000,0.19856112,-0.07839329,0.42845398
15160000,0.19856112,-0.07839328,0.42845398
15172000,0.19856113,-0.07839328,0.42845398
15180000,0.19856113,-0.078393295,0.42845398
15192000,0.2021265,-0.07902851,0.43059754
15200000,0.20212652,-0.0790285,0.43059754
15212000,0.20212652,-0.0790285,0.43059754
15220000,0.20212653,-0.07902849,0.43059754
15232000,0.20212653,-0.07902849,0.43059754
15240000,0.20271076,-0.081999205,0.43322048
15252000,0.20271078,-0.081999205,0.43322048
15260000,0.20271078,-0.0819992,0.43322048
15272000,0.20271079,-0.0819992,0.43322045
15280000,0.20271079,-0.08199918,0.43322045
15292000,0.19811489,-0.082319774,0.43100286
15300000,0.19811489,-0.08231976,0.43100286
15312000,0.1981149,-0.08231976,0.43100283
15320000,0.1981149,-0.08231975,0.43100283
15332000,0.19811492,-0.08231975,0.43100283
15340000,0.19894867,-0.08537129,0.42659777
15352000,0.19894868,-0.085371286,0.42659777
15360000,0.19894868,-0.08537128,0.42659777
15372000,0.19894868,-0.08537128,0.42659777
15380000,0.1989487,-0.08537127,0.42659777
15392000,0.20057964,-0.0858354,0.42836878
15400000,0.20057964,-0.08583541,0.42836878
15412000,0.20057966,-0.08583541,0.42836878
15420000,0.20057966,-0.085835405,0.42836878
15432000,0.20057967,-0.0858354,0.42836878
15440000,0.20129354,-0.08281346,0.42729762
15452000,0.20129354,-0.08281346,0.42729762
15460000,0.20129356,-0.08281347,0.42729762
15472000,0.20129356,-0.08281347,0.42729762
15480000,0.20129356,-0.082813464,0.42729762
15492000,0.20129357,-0.08281346,0.4272976
15500000,0.19847716,-0.08156371,0.42994618
15512000,0.19847716,-0.08156371,0.42994618
15520000,0.19847718,-0.081563726,0.42994618
15532000,0.19847718,-0.081563726,0.42994618
15540000,0.1984772,-0.08156371,0.42994618
15552000,0.20240481,-0.08188896,0.42914978
15560000,0.20240483,-0.08188895,0.42914978
15572000,0.20240483,-0.081888944,0.42914978
15580000,0.20240484,-0.081888966,0.42914978
15592000,0.20240484,-0.08188896,0.42914978
15600000,0.20196177,-0.08101398,0.42957684
15612000,0.20196179,-0.08101398,0.42957684
15620000,0.20196179,-0.08101399,0.42957684
15632000,0.2019618,-0.08101399,0.42957684
15640000,0.2019618,-0.081013985,0.42957684
15652000,0.20148245,-0.0812963,0.43056855
15660000,0.20148246,-0.081296295,0.43056855
15672000,0.20148246,-0.081296295,0.43056855
15680000,0.20148247,-0.08129631,0.43056855
15692000,0.20148247,-0.08129631,0.43056855
15700000,0.20148247,-0.081296295,0.43056855
15712000,0.1992562,-0.08277273,0.4291348
15720000,0.19925621,-0.08277272,0.4291348
15732000,0.19925621,-0.08277272,0.4291348
15740000,0.19925621,-0.08277273,0.4291348
15752000,0.19925623,-0.08277273,0.42913476
15760000,0.20073238,-0.0843862,0.4295482
15772000,0.20073238,-0.0843862,0.4295482
15780000,0.2007324,-0.084386185,0.4295482
15792000,0.2007324,-0.084386185,0.4295482
15800000,0.20073241,-0.0843862,0.42954817
15812000,0.20078951,-0.083825916,0.42827943
15820000,0.20078951,-0.08382591,0.42827943
15832000,0.20078953,-0.08382591,0.42827943
15840000,0.20078953,-0.08382589,0.42827943
15852000,0.20078954,-0.08382589,0.42827943
15860000,0.20284094,-0.08200736,0.42913654
15872000,0.20284094,-0.08200736,0.42913654
15880000,0.20284095,-0.082007356,0.42913654
15892000,0.20284095,-0.082007356,0.42913654
15900000,0.20284097,-0.08200737,0.4291365
15912000,0.20168908,-0.08087208,0.42757922
15920000,0.20168908,-0.08087207,0.42757922
15932000,0.2016891,-0.08087207,0.42757922
15940000,0.2016891,-0.08087206,0.42757922
15952000,0.20168911,-0.08087206,0.42757922
15960000,0.20168911,-0.080872074,0.42757922
15972000,0.19951445,-0.08268634,0.43126673
15980000,0.19951445,-0.082686335,0.43126673
15992000,0.19951446,-0.082686335,0.43126673
16000000,0.19951446,-0.08268633,0.43126673
16011999,0.20418541,-0.08100971,0.4309788
16020000,0.20418543,-0.08100972,0.4309788
16032000,0.20418543,-0.08100972,0.4309788
16040000,0.20418544,-0.081009716,0.4309788
16052000,0.20418544,-0.081009716,0.4309788
16060000,0.20418546,-0.0810097,0.4309788
16072000,0.2000155,-0.07980968,0.42727685
16080000,0.20001552,-0.079809695,0.42727685
16092000,0.20001552,-0.079809695,0.42727685
